timestamp,magnetometer_ga[0],magnetometer_ga[1],magnetometer_ga[2]
109412590,-0.17075905,0.17267826,0.28317234
109436435,-0.17476726,0.17508854,0.28317234
109460449,-0.16942298,0.17629367,0.28545398
110261514,-0.17343119,0.17267826,0.28545398
110285436,-0.17343119,0.17147313,0.28431314
110309498,-0.17075905,0.17147313,0.28659478
110333453,-0.17209512,0.17388341,0.28431314
110357489,-0.17476726,0.17267826,0.28317234
110381447,-0.17209512,0.17388341,0.28545398
110405503,-0.17476726,0.17629367,0.28431314
110500552,-0.17075905,0.17147313,0.28545398
110545437,-0.17343119,0.17267826,0.28431314
110567782,-0.17343119,0.17508854,0.28545398
110589436,-0.17075905,0.17629367,0.28203154
110612436,-0.17343119,0.17147313,0.28545398
110636473,-0.16942298,0.170268,0.28203154
110660116,-0.17209512,0.17267826,0.28545398
110681503,-0.17343119,0.17147313,0.28545398
110703863,-0.17075905,0.17388341,0.28431314
110725509,-0.17209512,0.17388341,0.28203154
110746516,-0.17075905,0.17508854,0.28317234
110769456,-0.17343119,0.17147313,0.28203154
110791772,-0.17610332,0.17147313,0.28317234
110813436,-0.17476726,0.17388341,0.28659478
110836438,-0.17610332,0.17267826,0.28545398
110860512,-0.16942298,0.17629367,0.28317234
110883904,-0.17343119,0.17267826,0.28431314
111116873,-0.17075905,0.17388341,0.28773558
111141523,-0.17209512,0.17388341,0.28431314
111165397,-0.17209512,0.17267826,0.28659478
111189351,-0.17343119,0.17267826,0.28431314
111213301,-0.17610332,0.17388341,0.28431314
111234436,-0.16808692,0.17147313,0.28431314
111256703,-0.17343119,0.17147313,0.28431314
111280655,-0.17075905,0.17267826,0.28773558
111304723,-0.16808692,0.17508854,0.28431314
111328713,-0.17476726,0.17388341,0.28431314
111352618,-0.17343119,0.17388341,0.28545398
111376617,-0.17476726,0.17508854,0.28317234
111400610,-0.17209512,0.17508854,0.28203154
111424589,-0.16675083,0.17147313,0.28203154
111448672,-0.17209512,0.17267826,0.28545398
111592682,-0.16808692,0.17267826,0.28659478
111615592,-0.17075905,0.17147313,0.28317234
111639458,-0.17075905,0.17147313,0.28431314
111663597,-0.17343119,0.17267826,0.28545398
111687535,-0.17075905,0.17508854,0.28317234
111711566,-0.17343119,0.17388341,0.28431314
111735453,-0.17343119,0.17629367,0.28659478
111879437,-0.17476726,0.17508854,0.28545398
112334436,-0.17476726,0.17388341,0.28317234
112358436,-0.17075905,0.17147313,0.28545398
112382436,-0.17743939,0.17147313,0.28773558
112406488,-0.17209512,0.17388341,0.28431314
112430439,-0.17075905,0.17267826,0.28431314
112454442,-0.17075905,0.17508854,0.28317234
112478491,-0.16942298,0.17388341,0.28203154
112502443,-0.17075905,0.17267826,0.28545398
112760446,-0.17209512,0.17147313,0.28203154
112784462,-0.17209512,0.170268,0.28545398
112808497,-0.17343119,0.17267826,0.28431314
112831017,-0.16675083,0.17147313,0.28089073
112852502,-0.17343119,0.17508854,0.28659478
112875525,-0.17343119,0.17147313,0.28317234
112897440,-0.16942298,0.17388341,0.28317234
112921446,-0.16808692,0.17388341,0.28545398
112945448,-0.17075905,0.17147313,0.28317234
112968436,-0.16808692,0.17508854,0.28545398
112991061,-0.17343119,0.17147313,0.28545398
113012542,-0.17610332,0.17508854,0.28431314
113035662,-0.17075905,0.17147313,0.28431314
113057557,-0.16675083,0.16665259,0.28659478
113081445,-0.17209512,0.170268,0.28203154
113105457,-0.17075905,0.17267826,0.28317234
113127608,-0.17209512,0.17267826,0.28203154
113151593,-0.17343119,0.17388341,0.28431314
113173436,-0.17209512,0.17388341,0.28317234
113195571,-0.17075905,0.17388341,0.28431314
113217446,-0.16942298,0.17267826,0.28317234
113241569,-0.17476726,0.17147313,0.28431314
113265449,-0.17209512,0.17147313,0.28203154
113289447,-0.16942298,0.16906285,0.28659478
113313436,-0.17209512,0.17267826,0.28317234
113337527,-0.17343119,0.17267826,0.28431314
113361436,-0.17343119,0.17388341,0.28317234
113385436,-0.17075905,0.17147313,0.28545398
113411731,-0.17075905,0.17267826,0.28773558
113435817,-0.17075905,0.17267826,0.28431314
113458436,-0.17075905,0.17267826,0.28431314
113483756,-0.17075905,0.17267826,0.28203154
113507817,-0.17343119,0.17508854,0.28089073
113528685,-0.16942298,0.17388341,0.28431314
113550447,-0.17610332,0.17388341,0.28203154
113576437,-0.17343119,0.17147313,0.28317234
113600583,-0.16808692,0.17267826,0.28545398
113622503,-0.17343119,0.17508854,0.28317234
113648661,-0.16675083,0.16785772,0.28431314
113672525,-0.17610332,0.17388341,0.28431314
113696505,-0.17209512,0.17267826,0.28431314
113719035,-0.17075905,0.17508854,0.28431314
113742460,-0.17209512,0.17267826,0.28659478
113768850,-0.17343119,0.17629367,0.28545398
113792728,-0.17209512,0.17267826,0.28317234
113817438,-0.17209512,0.170268,0.28545398
113840487,-0.17075905,0.17267826,0.28545398
113862436,-0.17343119,0.17388341,0.28203154
113888437,-0.17075905,0.17267826,0.28317234
113912437,-0.17476726,0.17267826,0.28545398
113937185,-0.16942298,0.17388341,0.28545398
113960972,-0.17209512,0.17388341,0.28659478
113985146,-0.17075905,0.17267826,0.28545398
114010258,-0.17476726,0.17388341,0.28545398
114033341,-0.17209512,0.16906285,0.28431314
114057366,-0.16808692,0.17388341,0.28545398
114081559,-0.17343119,0.17388341,0.28431314
114105312,-0.17209512,0.17147313,0.28431314
114129245,-0.17209512,0.170268,0.28203154
114153231,-0.17343119,0.17508854,0.28545398
114177271,-0.17209512,0.17267826,0.28431314
114201229,-0.17610332,0.17267826,0.28659478
114225209,-0.17209512,0.17267826,0.28317234
114249226,-0.17075905,0.17508854,0.28431314
114273417,-0.16942298,0.17629367,0.28203154
114297478,-0.17343119,0.17147313,0.28203154
114321328,-0.16942298,0.17147313,0.28545398
114345266,-0.17743939,0.17147313,0.28431314
114369354,-0.17343119,0.17267826,0.28545398
114393218,-0.17209512,0.17388341,0.28317234
114418438,-0.17610332,0.17147313,0.28203154
114442435,-0.17610332,0.17508854,0.28203154
114465171,-0.16808692,0.170268,0.28659478
114486503,-0.17343119,0.17508854,0.28431314
114510436,-0.17209512,0.17388341,0.28545398
114534447,-0.17343119,0.17629367,0.28545398
114557369,-0.17343119,0.170268,0.28659478
114578482,-0.17343119,0.17388341,0.28317234
114602527,-0.17209512,0.170268,0.28317234
114625773,-0.17343119,0.17388341,0.28431314
114649679,-0.16808692,0.17267826,0.28545398
114671437,-0.17610332,0.17508854,0.28203154
114695564,-0.17610332,0.17388341,0.28317234
114719448,-0.17343119,0.17508854,0.28431314
114743526,-0.17476726,0.170268,0.28317234
114767437,-0.17476726,0.16906285,0.28545398
114794383,-0.17209512,0.17508854,0.28659478
114818438,-0.17343119,0.17508854,0.28431314
114842268,-0.17610332,0.17629367,0.28317234
114866221,-0.17476726,0.17388341,0.27974993
114887448,-0.17075905,0.17508854,0.28203154
114911592,-0.16808692,0.17508854,0.28431314
114935437,-0.17075905,0.17147313,0.28773558
114959538,-0.17209512,0.17388341,0.28545398
114983437,-0.17343119,0.16906285,0.28545398
115007565,-0.17209512,0.17388341,0.28317234
115034122,-0.17075905,0.17147313,0.28545398
115058167,-0.16808692,0.17267826,0.27974993
115082186,-0.16942298,0.17388341,0.28203154
115103448,-0.17075905,0.17388341,0.28203154
115127598,-0.17075905,0.17629367,0.28431314
115151437,-0.17209512,0.17267826,0.28317234
115174288,-0.16942298,0.17267826,0.28317234
115195527,-0.17343119,0.17508854,0.28545398
115218764,-0.17343119,0.16906285,0.28317234
115240444,-0.17075905,0.17508854,0.28773558
115264447,-0.17209512,0.17147313,0.28317234
115288613,-0.17209512,0.17147313,0.28317234
115312436,-0.17209512,0.17267826,0.28317234
115336436,-0.16942298,0.17508854,0.28317234
115360436,-0.17476726,0.17388341,0.28545398
115384509,-0.17476726,0.17267826,0.28659478
115408485,-0.17343119,0.170268,0.28317234
115434848,-0.17209512,0.1774988,0.28773558
115456452,-0.17209512,0.170268,0.28545398
115480532,-0.17743939,0.17508854,0.28773558
115506812,-0.17209512,0.17267826,0.28203154
115530873,-0.17075905,0.17870396,0.28431314
115552436,-0.17075905,0.17267826,0.28659478
115579167,-0.17209512,0.17388341,0.28431314
115600509,-0.17075905,0.17388341,0.28659478
115624435,-0.17075905,0.17508854,0.28203154
115648452,-0.16942298,0.17508854,0.28545398
115672451,-0.17343119,0.170268,0.28431314
115696555,-0.17075905,0.17147313,0.28089073
115719121,-0.17075905,0.17388341,0.28317234
115740504,-0.17075905,0.17870396,0.28545398
115763615,-0.17209512,0.17267826,0.28317234
115787315,-0.16808692,0.17147313,0.28203154
115809462,-0.17610332,0.17508854,0.28317234
115835562,-0.16808692,0.17267826,0.28317234
115857476,-0.17075905,0.17508854,0.28203154
115880526,-0.17075905,0.17508854,0.28545398
115903018,-0.17476726,0.17147313,0.28431314
115924520,-0.17075905,0.17508854,0.28431314
115947630,-0.17075905,0.17388341,0.28203154
115971542,-0.17209512,0.17388341,0.28545398
115995574,-0.17610332,0.17267826,0.28317234
116017440,-0.17209512,0.17267826,0.28545398
116040436,-0.17075905,0.17388341,0.28659478
116063011,-0.16942298,0.17388341,0.28317234
116087075,-0.17343119,0.16906285,0.28431314
116107863,-0.17343119,0.17267826,0.28203154
116129512,-0.17075905,0.17267826,0.28545398
116153501,-0.17343119,0.17267826,0.28545398
116177449,-0.17209512,0.17267826,0.28431314
116201436,-0.17209512,0.17388341,0.28545398
116225523,-0.17075905,0.17508854,0.28317234
116249436,-0.17343119,0.16785772,0.28659478
116273446,-0.17075905,0.17388341,0.28431314
116295698,-0.16808692,0.17508854,0.28431314
116317444,-0.17209512,0.17147313,0.28545398
116340437,-0.17343119,0.17388341,0.28431314
116361445,-0.17610332,0.17147313,0.28431314
116383823,-0.17610332,0.17267826,0.28431314
116407863,-0.17209512,0.17388341,0.28431314
116429544,-0.16942298,0.17147313,0.28431314
116452382,-0.16942298,0.17267826,0.28431314
116473503,-0.17209512,0.17508854,0.28431314
116496436,-0.17075905,0.17629367,0.28659478
116519833,-0.17343119,0.17267826,0.28431314
116543776,-0.16942298,0.17629367,0.28431314
116567855,-0.17476726,0.16906285,0.28203154
116591918,-0.17343119,0.17388341,0.28317234
116613615,-0.17343119,0.17267826,0.28431314
116636466,-0.17343119,0.17267826,0.28431314
116658452,-0.16942298,0.17267826,0.28431314
116680474,-0.17209512,0.17267826,0.28431314
116702447,-0.17209512,0.17147313,0.28659478
116724440,-0.17343119,0.17388341,0.28659478
116745448,-0.17209512,0.170268,0.28203154
116768446,-0.17209512,0.1774988,0.28659478
116789436,-0.17209512,0.17388341,0.28659478
116812922,-0.17743939,0.17388341,0.28317234
116836439,-0.17209512,0.17388341,0.28431314
116858497,-0.1640787,0.17388341,0.28431314
116880689,-0.17476726,0.17267826,0.28317234
116904548,-0.16808692,0.17267826,0.28545398
116928670,-0.17343119,0.17388341,0.28431314
116952638,-0.17343119,0.17388341,0.28431314
116976594,-0.17209512,0.170268,0.28545398
117000574,-0.17877546,0.17388341,0.28545398
117024629,-0.17209512,0.17629367,0.28659478
117048507,-0.17209512,0.17508854,0.28203154
117072523,-0.17343119,0.17629367,0.28545398
117096525,-0.17075905,0.17267826,0.28545398
117120634,-0.17075905,0.17388341,0.28545398
117144564,-0.17209512,0.17508854,0.28317234
117168611,-0.17209512,0.17388341,0.28317234
117192537,-0.17476726,0.17388341,0.28317234
117216528,-0.17209512,0.17388341,0.28431314
117240665,-0.17209512,0.17388341,0.28659478
117264642,-0.17343119,0.16785772,0.28317234
117288714,-0.17075905,0.17508854,0.28203154
117312608,-0.17209512,0.17267826,0.28203154
117336518,-0.17075905,0.17388341,0.28317234
117360641,-0.17343119,0.17147313,0.28203154
117384498,-0.17610332,0.17388341,0.28431314
117408637,-0.17075905,0.17388341,0.28431314
117432575,-0.17209512,0.170268,0.28431314
117456617,-0.17209512,0.17267826,0.28431314
117479453,-0.17075905,0.17629367,0.28659478
117503637,-0.17209512,0.17147313,0.28545398
117527537,-0.17610332,0.17267826,0.28545398
117551449,-0.17476726,0.17267826,0.28203154
117575531,-0.17075905,0.17147313,0.28431314
117599583,-0.17343119,0.17267826,0.28317234
117626545,-0.17610332,0.17147313,0.28431314
117650435,-0.17209512,0.170268,0.28317234
117674002,-0.17209512,0.17508854,0.28431314
117695595,-0.17209512,0.17267826,0.28545398
117719515,-0.17075905,0.17508854,0.28431314
117743437,-0.17343119,0.17267826,0.28317234
117767523,-0.17743939,0.17147313,0.28431314
117791654,-0.17209512,0.17147313,0.28431314
117815562,-0.17209512,0.17388341,0.28317234
117839447,-0.17343119,0.17508854,0.28089073
117863437,-0.16808692,0.17267826,0.28203154
117887620,-0.17209512,0.170268,0.28089073
117911524,-0.17343119,0.17147313,0.28317234
117935440,-0.17343119,0.17508854,0.28317234
117962376,-0.17343119,0.17147313,0.28659478
117986185,-0.17209512,0.170268,0.28659478
118007600,-0.17209512,0.17267826,0.28545398
118031437,-0.17209512,0.17388341,0.28545398
118055514,-0.17209512,0.17147313,0.28431314
118078447,-0.17075905,0.17147313,0.28545398
118102452,-0.16942298,0.17508854,0.28887638
118126487,-0.17075905,0.17388341,0.28317234
118150435,-0.17209512,0.17388341,0.28659478
118174439,-0.17209512,0.17508854,0.28545398
118198438,-0.16808692,0.17388341,0.28431314
118222126,-0.17075905,0.17629367,0.28089073
118243571,-0.17209512,0.17267826,0.28089073
118266532,-0.17209512,0.17388341,0.28089073
118288597,-0.17075905,0.17388341,0.28545398
118312439,-0.17343119,0.17267826,0.28317234
118336512,-0.16942298,0.17267826,0.28659478
118360436,-0.17075905,0.17508854,0.28773558
118384498,-0.17343119,0.17267826,0.28317234
118411960,-0.17075905,0.17267826,0.28317234
118434910,-0.17075905,0.17267826,0.28773558
118456449,-0.17209512,0.17388341,0.28089073
118480519,-0.16942298,0.170268,0.28317234
118504515,-0.17343119,0.17267826,0.28545398
118528436,-0.17209512,0.17388341,0.28203154
118552436,-0.17743939,0.17267826,0.28545398
118575601,-0.17209512,0.17388341,0.28317234
118598225,-0.16942298,0.16785772,0.28545398
118618841,-0.17075905,0.17147313,0.28431314
118640499,-0.16808692,0.17267826,0.28203154
118664449,-0.16808692,0.17267826,0.28431314
118688436,-0.17075905,0.170268,0.27974993
118711597,-0.17743939,0.17267826,0.28545398
118733449,-0.17343119,0.16906285,0.28431314
118756515,-0.17209512,0.17267826,0.28545398
118779104,-0.17209512,0.17147313,0.28431314
118799633,-0.17075905,0.17267826,0.28431314
118823543,-0.17343119,0.170268,0.28545398
118845488,-0.17209512,0.170268,0.28089073
118869447,-0.17476726,0.17267826,0.28089073
118893436,-0.17075905,0.16906285,0.28317234
118917562,-0.17610332,0.17267826,0.28545398
118941436,-0.17476726,0.17388341,0.28431314
118965446,-0.17209512,0.17388341,0.28545398
118989449,-0.17476726,0.17629367,0.28317234
119013548,-0.17209512,0.170268,0.28545398
119037436,-0.17343119,0.17508854,0.28203154
119060436,-0.17209512,0.17388341,0.28545398
119083123,-0.17075905,0.16785772,0.28089073
119104491,-0.16942298,0.17267826,0.28545398
119127562,-0.17343119,0.17388341,0.28545398
119151573,-0.17476726,0.17147313,0.28545398
119175671,-0.17343119,0.170268,0.28545398
119197436,-0.17343119,0.17147313,0.28545398
119221512,-0.17476726,0.170268,0.28545398
119245446,-0.17343119,0.17388341,0.28545398
119271626,-0.17476726,0.17147313,0.28317234
119293435,-0.17343119,0.17147313,0.28203154
119315728,-0.17075905,0.17388341,0.28431314
119337436,-0.17610332,0.17267826,0.28203154
119360435,-0.17476726,0.17267826,0.28431314
119383932,-0.17209512,0.17147313,0.28659478
119405453,-0.16942298,0.17267826,0.28431314
119429551,-0.17209512,0.17388341,0.28545398
119451738,-0.16942298,0.17629367,0.28659478
119473504,-0.16942298,0.17388341,0.28431314
119494593,-0.17209512,0.16906285,0.28545398
119518436,-0.17209512,0.17388341,0.28431314
119544148,-0.17476726,0.17267826,0.28659478
119568389,-0.17343119,0.17267826,0.28431314
119589449,-0.17343119,0.170268,0.28317234
119611704,-0.17610332,0.17508854,0.28545398
119633449,-0.16942298,0.16906285,0.28317234
119657448,-0.17343119,0.170268,0.28089073
119681538,-0.16675083,0.17267826,0.28659478
119704436,-0.17743939,0.17147313,0.28431314
119726435,-0.17209512,0.17267826,0.28431314
119748449,-0.17610332,0.17388341,0.28545398
119770436,-0.17610332,0.17267826,0.28317234
119792447,-0.16942298,0.17388341,0.28431314
119813447,-0.17743939,0.17267826,0.28659478
119835735,-0.17743939,0.170268,0.28317234
119857447,-0.17343119,0.17147313,0.28545398
119880848,-0.16675083,0.17388341,0.28089073
119904890,-0.17209512,0.17508854,0.28203154
119928862,-0.17209512,0.170268,0.28659478
119952796,-0.17209512,0.17629367,0.28317234
119977439,-0.17343119,0.17147313,0.28545398
120002709,-0.16808692,0.17388341,0.28545398
120025446,-0.17476726,0.170268,0.28659478
120049487,-0.17343119,0.17388341,0.28431314
120073349,-0.17343119,0.17388341,0.28431314
120097184,-0.17075905,0.17267826,0.28203154
120118436,-0.16942298,0.170268,0.28659478
120142545,-0.17209512,0.17508854,0.28431314
120166436,-0.17476726,0.17147313,0.28545398
120194391,-0.17476726,0.17147313,0.28545398
120218436,-0.17476726,0.17267826,0.28317234
120242499,-0.17209512,0.170268,0.28317234
120266436,-0.16942298,0.17267826,0.28545398
120289297,-0.17075905,0.16785772,0.28431314
120313280,-0.16942298,0.1774988,0.28431314
120334498,-0.17343119,0.170268,0.2900172
120358435,-0.17476726,0.17508854,0.28317234
120382447,-0.17343119,0.17267826,0.28317234
120404658,-0.17343119,0.17508854,0.28203154
120427607,-0.17476726,0.17267826,0.28317234
120449679,-0.16675083,0.170268,0.28317234
120471610,-0.17343119,0.170268,0.28317234
120495550,-0.17343119,0.17267826,0.28431314
120519438,-0.17476726,0.16785772,0.28431314
120543639,-0.17610332,0.170268,0.28659478
120567596,-0.17343119,0.17508854,0.28545398
120591437,-0.17343119,0.17508854,0.28659478
120615437,-0.17610332,0.17388341,0.28545398
120639542,-0.16942298,0.17147313,0.28773558
120663437,-0.17075905,0.17508854,0.28545398
120687586,-0.17075905,0.17267826,0.28317234
120711448,-0.17476726,0.170268,0.28545398
120735437,-0.17476726,0.170268,0.28545398
120759437,-0.17075905,0.17388341,0.28545398
120783610,-0.17343119,0.17629367,0.28773558
120807554,-0.17343119,0.17267826,0.28545398
120831437,-0.17343119,0.17508854,0.28545398
120855579,-0.17343119,0.17147313,0.28887638
120879437,-0.16942298,0.17388341,0.28431314
120903586,-0.17343119,0.17388341,0.27974993
120927449,-0.17476726,0.170268,0.28545398
120951441,-0.17209512,0.17629367,0.28659478
120978103,-0.17610332,0.170268,0.28545398
121003264,-0.17476726,0.17508854,0.28431314
121026798,-0.17476726,0.17147313,0.28431314
121050994,-0.17075905,0.17267826,0.28431314
121072436,-0.16808692,0.17388341,0.28317234
121096436,-0.17209512,0.17388341,0.28773558
121120442,-0.17610332,0.170268,0.28545398
121144510,-0.17209512,0.17267826,0.28773558
121167517,-0.17075905,0.17508854,0.28659478
121190336,-0.17209512,0.170268,0.28317234
121210924,-0.16942298,0.17147313,0.28317234
121231600,-0.17343119,0.17147313,0.28317234
121254438,-0.17343119,0.170268,0.28431314
121278438,-0.17343119,0.17508854,0.28203154
121302450,-0.16808692,0.17267826,0.28431314
121324436,-0.17476726,0.16906285,0.28659478
121347524,-0.17343119,0.17267826,0.28431314
121370436,-0.17075905,0.17267826,0.28545398
121392436,-0.17610332,0.17147313,0.28431314
121416503,-0.16942298,0.170268,0.28545398
121440436,-0.17476726,0.17508854,0.28317234
121464435,-0.17075905,0.16906285,0.28089073
121488468,-0.17075905,0.17508854,0.28431314
121512502,-0.17476726,0.17388341,0.28659478
121536445,-0.16942298,0.170268,0.28545398
121560448,-0.17209512,0.17147313,0.28659478
121583531,-0.17209512,0.17267826,0.28431314
121606329,-0.17075905,0.1774988,0.28431314
121628503,-0.17075905,0.17267826,0.28317234
121651538,-0.17209512,0.17388341,0.28545398
121674492,-0.16541477,0.170268,0.28545398
121696457,-0.17209512,0.17388341,0.28545398
121717457,-0.17343119,0.17388341,0.28545398
121741448,-0.17343119,0.170268,0.28317234
121765436,-0.17075905,0.17388341,0.28431314
121788501,-0.17209512,0.1774988,0.28317234
121811033,-0.17343119,0.17629367,0.28089073
121832502,-0.17343119,0.17388341,0.28317234
121855537,-0.17476726,0.17267826,0.28431314
121879290,-0.17209512,0.17388341,0.28545398
121903577,-0.17476726,0.16785772,0.28659478
121925436,-0.17343119,0.16785772,0.28659478
121949487,-0.17476726,0.17267826,0.28659478
121973513,-0.17476726,0.17388341,0.28317234
121997502,-0.17209512,0.17629367,0.28317234
122021449,-0.16942298,0.16906285,0.28203154
122045447,-0.17343119,0.170268,0.28659478
122068497,-0.16808692,0.17267826,0.28203154
122089498,-0.17075905,0.16906285,0.28545398
122112448,-0.17476726,0.16785772,0.28431314
122135535,-0.17209512,0.17267826,0.28317234
122157448,-0.17476726,0.17508854,0.28203154
122181447,-0.17476726,0.17629367,0.28887638
122204436,-0.17209512,0.17267826,0.27974993
122227933,-0.17743939,0.17388341,0.28203154
122251918,-0.17476726,0.17388341,0.28431314
122273446,-0.17209512,0.16906285,0.28317234
122294436,-0.16808692,0.17267826,0.28203154
122320487,-0.17343119,0.170268,0.28431314
122344017,-0.17343119,0.17629367,0.28545398
122365448,-0.17343119,0.16665259,0.28317234
122387838,-0.17476726,0.16906285,0.28089073
122411769,-0.17075905,0.17147313,0.28203154
122433547,-0.17476726,0.16906285,0.28317234
122456435,-0.17209512,0.17388341,0.28089073
122480437,-0.17075905,0.17267826,0.28431314
122504439,-0.16942298,0.17147313,0.28203154
122528059,-0.17075905,0.17147313,0.28203154
122549436,-0.17743939,0.17147313,0.28659478
122571760,-0.16942298,0.17508854,0.28545398
122593436,-0.17610332,0.17629367,0.28431314
122616436,-0.16942298,0.170268,0.28545398
122638436,-0.16942298,0.17147313,0.28431314
122661531,-0.16942298,0.17388341,0.28545398
122683788,-0.17476726,0.17388341,0.28431314
122705486,-0.17343119,0.17388341,0.28773558
122728439,-0.17075905,0.17147313,0.28317234
122750447,-0.17075905,0.17147313,0.28659478
122773436,-0.17476726,0.17508854,0.28659478
122795795,-0.17343119,0.17388341,0.28659478
122819882,-0.17209512,0.17629367,0.28317234
122841507,-0.16942298,0.17388341,0.28317234
122865167,-0.16942298,0.17267826,0.28431314
122889341,-0.16942298,0.17508854,0.28317234
122913214,-0.17476726,0.170268,0.28317234
122937171,-0.17209512,0.17267826,0.28773558
122961230,-0.17610332,0.17267826,0.28773558
122985172,-0.17343119,0.17388341,0.28317234
123009344,-0.17075905,0.17147313,0.28545398
123033183,-0.17075905,0.17388341,0.28317234
123057152,-0.16808692,0.17388341,0.28545398
123081172,-0.17343119,0.17267826,0.28317234
123105163,-0.16942298,0.170268,0.28431314
123129270,-0.17343119,0.17388341,0.28545398
123153406,-0.17343119,0.17147313,0.28545398
123177245,-0.17476726,0.17267826,0.28545398
123202018,-0.17743939,0.17147313,0.28545398
123225153,-0.16942298,0.170268,0.28317234
123249194,-0.17476726,0.17147313,0.28317234
123273231,-0.17075905,0.17267826,0.28431314
123297242,-0.17610332,0.17388341,0.28089073
123321156,-0.17343119,0.17267826,0.28545398
123345158,-0.16942298,0.17629367,0.28545398
123367513,-0.17209512,0.17147313,0.28545398
123391554,-0.17209512,0.17629367,0.28773558
123415524,-0.17209512,0.170268,0.28317234
123439669,-0.17209512,0.17267826,0.28431314
123463438,-0.17343119,0.17508854,0.28089073
123490422,-0.17075905,0.17267826,0.27974993
123511520,-0.17343119,0.17267826,0.28659478
123535582,-0.17610332,0.17388341,0.28659478
123559448,-0.17476726,0.17147313,0.28317234
123583437,-0.17476726,0.17388341,0.28203154
123607581,-0.17209512,0.17508854,0.28203154
123631616,-0.16942298,0.17388341,0.28545398
123655448,-0.17209512,0.17267826,0.28659478
123679450,-0.17476726,0.17147313,0.28089073
123703445,-0.16942298,0.17388341,0.28431314
123727612,-0.16942298,0.17629367,0.28659478
123751589,-0.17209512,0.17508854,0.28545398
123775565,-0.17343119,0.17147313,0.28431314
123799448,-0.17343119,0.17388341,0.28431314
123823540,-0.17343119,0.17388341,0.28317234
123847532,-0.16808692,0.170268,0.28431314
123871591,-0.17209512,0.17267826,0.28431314
123895609,-0.17343119,0.17147313,0.28317234
123922356,-0.17209512,0.17870396,0.28659478
123946382,-0.17476726,0.16906285,0.28887638
123970234,-0.17209512,0.17508854,0.28431314
123991441,-0.17209512,0.17508854,0.28659478
124015448,-0.17476726,0.170268,0.28545398
124039579,-0.16942298,0.17147313,0.28431314
124063613,-0.17075905,0.17508854,0.28317234
124086435,-0.17476726,0.17508854,0.28203154
124110448,-0.17476726,0.17508854,0.28545398
124134436,-0.17343119,0.170268,0.28431314
124158447,-0.17075905,0.17508854,0.28545398
124182456,-0.17610332,0.17147313,0.28773558
124206134,-0.17209512,0.17147313,0.28659478
124227542,-0.17476726,0.17267826,0.28659478
124250728,-0.17075905,0.16906285,0.28317234
124272514,-0.16675083,0.17388341,0.28431314
124296437,-0.17075905,0.17388341,0.28089073
124322525,-0.17209512,0.1774988,0.28089073
124344436,-0.17343119,0.17267826,0.28317234
124368501,-0.17209512,0.17147313,0.28431314
124392462,-0.17209512,0.17388341,0.28659478
124416437,-0.17343119,0.17267826,0.28317234
124440447,-0.17476726,0.17267826,0.28545398
124464512,-0.17343119,0.17267826,0.28317234
124488436,-0.17075905,0.170268,0.28317234
124512447,-0.17209512,0.17388341,0.28317234
124536439,-0.17075905,0.16906285,0.28317234
124562866,-0.17343119,0.170268,0.28545398
124586756,-0.17343119,0.17388341,0.28317234
124611532,-0.17209512,0.16906285,0.28659478
124634822,-0.17610332,0.17508854,0.28431314
124656443,-0.16808692,0.17267826,0.28317234
124680536,-0.16675083,0.17629367,0.28431314
124704439,-0.17343119,0.17388341,0.28545398
124727828,-0.17610332,0.17388341,0.28659478
124751715,-0.17476726,0.170268,0.28659478
124773435,-0.17610332,0.17388341,0.28317234
124796501,-0.16808692,0.17267826,0.28431314
124817498,-0.17075905,0.17388341,0.28545398
124841484,-0.17075905,0.17388341,0.28431314
124864449,-0.17075905,0.17629367,0.28431314
124885436,-0.17209512,0.17388341,0.28545398
124909479,-0.17209512,0.17147313,0.28431314
124932438,-0.17075905,0.17388341,0.28317234
124953436,-0.17610332,0.17267826,0.28659478
124975641,-0.16942298,0.17388341,0.28431314
124999247,-0.17209512,0.17147313,0.28431314
125021503,-0.17209512,0.17267826,0.28431314
125047636,-0.17209512,0.170268,0.28089073
125069451,-0.16942298,0.17267826,0.28203154
125093436,-0.17476726,0.17267826,0.28203154
125117535,-0.17343119,0.17508854,0.28545398
125141526,-0.17209512,0.16906285,0.28431314
125165445,-0.17075905,0.17508854,0.28545398
125189447,-0.17075905,0.17267826,0.28431314
125211520,-0.17476726,0.17267826,0.28089073
125235106,-0.17476726,0.17388341,0.28431314
125256503,-0.17476726,0.17388341,0.28545398
125277503,-0.16942298,0.17267826,0.28545398
125299852,-0.17075905,0.17267826,0.28317234
125321504,-0.16942298,0.17508854,0.28317234
125345436,-0.17476726,0.17388341,0.28431314
125368519,-0.17343119,0.17147313,0.28089073
125392447,-0.16942298,0.17267826,0.28431314
125416808,-0.17209512,0.17388341,0.28659478
125440019,-0.16942298,0.17388341,0.28773558
125461450,-0.17075905,0.17508854,0.28659478
125483715,-0.16808692,0.17147313,0.28431314
125505450,-0.17209512,0.17388341,0.28545398
125528436,-0.17476726,0.17267826,0.28431314
125552107,-0.17075905,0.17508854,0.28545398
125573436,-0.17209512,0.170268,0.28545398
125597547,-0.17075905,0.17388341,0.28431314
125619817,-0.17075905,0.1774988,0.28089073
125641498,-0.17075905,0.17388341,0.28431314
125663980,-0.17209512,0.17267826,0.28431314
125685502,-0.17610332,0.17388341,0.28431314
125707835,-0.17476726,0.17508854,0.28545398
125729558,-0.16942298,0.17267826,0.28431314
125752439,-0.17209512,0.17388341,0.28773558
125776439,-0.17075905,0.17388341,0.28317234
125800885,-0.17075905,0.170268,0.28431314
125824020,-0.17476726,0.16544746,0.28431314
125846944,-0.17743939,0.17388341,0.28545398
125870449,-0.17476726,0.17388341,0.28773558
125892670,-0.17209512,0.17508854,0.28431314
125916669,-0.17343119,0.17267826,0.28317234
125940710,-0.17610332,0.16906285,0.28431314
125964565,-0.17476726,0.17147313,0.28203154
125988757,-0.17075905,0.17508854,0.28431314
126012631,-0.17476726,0.17147313,0.28317234
126036620,-0.17209512,0.17147313,0.28203154
126060645,-0.16942298,0.17267826,0.28545398
126084616,-0.17075905,0.170268,0.28317234
126108800,-0.16942298,0.17388341,0.28545398
126132610,-0.17343119,0.17147313,0.28317234
126156606,-0.17610332,0.17388341,0.28431314
126180719,-0.17209512,0.17267826,0.28659478
126204651,-0.17075905,0.17147313,0.28317234
126228687,-0.17209512,0.17147313,0.28317234
126252661,-0.17343119,0.17388341,0.28773558
126276653,-0.16942298,0.17267826,0.28317234
126300595,-0.16675083,0.17267826,0.28317234
126324606,-0.17209512,0.17388341,0.28659478
126348624,-0.17209512,0.17388341,0.28773558
126372580,-0.17343119,0.170268,0.28545398
126395561,-0.17209512,0.17147313,0.28545398
126419573,-0.17343119,0.17147313,0.28431314
126441629,-0.17075905,0.17388341,0.28545398
126463598,-0.17209512,0.17870396,0.28089073
126487529,-0.16675083,0.17388341,0.28545398
126511611,-0.18011153,0.170268,0.28431314
126535448,-0.17209512,0.170268,0.28545398
126559437,-0.17209512,0.17388341,0.28317234
126583437,-0.17075905,0.17147313,0.28545398
126605439,-0.17075905,0.17267826,0.28545398
126627636,-0.16942298,0.17508854,0.28203154
126651570,-0.17075905,0.17388341,0.28431314
126674480,-0.16942298,0.17267826,0.28431314
126697698,-0.17075905,0.17508854,0.28317234
126722190,-0.17610332,0.170268,0.28317234
126745972,-0.17209512,0.17147313,0.28773558
126767437,-0.17209512,0.170268,0.28317234
126791605,-0.17075905,0.170268,0.28545398
126815437,-0.17075905,0.17267826,0.28431314
126839440,-0.17209512,0.170268,0.28203154
126863437,-0.17209512,0.16906285,0.28431314
126887692,-0.16942298,0.17267826,0.28203154
126911562,-0.17075905,0.17147313,0.28431314
126935437,-0.17209512,0.17388341,0.28773558
126959448,-0.17075905,0.17147313,0.28317234
126983582,-0.17209512,0.17267826,0.28545398
127007444,-0.17209512,0.17267826,0.2900172
127031448,-0.17476726,0.17629367,0.28431314
127055582,-0.17209512,0.16785772,0.28431314
127078221,-0.16942298,0.17267826,0.28089073
127098470,-0.16942298,0.17147313,0.28203154
127119564,-0.16942298,0.17147313,0.28203154
127142436,-0.17209512,0.16906285,0.28089073
127166439,-0.17209512,0.17147313,0.28089073
127188436,-0.17343119,0.17267826,0.28545398
127210444,-0.17075905,0.17388341,0.28089073
127232450,-0.16942298,0.17147313,0.27974993
127256514,-0.17209512,0.17147313,0.28659478
127280439,-0.17075905,0.17267826,0.28431314
127304486,-0.17209512,0.17267826,0.28317234
127328450,-0.17075905,0.170268,0.28203154
127352556,-0.17343119,0.17870396,0.28431314
127376447,-0.17209512,0.170268,0.28317234
127400469,-0.17343119,0.17388341,0.28431314
127424436,-0.16942298,0.170268,0.28545398
127447508,-0.16808692,0.17629367,0.28317234
127470739,-0.17343119,0.17267826,0.28545398
127494438,-0.17209512,0.17388341,0.28317234
127518453,-0.16675083,0.170268,0.28431314
127542462,-0.17075905,0.17629367,0.28545398
127566439,-0.17343119,0.17147313,0.28545398
127590436,-0.16808692,0.17388341,0.28317234
127614496,-0.17610332,0.17267826,0.28317234
127638437,-0.17209512,0.170268,0.28203154
127662438,-0.17209512,0.17629367,0.28431314
127686972,-0.17075905,0.170268,0.28089073
127711053,-0.16942298,0.17147313,0.28317234
127732511,-0.17209512,0.16785772,0.28545398
127755532,-0.17476726,0.170268,0.28545398
127777439,-0.17610332,0.17147313,0.28431314
127801498,-0.17343119,0.17267826,0.28545398
127825436,-0.16942298,0.17147313,0.28431314
127849560,-0.17209512,0.17388341,0.28317234
127873436,-0.17476726,0.16906285,0.28431314
127897448,-0.17075905,0.17147313,0.28431314
127923657,-0.16808692,0.17388341,0.28431314
127945441,-0.17209512,0.17267826,0.28317234
127969498,-0.17476726,0.17508854,0.28659478
127993447,-0.17343119,0.17267826,0.28317234
128019855,-0.17075905,0.17388341,0.28431314
128041447,-0.17075905,0.17388341,0.28317234
128065530,-0.16808692,0.170268,0.28317234
128089448,-0.17209512,0.17147313,0.28431314
128113488,-0.17075905,0.17508854,0.28659478
128137447,-0.16942298,0.170268,0.28317234
128161498,-0.17343119,0.17508854,0.28431314
128184444,-0.17343119,0.17508854,0.28317234
128206985,-0.17476726,0.17508854,0.28431314
128228436,-0.17209512,0.16906285,0.28317234
128249490,-0.17209512,0.17267826,0.28431314
128275354,-0.17075905,0.17388341,0.28203154
128296436,-0.17209512,0.17388341,0.28317234
128319964,-0.17209512,0.17388341,0.28431314
128344032,-0.16942298,0.17508854,0.28659478
128365502,-0.16942298,0.17388341,0.28545398
128388436,-0.17610332,0.17147313,0.28431314
128412419,-0.17743939,0.17147313,0.28659478
128434436,-0.17209512,0.17388341,0.28659478
128460349,-0.17343119,0.170268,0.28431314
128481447,-0.17075905,0.1774988,0.28659478
128503752,-0.17075905,0.17267826,0.28203154
128527947,-0.17075905,0.16906285,0.28659478
128549514,-0.17209512,0.17508854,0.28203154
128572448,-0.17209512,0.170268,0.28545398
128595992,-0.17476726,0.17629367,0.28431314
128618436,-0.17209512,0.17147313,0.28317234
128644051,-0.16808692,0.17147313,0.28203154
128665436,-0.17209512,0.17267826,0.28317234
128690548,-0.17209512,0.16906285,0.28431314
128716664,-0.17343119,0.17388341,0.28545398
128740643,-0.17343119,0.17147313,0.28431314
128762449,-0.17209512,0.17508854,0.28203154
128785436,-0.17075905,0.17267826,0.28431314
128808666,-0.17476726,0.16906285,0.28545398
128832609,-0.17075905,0.17147313,0.28545398
128856615,-0.17075905,0.17388341,0.28431314
128880638,-0.17343119,0.17267826,0.28431314
128904576,-0.17343119,0.17388341,0.28317234
128928625,-0.16942298,0.17267826,0.28773558
128952531,-0.16942298,0.17508854,0.28431314
128976554,-0.17209512,0.170268,0.28545398
129000563,-0.17209512,0.17388341,0.28545398
129024577,-0.16942298,0.17508854,0.28659478
129048767,-0.17075905,0.17629367,0.28317234
129072629,-0.17343119,0.170268,0.28203154
129096606,-0.17075905,0.16785772,0.28317234
129120645,-0.17209512,0.17147313,0.28317234
129144593,-0.17209512,0.17267826,0.28659478
129168593,-0.16942298,0.17629367,0.28431314
129192586,-0.17209512,0.17508854,0.28659478
129216645,-0.17209512,0.17508854,0.28773558
129240621,-0.17476726,0.17147313,0.28203154
129264588,-0.17075905,0.17629367,0.28203154
129288516,-0.17209512,0.170268,0.28431314
129312559,-0.17075905,0.17388341,0.28431314
129336578,-0.17075905,0.16785772,0.28545398
129360666,-0.17476726,0.17388341,0.28773558
129384632,-0.17209512,0.17388341,0.28317234
129410123,-0.17209512,0.17147313,0.28545398
129433765,-0.16808692,0.17388341,0.28317234
129455538,-0.17343119,0.17388341,0.28545398
129482436,-0.17610332,0.17508854,0.28431314
129505976,-0.17075905,0.17147313,0.28317234
129530128,-0.17476726,0.17147313,0.28545398
129551448,-0.17075905,0.1774988,0.28431314
129578282,-0.17075905,0.17388341,0.28431314
129603225,-0.17743939,0.17388341,0.28431314
129626151,-0.17343119,0.17147313,0.28203154
129647437,-0.17476726,0.17388341,0.28317234
129671553,-0.16942298,0.16906285,0.28431314
129695442,-0.16942298,0.170268,0.28317234
129719437,-0.17075905,0.17267826,0.28545398
129743437,-0.17343119,0.17508854,0.28431314
129767596,-0.17209512,0.17267826,0.28659478
129791536,-0.17743939,0.17388341,0.28659478
129815562,-0.17343119,0.16906285,0.28317234
129839448,-0.17343119,0.170268,0.28317234
129863524,-0.17075905,0.17388341,0.28431314
129887611,-0.16942298,0.17388341,0.28545398
129911448,-0.17075905,0.17388341,0.28317234
129935437,-0.16942298,0.17267826,0.28659478
129959538,-0.17209512,0.17147313,0.28431314
129983448,-0.17476726,0.17508854,0.28431314
130007592,-0.17476726,0.17388341,0.28545398
130031440,-0.17209512,0.170268,0.28431314
130055449,-0.17209512,0.17388341,0.28545398
130079446,-0.17743939,0.170268,0.28317234
130103559,-0.17343119,0.170268,0.28545398
130126226,-0.17343119,0.17267826,0.28203154
130148619,-0.17209512,0.16785772,0.28659478
130172450,-0.17476726,0.17267826,0.28545398
130195570,-0.17343119,0.17508854,0.28545398
130218447,-0.17476726,0.17388341,0.28659478
130243198,-0.17075905,0.17147313,0.28431314
130266536,-0.16942298,0.17267826,0.28089073
130288516,-0.17075905,0.17388341,0.28317234
130312498,-0.17075905,0.17629367,0.28545398
130336436,-0.17075905,0.17267826,0.28431314
130360439,-0.17343119,0.17267826,0.28431314
130383640,-0.17209512,0.170268,0.28545398
130406309,-0.17209512,0.17388341,0.28659478
130426550,-0.17075905,0.17508854,0.28431314
130448603,-0.17343119,0.17147313,0.28545398
130472439,-0.17075905,0.17147313,0.28203154
130496445,-0.17209512,0.17629367,0.28317234
130520496,-0.17343119,0.17388341,0.28431314
130544516,-0.17476726,0.17147313,0.27974993
130568449,-0.16541477,0.17388341,0.28203154
130592447,-0.16808692,0.170268,0.28431314
130616439,-0.17075905,0.17267826,0.28545398
130640502,-0.16675083,0.17388341,0.28317234
130664498,-0.16942298,0.17147313,0.28545398
130688445,-0.17343119,0.17147313,0.28317234
130711037,-0.17075905,0.17147313,0.28089073
130733448,-0.17209512,0.17629367,0.28773558
130756436,-0.17075905,0.17267826,0.28431314
130780439,-0.17075905,0.17388341,0.28203154
130801436,-0.17343119,0.1774988,0.28659478
130825503,-0.17343119,0.17508854,0.28545398
130849451,-0.17343119,0.17147313,0.28773558
130873497,-0.17476726,0.16906285,0.28431314
130897436,-0.17209512,0.17147313,0.28317234
130921502,-0.16808692,0.17508854,0.28545398
130945452,-0.17209512,0.17388341,0.28431314
130969449,-0.17075905,0.17629367,0.28545398
130993436,-0.17209512,0.17388341,0.28545398
131017530,-0.17209512,0.17147313,0.28317234
131041497,-0.17343119,0.17388341,0.28545398
131065447,-0.17476726,0.16906285,0.28317234
131089448,-0.17476726,0.17147313,0.28545398
131112501,-0.1640787,0.17267826,0.28203154
131135546,-0.17209512,0.17388341,0.28317234
131159295,-0.17476726,0.17267826,0.28317234
131181436,-0.17209512,0.17508854,0.28431314
131204048,-0.17075905,0.17388341,0.28431314
131228070,-0.16942298,0.17629367,0.28545398
131249444,-0.17343119,0.16785772,0.28317234
131271866,-0.17610332,0.17508854,0.28317234
131295884,-0.17075905,0.17388341,0.28317234
131317503,-0.17209512,0.16785772,0.28431314
131340440,-0.17476726,0.1774988,0.28659478
131364124,-0.16942298,0.170268,0.28545398
131385436,-0.17209512,0.17147313,0.28545398
131407784,-0.17743939,0.17147313,0.28431314
131429478,-0.17209512,0.17629367,0.28545398
131452456,-0.17476726,0.16785772,0.28545398
131476356,-0.17209512,0.170268,0.28659478
131498448,-0.17075905,0.17388341,0.28659478
131521435,-0.17476726,0.17388341,0.28431314
131545498,-0.17476726,0.16544746,0.28203154
131567853,-0.17610332,0.17267826,0.28431314
131589542,-0.17075905,0.17267826,0.28773558
131612847,-0.17209512,0.1774988,0.28203154
131636436,-0.17209512,0.170268,0.28431314
131660093,-0.17209512,0.17388341,0.28431314
131682435,-0.17075905,0.17147313,0.28317234
131704439,-0.17075905,0.17388341,0.28203154
131726468,-0.17209512,0.17267826,0.28317234
131748446,-0.17209512,0.17147313,0.28545398
131769447,-0.16942298,0.17147313,0.28659478
131793439,-0.17343119,0.17508854,0.28431314
131815703,-0.17209512,0.17508854,0.28545398
131837447,-0.17209512,0.170268,0.28317234
131860437,-0.17209512,0.17267826,0.28773558
131884639,-0.17476726,0.17147313,0.28203154
131908652,-0.17209512,0.17147313,0.28317234
131932608,-0.17209512,0.17267826,0.28431314
131956643,-0.17209512,0.170268,0.28317234
131980602,-0.17075905,0.17629367,0.28317234
132004642,-0.17476726,0.17508854,0.28317234
132028616,-0.17343119,0.17147313,0.28545398
132052577,-0.17476726,0.17508854,0.28317234
132076600,-0.17075905,0.170268,0.28317234
132100579,-0.17209512,0.17147313,0.28431314
132124627,-0.17476726,0.17388341,0.28545398
132148710,-0.17209512,0.17267826,0.28659478
132172600,-0.17209512,0.17147313,0.28545398
132196581,-0.17343119,0.17508854,0.28545398
132220628,-0.17209512,0.17388341,0.28317234
132244515,-0.17343119,0.17388341,0.28431314
132265451,-0.17610332,0.17267826,0.28659478
132289235,-0.17343119,0.17388341,0.28203154
132313320,-0.17343119,0.17388341,0.28317234
132337190,-0.17343119,0.17508854,0.28545398
132360932,-0.17476726,0.170268,0.27974993
132385138,-0.17476726,0.1774988,0.28659478
132409267,-0.17343119,0.17147313,0.28659478
132433182,-0.17343119,0.17267826,0.28317234
132457403,-0.17476726,0.17388341,0.28317234
132481479,-0.16808692,0.17388341,0.28545398
132505283,-0.17209512,0.16906285,0.28089073
132527542,-0.17075905,0.17267826,0.28545398
132551528,-0.16808692,0.16906285,0.28545398
132578053,-0.17209512,0.17388341,0.28431314
132602981,-0.17209512,0.17508854,0.28659478
132625988,-0.17343119,0.17388341,0.28431314
132649952,-0.17476726,0.17388341,0.28545398
132671580,-0.16808692,0.17388341,0.28545398
132695589,-0.17343119,0.17147313,0.28089073
132719544,-0.17343119,0.1774988,0.28431314
132743448,-0.17343119,0.17388341,0.28659478
132767437,-0.17209512,0.17147313,0.28431314
132791674,-0.17343119,0.17508854,0.28545398
132815448,-0.16942298,0.17147313,0.28203154
132839542,-0.17343119,0.17508854,0.28659478
132862436,-0.17209512,0.17147313,0.28659478
132885468,-0.17075905,0.17267826,0.28089073
132909455,-0.16808692,0.17267826,0.28659478
132933429,-0.17075905,0.17267826,0.28431314
132955628,-0.16942298,0.17388341,0.28317234
132979620,-0.17343119,0.17388341,0.28431314
133001990,-0.17209512,0.17147313,0.28317234
133023586,-0.17209512,0.17629367,0.28545398
133047437,-0.16942298,0.17147313,0.28545398
133071448,-0.17209512,0.17508854,0.28317234
133095556,-0.17075905,0.17629367,0.28317234
133119656,-0.17075905,0.1774988,0.28545398
133142284,-0.17209512,0.17388341,0.28089073
133162504,-0.17476726,0.17388341,0.28773558
133184546,-0.17343119,0.17147313,0.28317234
133208496,-0.17476726,0.17629367,0.28659478
133232447,-0.17343119,0.17629367,0.28317234
133256447,-0.17610332,0.17147313,0.28203154
133279625,-0.16942298,0.17267826,0.28203154
133302439,-0.17209512,0.17388341,0.28431314
133326251,-0.17075905,0.17267826,0.28659478
133350439,-0.17209512,0.17508854,0.28545398
133374436,-0.17476726,0.17267826,0.28317234
133398503,-0.17209512,0.17508854,0.28545398
133422451,-0.16942298,0.17147313,0.28431314
133446475,-0.16942298,0.170268,0.28545398
133470436,-0.17476726,0.17147313,0.28317234
133494436,-0.17209512,0.17508854,0.28089073
133518439,-0.17209512,0.17267826,0.28431314
133542448,-0.17209512,0.17147313,0.28203154
133566497,-0.17343119,0.17388341,0.28317234
133590435,-0.17343119,0.17508854,0.28317234
133614435,-0.17343119,0.17147313,0.28545398
133638296,-0.17075905,0.17147313,0.28545398
133660436,-0.17209512,0.17147313,0.28317234
133682514,-0.16808692,0.17629367,0.28431314
133705499,-0.17343119,0.17629367,0.28773558
133729437,-0.16675083,0.17147313,0.28545398
133753485,-0.17075905,0.17388341,0.28545398
133777450,-0.17209512,0.17508854,0.28317234
133801514,-0.17476726,0.17508854,0.28203154
133827655,-0.17343119,0.17388341,0.28545398
133851621,-0.17343119,0.17267826,0.28317234
133873436,-0.17075905,0.17267826,0.28431314
133897500,-0.16942298,0.17267826,0.28317234
133921447,-0.17075905,0.17267826,0.28431314
133947759,-0.17743939,0.17147313,0.28545398
133971634,-0.17343119,0.17147313,0.28431314
133995671,-0.17476726,0.17870396,0.28431314
134017522,-0.16808692,0.17388341,0.28089073
134041446,-0.17075905,0.17147313,0.28545398
134065448,-0.16942298,0.17629367,0.28659478
134089450,-0.17075905,0.17388341,0.28431314
134113514,-0.17343119,0.17388341,0.28203154
134137446,-0.17343119,0.17267826,0.28545398
134161439,-0.17476726,0.16906285,0.28089073
134185436,-0.17343119,0.17147313,0.28545398
134209553,-0.17610332,0.17508854,0.28431314
134233449,-0.17343119,0.17388341,0.28317234
134257438,-0.16808692,0.17629367,0.28659478
134281436,-0.17075905,0.17147313,0.28431314
134305502,-0.17610332,0.17267826,0.28317234
134329450,-0.17075905,0.17267826,0.28545398
134351957,-0.17343119,0.17508854,0.28431314
134373448,-0.17476726,0.17267826,0.28317234
134397451,-0.17209512,0.17147313,0.28545398
134418448,-0.17209512,0.17508854,0.28317234
134444043,-0.16942298,0.170268,0.28659478
134468105,-0.17343119,0.17267826,0.28431314
134489436,-0.17343119,0.17388341,0.28203154
134511851,-0.16942298,0.17388341,0.28317234
134533436,-0.17610332,0.16906285,0.28659478
134556436,-0.17476726,0.17508854,0.28545398
134580363,-0.17343119,0.17388341,0.28545398
134601439,-0.17343119,0.17267826,0.28431314
134623775,-0.17343119,0.170268,0.28317234
134645445,-0.17209512,0.17388341,0.28317234
134668436,-0.17209512,0.17267826,0.28431314
134690436,-0.16942298,0.17388341,0.28887638
134713465,-0.17209512,0.16906285,0.28431314
134735761,-0.17075905,0.17508854,0.28659478
134757436,-0.17877546,0.17267826,0.28659478
134780482,-0.17476726,0.170268,0.28431314
134805209,-0.17209512,0.17629367,0.28431314
134828403,-0.17209512,0.16906285,0.28431314
134849512,-0.16942298,0.170268,0.28431314
134871899,-0.17209512,0.17147313,0.28545398
134895798,-0.17209512,0.17267826,0.28545398
134918446,-0.17610332,0.17508854,0.28317234
134940586,-0.17209512,0.17508854,0.28089073
134964575,-0.17343119,0.17147313,0.28659478
134988747,-0.17343119,0.17267826,0.28545398
135012603,-0.17209512,0.170268,0.28773558
135036527,-0.16942298,0.17508854,0.28317234
135058436,-0.17209512,0.17267826,0.28317234
135082499,-0.17343119,0.16785772,0.28203154
135106436,-0.17209512,0.17147313,0.28203154
135129218,-0.17476726,0.17267826,0.28659478
135152841,-0.17476726,0.17388341,0.28431314
135177437,-0.17610332,0.17147313,0.28317234
135200831,-0.17610332,0.17508854,0.28773558
135225159,-0.17343119,0.17267826,0.28659478
135249330,-0.17075905,0.17267826,0.28203154
135273306,-0.17075905,0.170268,0.28431314
135297396,-0.16541477,0.17147313,0.28545398
135321311,-0.17209512,0.17508854,0.28659478
135345282,-0.17075905,0.17388341,0.28317234
135369550,-0.17476726,0.17147313,0.28659478
135393437,-0.16942298,0.17267826,0.28431314
135417576,-0.17075905,0.1774988,0.28545398
135441288,-0.17075905,0.16906285,0.28659478
135465220,-0.17209512,0.17267826,0.28545398
135489298,-0.17209512,0.17508854,0.28431314
135511524,-0.17209512,0.17267826,0.28431314
135535556,-0.17343119,0.170268,0.28545398
135559554,-0.17209512,0.170268,0.28545398
135586304,-0.17075905,0.17267826,0.28545398
135611566,-0.17209512,0.17508854,0.28659478
135634281,-0.17075905,0.17388341,0.28203154
135655554,-0.17075905,0.17388341,0.28317234
135682050,-0.16942298,0.1774988,0.28317234
135706006,-0.16808692,0.17388341,0.28431314
135730040,-0.17476726,0.17267826,0.28317234
135754206,-0.17209512,0.17629367,0.28545398
135775437,-0.17476726,0.17508854,0.28773558
135799612,-0.17476726,0.17267826,0.28431314
135823448,-0.17343119,0.17147313,0.28431314
135847547,-0.17343119,0.17147313,0.28659478
135871545,-0.17343119,0.17508854,0.28659478
135895547,-0.17075905,0.17267826,0.28089073
135919460,-0.17343119,0.17508854,0.28317234
135943437,-0.17075905,0.17388341,0.28317234
135967616,-0.17343119,0.17629367,0.28545398
135991437,-0.17877546,0.17388341,0.28431314
136015450,-0.17209512,0.17388341,0.28317234
136042395,-0.16942298,0.170268,0.28203154
136066166,-0.17075905,0.17267826,0.2900172
136090127,-0.17075905,0.17267826,0.28089073
136113987,-0.17476726,0.17147313,0.28545398
136137998,-0.16808692,0.17508854,0.28545398
136160436,-0.17476726,0.17147313,0.28203154
136184572,-0.17343119,0.17267826,0.28659478
136208464,-0.17209512,0.170268,0.28431314
136235025,-0.16942298,0.170268,0.28545398
136256487,-0.17343119,0.16906285,0.28089073
136280509,-0.17343119,0.17267826,0.28431314
136304448,-0.17209512,0.170268,0.28089073
136328436,-0.16942298,0.17147313,0.28317234
136352443,-0.17743939,0.17388341,0.28545398
136376598,-0.17343119,0.17388341,0.28431314
136400449,-0.17075905,0.17508854,0.28203154
136424472,-0.17343119,0.17147313,0.28431314
136448436,-0.17209512,0.17147313,0.28545398
136472448,-0.17343119,0.17147313,0.28317234
136496509,-0.17343119,0.17508854,0.28317234
136522958,-0.17209512,0.17388341,0.28431314
136546811,-0.16942298,0.17147313,0.28545398
136568446,-0.17209512,0.170268,0.28659478
136592563,-0.17476726,0.1774988,0.28659478
136616436,-0.17343119,0.17388341,0.28431314
136640436,-0.17343119,0.17388341,0.28773558
136664435,-0.17075905,0.17267826,0.28431314
136688501,-0.17343119,0.17388341,0.28887638
136712492,-0.17343119,0.17508854,0.28545398
136739117,-0.17075905,0.17267826,0.28203154
136760448,-0.17743939,0.17388341,0.28773558
136783662,-0.17209512,0.17267826,0.28887638
136805436,-0.17610332,0.17388341,0.28431314
136829503,-0.16808692,0.17508854,0.28317234
136853480,-0.16675083,0.17147313,0.28203154
136877436,-0.17476726,0.17267826,0.28317234
136901476,-0.16942298,0.170268,0.28887638
136925513,-0.16808692,0.17388341,0.28431314
136949500,-0.17343119,0.170268,0.28431314
136973447,-0.17075905,0.17508854,0.28203154
136997435,-0.17343119,0.17267826,0.28545398
137020522,-0.17209512,0.17388341,0.28317234
137041544,-0.17075905,0.17147313,0.28203154
137063536,-0.17209512,0.17388341,0.28203154
137087232,-0.17209512,0.17388341,0.27974993
137109465,-0.17075905,0.17147313,0.28431314
137133447,-0.17343119,0.17508854,0.28545398
137156436,-0.17209512,0.17267826,0.28203154
137179117,-0.17743939,0.17147313,0.28659478
137201497,-0.17343119,0.17629367,0.28659478
137223544,-0.17476726,0.17147313,0.28545398
137247267,-0.17343119,0.17267826,0.28545398
137271543,-0.17343119,0.17388341,0.28545398
137295547,-0.17075905,0.17388341,0.28431314
137317436,-0.16942298,0.17629367,0.28431314
137341505,-0.17610332,0.17267826,0.28317234
137365450,-0.17343119,0.16906285,0.28203154
137389439,-0.17610332,0.170268,0.28545398
137416588,-0.17209512,0.17147313,0.28317234
137440377,-0.17476726,0.17147313,0.28773558
137461509,-0.17209512,0.17508854,0.28545398
137483791,-0.17209512,0.17388341,0.28659478
137505558,-0.16541477,0.17388341,0.28317234
137528446,-0.16942298,0.17388341,0.28545398
137550447,-0.17610332,0.17267826,0.28545398
137572459,-0.17075905,0.17267826,0.28773558
137594487,-0.17075905,0.17388341,0.28431314
137617436,-0.16675083,0.17147313,0.28545398
137640439,-0.16808692,0.17629367,0.28431314
137664065,-0.17075905,0.17147313,0.28545398
137685436,-0.17075905,0.17147313,0.28545398
137707832,-0.16942298,0.17267826,0.28431314
137729436,-0.17209512,0.17267826,0.28317234
137753504,-0.17476726,0.17147313,0.28545398
137775999,-0.17343119,0.1774988,0.28089073
137798447,-0.17476726,0.17267826,0.28659478
137824130,-0.17476726,0.17267826,0.28545398
137848172,-0.17075905,0.17388341,0.28545398
137869478,-0.17476726,0.17267826,0.28431314
137891825,-0.16942298,0.17267826,0.28317234
137913445,-0.17075905,0.17629367,0.28317234
137936486,-0.17610332,0.17267826,0.28545398
137958436,-0.17343119,0.17267826,0.28431314
137982508,-0.17476726,0.17508854,0.28545398
138006436,-0.17209512,0.17147313,0.28317234
138028664,-0.17209512,0.170268,0.28203154
138052589,-0.17610332,0.17508854,0.28431314
138076600,-0.17209512,0.17147313,0.28545398
138100635,-0.17209512,0.17388341,0.28659478
138124609,-0.17209512,0.16906285,0.28431314
138148701,-0.18011153,0.17388341,0.28431314
138172592,-0.17209512,0.17267826,0.28317234
138196606,-0.17476726,0.17388341,0.28545398
138220687,-0.17075905,0.170268,0.28203154
138244782,-0.17343119,0.17267826,0.28659478
138268755,-0.16808692,0.17629367,0.28431314
138292570,-0.16808692,0.17508854,0.28431314
138316662,-0.17209512,0.17147313,0.28431314
138340580,-0.17075905,0.17147313,0.28545398
138364653,-0.17476726,0.17147313,0.28317234
138388682,-0.17343119,0.17267826,0.28545398
138412665,-0.16942298,0.17267826,0.28203154
138436639,-0.17343119,0.17147313,0.28659478
138460653,-0.16942298,0.170268,0.28431314
138484684,-0.17075905,0.17267826,0.28317234
138508628,-0.16675083,0.17508854,0.28545398
138532578,-0.16942298,0.17508854,0.28317234
138556531,-0.16942298,0.17508854,0.28431314
138580614,-0.16942298,0.17267826,0.28545398
138604657,-0.17075905,0.16785772,0.28203154
138628648,-0.17476726,0.17388341,0.28431314
138653335,-0.17343119,0.17388341,0.28317234
138675437,-0.17343119,0.17267826,0.28545398
138698443,-0.16942298,0.17388341,0.28317234
138721730,-0.17075905,0.17267826,0.28659478
138745749,-0.17343119,0.17508854,0.28773558
138770074,-0.17343119,0.17147313,0.28545398
138793760,-0.17209512,0.17388341,0.28431314
138815661,-0.17209512,0.17629367,0.28545398
138839437,-0.17209512,0.17147313,0.28317234
138863437,-0.17075905,0.17629367,0.28431314
138887448,-0.17075905,0.17147313,0.28545398
138911437,-0.17209512,0.17267826,0.28203154
138935613,-0.17209512,0.17267826,0.28773558
138959618,-0.17610332,0.17508854,0.28545398
138983558,-0.17209512,0.17267826,0.28203154
139007449,-0.17476726,0.170268,0.28545398
139034121,-0.16808692,0.17508854,0.28431314
139058035,-0.16808692,0.17629367,0.28431314
139079437,-0.17209512,0.170268,0.28431314
139103446,-0.16942298,0.17147313,0.28431314
139127448,-0.17343119,0.17388341,0.28203154
139151624,-0.17476726,0.17629367,0.28203154
139175437,-0.17476726,0.170268,0.28545398
139199567,-0.17476726,0.17267826,0.28431314
139223449,-0.17209512,0.17388341,0.28659478
139247437,-0.17343119,0.17388341,0.28317234
139271621,-0.17209512,0.16906285,0.28089073
139295437,-0.16942298,0.17508854,0.28659478
139322300,-0.17476726,0.17388341,0.28659478
139343508,-0.17075905,0.17147313,0.28545398
139366436,-0.17343119,0.17267826,0.28431314
139390449,-0.17343119,0.17267826,0.28659478
139414447,-0.17610332,0.17147313,0.28431314
139438497,-0.17209512,0.16785772,0.28317234
139462449,-0.17075905,0.17147313,0.28431314
139486211,-0.17343119,0.16906285,0.28545398
139508498,-0.17075905,0.170268,0.28659478
139532436,-0.17610332,0.17388341,0.28773558
139554447,-0.17476726,0.17388341,0.28317234
139578426,-0.16942298,0.17267826,0.28431314
139603241,-0.17209512,0.17147313,0.28203154
139626523,-0.16808692,0.17267826,0.28317234
139648527,-0.17610332,0.17388341,0.28431314
139672448,-0.16942298,0.17267826,0.28431314
139696469,-0.17075905,0.17147313,0.28089073
139720436,-0.17610332,0.17267826,0.28545398
139744508,-0.17343119,0.170268,0.28431314
139768444,-0.17075905,0.17388341,0.28659478
139792435,-0.17343119,0.17267826,0.28431314
139816494,-0.17343119,0.17267826,0.28545398
139840587,-0.17610332,0.17147313,0.28545398
139863601,-0.17343119,0.17147313,0.28545398
139885447,-0.17209512,0.170268,0.28431314
139908439,-0.17476726,0.17267826,0.28431314
139931578,-0.17209512,0.17267826,0.28545398
139953447,-0.17343119,0.17147313,0.28659478
139976436,-0.17343119,0.1774988,0.28545398
139999051,-0.17209512,0.17267826,0.28659478
140020489,-0.17209512,0.17267826,0.28317234
140043531,-0.17075905,0.17508854,0.28431314
140065445,-0.17343119,0.17147313,0.28545398
140091603,-0.17075905,0.17629367,0.28545398
140115579,-0.17075905,0.17147313,0.28659478
140139550,-0.17610332,0.170268,0.28317234
140161451,-0.17209512,0.17267826,0.28317234
140185515,-0.17610332,0.17147313,0.28545398
140209435,-0.17610332,0.17147313,0.28317234
140233436,-0.17476726,0.170268,0.28431314
140257436,-0.17743939,0.17267826,0.28659478
140280475,-0.17476726,0.17629367,0.28659478
140302944,-0.17476726,0.17267826,0.28659478
140324464,-0.17075905,0.17508854,0.28431314
140348510,-0.17075905,0.17388341,0.28545398
140371535,-0.17877546,0.17388341,0.28545398
140395256,-0.17343119,0.17267826,0.28431314
140417446,-0.17610332,0.17388341,0.28545398
140441435,-0.17343119,0.17388341,0.28659478
140468418,-0.17343119,0.17508854,0.28431314
140489439,-0.17343119,0.16785772,0.28317234
140511813,-0.17209512,0.17267826,0.28545398
140533450,-0.17075905,0.17629367,0.28431314
140555977,-0.17343119,0.17267826,0.28317234
140577450,-0.17209512,0.1774988,0.28659478
140601545,-0.17209512,0.17147313,0.28317234
140623900,-0.17075905,0.17267826,0.28089073
140645503,-0.17075905,0.16906285,0.28431314
140668439,-0.17610332,0.17508854,0.28431314
140692069,-0.17476726,0.17147313,0.28545398
140714485,-0.17476726,0.1774988,0.28431314
140740124,-0.17075905,0.17388341,0.28545398
140764441,-0.17209512,0.17388341,0.28203154
140788488,-0.17343119,0.17388341,0.28545398
140812454,-0.16942298,0.17388341,0.28431314
140836412,-0.17343119,0.17147313,0.28431314
140860464,-0.17343119,0.17508854,0.28203154
140881499,-0.16675083,0.17388341,0.28317234
140903781,-0.17343119,0.17629367,0.28431314
140925499,-0.16942298,0.17388341,0.28545398
140946499,-0.17209512,0.17508854,0.28431314
140970443,-0.17476726,0.17388341,0.28203154
140992436,-0.17476726,0.17267826,0.28545398
141014488,-0.17743939,0.170268,0.28431314
141036145,-0.17610332,0.17388341,0.28431314
141060435,-0.17343119,0.17147313,0.28431314
141082435,-0.16942298,0.17508854,0.28317234
141108887,-0.17209512,0.17508854,0.28431314
141132896,-0.17075905,0.170268,0.28431314
141156848,-0.17343119,0.170268,0.28431314
141181555,-0.17343119,0.16665259,0.28545398
141206528,-0.17476726,0.17388341,0.28545398
141230436,-0.17075905,0.17147313,0.28431314
141254499,-0.16942298,0.17508854,0.28203154
141278436,-0.17476726,0.17267826,0.28203154
141302436,-0.17209512,0.17508854,0.28545398
141325281,-0.17343119,0.17267826,0.28317234
141349435,-0.17343119,0.17388341,0.28659478
141372970,-0.16942298,0.17267826,0.28317234
141397278,-0.17476726,0.170268,0.28203154
141421204,-0.16808692,0.17388341,0.28317234
141445143,-0.17075905,0.17388341,0.28545398
141469517,-0.17209512,0.17147313,0.28431314
141493319,-0.17209512,0.170268,0.28317234
141517318,-0.17075905,0.17388341,0.28545398
141541333,-0.17075905,0.17147313,0.28545398
141565525,-0.17343119,0.17388341,0.28773558
141589643,-0.17476726,0.17508854,0.28317234
141614771,-0.17343119,0.17388341,0.28317234
141637739,-0.17209512,0.17267826,0.28545398
141661530,-0.16808692,0.170268,0.28317234
141685532,-0.17209512,0.17267826,0.28431314
141709489,-0.17075905,0.170268,0.28089073
141733451,-0.17476726,0.17267826,0.28317234
141754332,-0.17343119,0.17388341,0.28431314
141775448,-0.17209512,0.17629367,0.28431314
141799437,-0.17075905,0.17388341,0.28545398
141823556,-0.17343119,0.17388341,0.28545398
141847584,-0.17209512,0.170268,0.28431314
141871437,-0.17075905,0.170268,0.28545398
141895449,-0.17343119,0.17147313,0.28431314
141919546,-0.17476726,0.17388341,0.28545398
141943646,-0.17075905,0.17267826,0.28545398
141967437,-0.17343119,0.17267826,0.28203154
141991567,-0.17476726,0.170268,0.28545398
142015440,-0.17343119,0.17267826,0.28659478
142039604,-0.17075905,0.1774988,0.28431314
142063437,-0.17343119,0.17147313,0.28431314
142087574,-0.17343119,0.17629367,0.28545398
142111437,-0.17610332,0.17629367,0.28431314
142135595,-0.17343119,0.17388341,0.28545398
142162357,-0.17075905,0.17508854,0.28317234
142186170,-0.17476726,0.170268,0.28317234
142210126,-0.17343119,0.170268,0.28431314
142231450,-0.17343119,0.170268,0.28203154
142255616,-0.17209512,0.16906285,0.28431314
142279437,-0.17476726,0.17508854,0.28317234
142303448,-0.17343119,0.17388341,0.28089073
142327437,-0.17343119,0.17629367,0.28431314
142351602,-0.17476726,0.17147313,0.28545398
142375616,-0.17075905,0.17267826,0.28431314
142399088,-0.17343119,0.17267826,0.28431314
142422989,-0.17476726,0.17388341,0.28431314
142444448,-0.16808692,0.17508854,0.28203154
142468509,-0.17209512,0.16785772,0.28545398
142492450,-0.17075905,0.170268,0.28545398
142516436,-0.17075905,0.17147313,0.28431314
142540443,-0.17343119,0.17508854,0.28431314
142564503,-0.17476726,0.170268,0.28431314
142588436,-0.17476726,0.17267826,0.28317234
142610436,-0.17476726,0.17388341,0.28317234
142634464,-0.17075905,0.17267826,0.28545398
142658446,-0.17209512,0.16906285,0.28431314
142682209,-0.17343119,0.17388341,0.28431314
142702787,-0.17209512,0.16906285,0.28431314
142724447,-0.17343119,0.17147313,0.28317234
142748632,-0.17476726,0.17508854,0.28545398
142772446,-0.17476726,0.17508854,0.28431314
142796457,-0.17209512,0.17629367,0.28659478
