timestamp,error_count,x,y,z,range_ga,scaling,temperature,device_id,x_raw,y_raw,z_raw,is_external
109412590,0,-0.17075905,0.17267826,0.28317234,1.9,0.001219512,25,73225,-108,200,231,1
109436435,0,-0.17476726,0.17508854,0.28317234,1.9,0.001219512,25,73225,-111,202,231,1
109460449,0,-0.16942298,0.17629367,0.28545398,1.9,0.001219512,25,73225,-107,203,233,1
110285436,0,-0.17343119,0.17147313,0.28431314,1.9,0.001219512,25.5,73225,-110,199,232,1
110309498,0,-0.17075905,0.17147313,0.28659478,1.9,0.001219512,25.5,73225,-108,199,234,1
110333453,0,-0.17209512,0.17388341,0.28431314,1.9,0.001219512,25.5,73225,-109,201,232,1
110357489,0,-0.17476726,0.17267826,0.28317234,1.9,0.001219512,25.5,73225,-111,200,231,1
110381447,0,-0.17209512,0.17388341,0.28545398,1.9,0.001219512,25.5,73225,-109,201,233,1
110500552,0,-0.17075905,0.17147313,0.28545398,1.9,0.001219512,25.5,73225,-108,199,233,1
110522440,0,-0.16942298,0.1799091,0.28659478,1.9,0.001219512,25.5,73225,-107,206,234,1
110545437,0,-0.17343119,0.17267826,0.28431314,1.9,0.001219512,25.5,73225,-110,200,232,1
110567782,0,-0.17343119,0.17508854,0.28545398,1.9,0.001219512,25.5,73225,-110,202,233,1
110589436,0,-0.17075905,0.17629367,0.28203154,1.9,0.001219512,25.5,73225,-108,203,230,1
110612436,0,-0.17343119,0.17147313,0.28545398,1.9,0.001219512,25.5,73225,-110,199,233,1
110636473,0,-0.16942298,0.170268,0.28203154,1.9,0.001219512,25.5,73225,-107,198,230,1
110660116,0,-0.17209512,0.17267826,0.28545398,1.9,0.001219512,25.5,73225,-109,200,233,1
110681503,0,-0.17343119,0.17147313,0.28545398,1.9,0.001219512,25.5,73225,-110,199,233,1
110703863,0,-0.17075905,0.17388341,0.28431314,1.9,0.001219512,25.5,73225,-108,201,232,1
110725509,0,-0.17209512,0.17388341,0.28203154,1.9,0.001219512,25.5,73225,-109,201,230,1
110746516,0,-0.17075905,0.17508854,0.28317234,1.9,0.001219512,25.5,73225,-108,202,231,1
110769456,0,-0.17343119,0.17147313,0.28203154,1.9,0.001219512,25.5,73225,-110,199,230,1
110791772,0,-0.17610332,0.17147313,0.28317234,1.9,0.001219512,25.5,73225,-112,199,231,1
110813436,0,-0.17476726,0.17388341,0.28659478,1.9,0.001219512,25.5,73225,-111,201,234,1
110836438,0,-0.17610332,0.17267826,0.28545398,1.9,0.001219512,25.5,73225,-112,200,233,1
110860512,0,-0.16942298,0.17629367,0.28317234,1.9,0.001219512,25.75,73225,-107,203,231,1
110883904,0,-0.17343119,0.17267826,0.28431314,1.9,0.001219512,25.75,73225,-110,200,232,1
111116873,0,-0.17075905,0.17388341,0.28773558,1.9,0.001219512,25.25,73225,-108,201,235,1
111165397,0,-0.17209512,0.17267826,0.28659478,1.9,0.001219512,25.25,73225,-109,200,234,1
111189351,0,-0.17343119,0.17267826,0.28431314,1.9,0.001219512,25.25,73225,-110,200,232,1
111213301,0,-0.17610332,0.17388341,0.28431314,1.9,0.001219512,25.25,73225,-112,201,232,1
111234436,0,-0.16808692,0.17147313,0.28431314,1.9,0.001219512,25.25,73225,-106,199,232,1
111256703,0,-0.17343119,0.17147313,0.28431314,1.9,0.001219512,25.25,73225,-110,199,232,1
111280655,0,-0.17075905,0.17267826,0.28773558,1.9,0.001219512,25.25,73225,-108,200,235,1
111304723,0,-0.16808692,0.17508854,0.28431314,1.9,0.001219512,25.25,73225,-106,202,232,1
111328713,0,-0.17476726,0.17388341,0.28431314,1.9,0.001219512,25.25,73225,-111,201,232,1
111352618,0,-0.17343119,0.17388341,0.28545398,1.9,0.001219512,25.25,73225,-110,201,233,1
111376617,0,-0.17476726,0.17508854,0.28317234,1.9,0.001219512,25.75,73225,-111,202,231,1
111400610,0,-0.17209512,0.17508854,0.28203154,1.9,0.001219512,25.75,73225,-109,202,230,1
111424589,0,-0.16675083,0.17147313,0.28203154,1.9,0.001219512,25.75,73225,-105,199,230,1
111448672,0,-0.17209512,0.17267826,0.28545398,1.9,0.001219512,25.75,73225,-109,200,233,1
111592682,0,-0.16808692,0.17267826,0.28659478,1.9,0.001219512,25.75,73225,-106,200,234,1
111615592,0,-0.17075905,0.17147313,0.28317234,1.9,0.001219512,25.75,73225,-108,199,231,1
111639458,0,-0.17075905,0.17147313,0.28431314,1.9,0.001219512,25.25,73225,-108,199,232,1
111663597,0,-0.17343119,0.17267826,0.28545398,1.9,0.001219512,25.25,73225,-110,200,233,1
111687535,0,-0.17075905,0.17508854,0.28317234,1.9,0.001219512,25.25,73225,-108,202,231,1
111711566,0,-0.17343119,0.17388341,0.28431314,1.9,0.001219512,25.25,73225,-110,201,232,1
111735453,0,-0.17343119,0.17629367,0.28659478,1.9,0.001219512,25.25,73225,-110,203,234,1
111879437,0,-0.17476726,0.17508854,0.28545398,1.9,0.001219512,25.25,73225,-111,202,233,1
112334436,0,-0.17476726,0.17388341,0.28317234,1.9,0.001219512,25.25,73225,-111,201,231,1
112358436,0,-0.17075905,0.17147313,0.28545398,1.9,0.001219512,25.25,73225,-108,199,233,1
112382436,0,-0.17743939,0.17147313,0.28773558,1.9,0.001219512,25.25,73225,-113,199,235,1
112406488,0,-0.17209512,0.17388341,0.28431314,1.9,0.001219512,25.25,73225,-109,201,232,1
112430439,0,-0.17075905,0.17267826,0.28431314,1.9,0.001219512,25.25,73225,-108,200,232,1
112454442,0,-0.17075905,0.17508854,0.28317234,1.9,0.001219512,25.25,73225,-108,202,231,1
112478491,0,-0.16942298,0.17388341,0.28203154,1.9,0.001219512,25.25,73225,-107,201,230,1
112502443,0,-0.17075905,0.17267826,0.28545398,1.9,0.001219512,25.25,73225,-108,200,233,1
112526447,0,-0.17877546,0.17147313,0.28545398,1.9,0.001219512,25.25,73225,-114,199,233,1
112760446,0,-0.17209512,0.17147313,0.28203154,1.9,0.001219512,26,73225,-109,199,230,1
112784462,0,-0.17209512,0.170268,0.28545398,1.9,0.001219512,26,73225,-109,198,233,1
112808497,0,-0.17343119,0.17267826,0.28431314,1.9,0.001219512,26,73225,-110,200,232,1
112831017,0,-0.16675083,0.17147313,0.28089073,1.9,0.001219512,26,73225,-105,199,229,1
112852502,0,-0.17343119,0.17508854,0.28659478,1.9,0.001219512,26,73225,-110,202,234,1
112875525,0,-0.17343119,0.17147313,0.28317234,1.9,0.001219512,26,73225,-110,199,231,1
112897440,0,-0.16942298,0.17388341,0.28317234,1.9,0.001219512,26,73225,-107,201,231,1
112921446,0,-0.16808692,0.17388341,0.28545398,1.9,0.001219512,26,73225,-106,201,233,1
112945448,0,-0.17075905,0.17147313,0.28317234,1.9,0.001219512,25,73225,-108,199,231,1
112968436,0,-0.16808692,0.17508854,0.28545398,1.9,0.001219512,25,73225,-106,202,233,1
112991061,0,-0.17343119,0.17147313,0.28545398,1.9,0.001219512,25,73225,-110,199,233,1
113012542,0,-0.17610332,0.17508854,0.28431314,1.9,0.001219512,25,73225,-112,202,232,1
113035662,0,-0.17075905,0.17147313,0.28431314,1.9,0.001219512,25,73225,-108,199,232,1
113057557,0,-0.16675083,0.16665259,0.28659478,1.9,0.001219512,25,73225,-105,195,234,1
113081445,0,-0.17209512,0.170268,0.28203154,1.9,0.001219512,25,73225,-109,198,230,1
113105457,0,-0.17075905,0.17267826,0.28317234,1.9,0.001219512,25,73225,-108,200,231,1
113127608,0,-0.17209512,0.17267826,0.28203154,1.9,0.001219512,25,73225,-109,200,230,1
113151593,0,-0.17343119,0.17388341,0.28431314,1.9,0.001219512,25,73225,-110,201,232,1
113173436,0,-0.17209512,0.17388341,0.28317234,1.9,0.001219512,25,73225,-109,201,231,1
113195571,0,-0.17075905,0.17388341,0.28431314,1.9,0.001219512,25.5,73225,-108,201,232,1
113217446,0,-0.16942298,0.17267826,0.28317234,1.9,0.001219512,25.5,73225,-107,200,231,1
113241569,0,-0.17476726,0.17147313,0.28431314,1.9,0.001219512,25.5,73225,-111,199,232,1
113265449,0,-0.17209512,0.17147313,0.28203154,1.9,0.001219512,25.5,73225,-109,199,230,1
113289447,0,-0.16942298,0.16906285,0.28659478,1.9,0.001219512,25.5,73225,-107,197,234,1
113313436,0,-0.17209512,0.17267826,0.28317234,1.9,0.001219512,25.5,73225,-109,200,231,1
113337527,0,-0.17343119,0.17267826,0.28431314,1.9,0.001219512,25.5,73225,-110,200,232,1
113361436,0,-0.17343119,0.17388341,0.28317234,1.9,0.001219512,25.5,73225,-110,201,231,1
113385436,0,-0.17075905,0.17147313,0.28545398,1.9,0.001219512,25.5,73225,-108,199,233,1
113411731,0,-0.17075905,0.17267826,0.28773558,1.9,0.001219512,25.5,73225,-108,200,235,1
113435817,0,-0.17075905,0.17267826,0.28431314,1.9,0.001219512,25.5,73225,-108,200,232,1
113458436,0,-0.17075905,0.17267826,0.28431314,1.9,0.001219512,25.5,73225,-108,200,232,1
113483756,0,-0.17075905,0.17267826,0.28203154,1.9,0.001219512,25.5,73225,-108,200,230,1
113507817,0,-0.17343119,0.17508854,0.28089073,1.9,0.001219512,25.5,73225,-110,202,229,1
113528685,0,-0.16942298,0.17388341,0.28431314,1.9,0.001219512,25.5,73225,-107,201,232,1
113550447,0,-0.17610332,0.17388341,0.28203154,1.9,0.001219512,25.5,73225,-112,201,230,1
113576437,0,-0.17343119,0.17147313,0.28317234,1.9,0.001219512,25.5,73225,-110,199,231,1
113600583,0,-0.16808692,0.17267826,0.28545398,1.9,0.001219512,25.5,73225,-106,200,233,1
113622503,0,-0.17343119,0.17508854,0.28317234,1.9,0.001219512,25.5,73225,-110,202,231,1
113648661,0,-0.16675083,0.16785772,0.28431314,1.9,0.001219512,25.5,73225,-105,196,232,1
113672525,0,-0.17610332,0.17388341,0.28431314,1.9,0.001219512,25.5,73225,-112,201,232,1
113696505,0,-0.17209512,0.17267826,0.28431314,1.9,0.001219512,25.5,73225,-109,200,232,1
113719035,0,-0.17075905,0.17508854,0.28431314,1.9,0.001219512,25.5,73225,-108,202,232,1
113742460,0,-0.17209512,0.17267826,0.28659478,1.9,0.001219512,25.5,73225,-109,200,234,1
113768850,0,-0.17343119,0.17629367,0.28545398,1.9,0.001219512,25.5,73225,-110,203,233,1
113792728,0,-0.17209512,0.17267826,0.28317234,1.9,0.001219512,25.5,73225,-109,200,231,1
113817438,0,-0.17209512,0.170268,0.28545398,1.9,0.001219512,25.5,73225,-109,198,233,1
113840487,0,-0.17075905,0.17267826,0.28545398,1.9,0.001219512,25.5,73225,-108,200,233,1
113862436,0,-0.17343119,0.17388341,0.28203154,1.9,0.001219512,25.5,73225,-110,201,230,1
113888437,0,-0.17075905,0.17267826,0.28317234,1.9,0.001219512,25.5,73225,-108,200,231,1
113912437,0,-0.17476726,0.17267826,0.28545398,1.9,0.001219512,25.5,73225,-111,200,233,1
113937185,0,-0.16942298,0.17388341,0.28545398,1.9,0.001219512,25.5,73225,-107,201,233,1
113960972,0,-0.17209512,0.17388341,0.28659478,1.9,0.001219512,25.5,73225,-109,201,234,1
113985146,0,-0.17075905,0.17267826,0.28545398,1.9,0.001219512,25.25,73225,-108,200,233,1
114010258,0,-0.17476726,0.17388341,0.28545398,1.9,0.001219512,25.25,73225,-111,201,233,1
114033341,0,-0.17209512,0.16906285,0.28431314,1.9,0.001219512,25.25,73225,-109,197,232,1
114057366,0,-0.16808692,0.17388341,0.28545398,1.9,0.001219512,25.25,73225,-106,201,233,1
114081559,0,-0.17343119,0.17388341,0.28431314,1.9,0.001219512,25.25,73225,-110,201,232,1
114105312,0,-0.17209512,0.17147313,0.28431314,1.9,0.001219512,25.25,73225,-109,199,232,1
114129245,0,-0.17209512,0.170268,0.28203154,1.9,0.001219512,25.25,73225,-109,198,230,1
114153231,0,-0.17343119,0.17508854,0.28545398,1.9,0.001219512,25.25,73225,-110,202,233,1
114177271,0,-0.17209512,0.17267826,0.28431314,1.9,0.001219512,25.25,73225,-109,200,232,1
114201229,0,-0.17610332,0.17267826,0.28659478,1.9,0.001219512,25.25,73225,-112,200,234,1
114225209,0,-0.17209512,0.17267826,0.28317234,1.9,0.001219512,25.25,73225,-109,200,231,1
114249226,0,-0.17075905,0.17508854,0.28431314,1.9,0.001219512,25.25,73225,-108,202,232,1
114273417,0,-0.16942298,0.17629367,0.28203154,1.9,0.001219512,25.25,73225,-107,203,230,1
114297478,0,-0.17343119,0.17147313,0.28203154,1.9,0.001219512,25.25,73225,-110,199,230,1
114321328,0,-0.16942298,0.17147313,0.28545398,1.9,0.001219512,25.25,73225,-107,199,233,1
114345266,0,-0.17743939,0.17147313,0.28431314,1.9,0.001219512,25.25,73225,-113,199,232,1
114369354,0,-0.17343119,0.17267826,0.28545398,1.9,0.001219512,25.25,73225,-110,200,233,1
114393218,0,-0.17209512,0.17388341,0.28317234,1.9,0.001219512,25.25,73225,-109,201,231,1
114418438,0,-0.17610332,0.17147313,0.28203154,1.9,0.001219512,25.25,73225,-112,199,230,1
114442435,0,-0.17610332,0.17508854,0.28203154,1.9,0.001219512,25.25,73225,-112,202,230,1
114465171,0,-0.16808692,0.170268,0.28659478,1.9,0.001219512,25.25,73225,-106,198,234,1
114486503,0,-0.17343119,0.17508854,0.28431314,1.9,0.001219512,25.25,73225,-110,202,232,1
114510436,0,-0.17209512,0.17388341,0.28545398,1.9,0.001219512,25.75,73225,-109,201,233,1
114534447,0,-0.17343119,0.17629367,0.28545398,1.9,0.001219512,25.75,73225,-110,203,233,1
114557369,0,-0.17343119,0.170268,0.28659478,1.9,0.001219512,25.75,73225,-110,198,234,1
114578482,0,-0.17343119,0.17388341,0.28317234,1.9,0.001219512,25.75,73225,-110,201,231,1
114602527,0,-0.17209512,0.170268,0.28317234,1.9,0.001219512,25.75,73225,-109,198,231,1
114625773,0,-0.17343119,0.17388341,0.28431314,1.9,0.001219512,25.75,73225,-110,201,232,1
114649679,0,-0.16808692,0.17267826,0.28545398,1.9,0.001219512,25.75,73225,-106,200,233,1
114671437,0,-0.17610332,0.17508854,0.28203154,1.9,0.001219512,25.75,73225,-112,202,230,1
114695564,0,-0.17610332,0.17388341,0.28317234,1.9,0.001219512,25.75,73225,-112,201,231,1
114719448,0,-0.17343119,0.17508854,0.28431314,1.9,0.001219512,25.75,73225,-110,202,232,1
114743526,0,-0.17476726,0.170268,0.28317234,1.9,0.001219512,25.75,73225,-111,198,231,1
114767437,0,-0.17476726,0.16906285,0.28545398,1.9,0.001219512,25.25,73225,-111,197,233,1
114794383,0,-0.17209512,0.17508854,0.28659478,1.9,0.001219512,25.25,73225,-109,202,234,1
114818438,0,-0.17343119,0.17508854,0.28431314,1.9,0.001219512,25.25,73225,-110,202,232,1
114842268,0,-0.17610332,0.17629367,0.28317234,1.9,0.001219512,25.25,73225,-112,203,231,1
114866221,0,-0.17476726,0.17388341,0.27974993,1.9,0.001219512,25.25,73225,-111,201,228,1
114887448,0,-0.17075905,0.17508854,0.28203154,1.9,0.001219512,25.25,73225,-108,202,230,1
114911592,0,-0.16808692,0.17508854,0.28431314,1.9,0.001219512,25.25,73225,-106,202,232,1
114935437,0,-0.17075905,0.17147313,0.28773558,1.9,0.001219512,25.25,73225,-108,199,235,1
114959538,0,-0.17209512,0.17388341,0.28545398,1.9,0.001219512,25.25,73225,-109,201,233,1
114983437,0,-0.17343119,0.16906285,0.28545398,1.9,0.001219512,25.25,73225,-110,197,233,1
115007565,0,-0.17209512,0.17388341,0.28317234,1.9,0.001219512,25.25,73225,-109,201,231,1
115034122,0,-0.17075905,0.17147313,0.28545398,1.9,0.001219512,25.25,73225,-108,199,233,1
115058167,0,-0.16808692,0.17267826,0.27974993,1.9,0.001219512,25.25,73225,-106,200,228,1
115082186,0,-0.16942298,0.17388341,0.28203154,1.9,0.001219512,25.25,73225,-107,201,230,1
115103448,0,-0.17075905,0.17388341,0.28203154,1.9,0.001219512,25.25,73225,-108,201,230,1
115127598,0,-0.17075905,0.17629367,0.28431314,1.9,0.001219512,25.25,73225,-108,203,232,1
115151437,0,-0.17209512,0.17267826,0.28317234,1.9,0.001219512,25.25,73225,-109,200,231,1
115174288,0,-0.16942298,0.17267826,0.28317234,1.9,0.001219512,25.25,73225,-107,200,231,1
115195527,0,-0.17343119,0.17508854,0.28545398,1.9,0.001219512,25.25,73225,-110,202,233,1
115218764,0,-0.17343119,0.16906285,0.28317234,1.9,0.001219512,25.25,73225,-110,197,231,1
115240444,0,-0.17075905,0.17508854,0.28773558,1.9,0.001219512,25.25,73225,-108,202,235,1
115264447,0,-0.17209512,0.17147313,0.28317234,1.9,0.001219512,25.25,73225,-109,199,231,1
115288613,0,-0.17209512,0.17147313,0.28317234,1.9,0.001219512,25.25,73225,-109,199,231,1
115312436,0,-0.17209512,0.17267826,0.28317234,1.9,0.001219512,25.25,73225,-109,200,231,1
115336436,0,-0.16942298,0.17508854,0.28317234,1.9,0.001219512,25.25,73225,-107,202,231,1
115360436,0,-0.17476726,0.17388341,0.28545398,1.9,0.001219512,25.25,73225,-111,201,233,1
115384509,0,-0.17476726,0.17267826,0.28659478,1.9,0.001219512,25.25,73225,-111,200,234,1
115408485,0,-0.17343119,0.170268,0.28317234,1.9,0.001219512,25.25,73225,-110,198,231,1
115434848,0,-0.17209512,0.1774988,0.28773558,1.9,0.001219512,25.25,73225,-109,204,235,1
115456452,0,-0.17209512,0.170268,0.28545398,1.9,0.001219512,25.25,73225,-109,198,233,1
115480532,0,-0.17743939,0.17508854,0.28773558,1.9,0.001219512,25.25,73225,-113,202,235,1
115506812,0,-0.17209512,0.17267826,0.28203154,1.9,0.001219512,25.25,73225,-109,200,230,1
115530873,0,-0.17075905,0.17870396,0.28431314,1.9,0.001219512,25.25,73225,-108,205,232,1
115552436,0,-0.17075905,0.17267826,0.28659478,1.9,0.001219512,26,73225,-108,200,234,1
115579167,0,-0.17209512,0.17388341,0.28431314,1.9,0.001219512,26,73225,-109,201,232,1
115600509,0,-0.17075905,0.17388341,0.28659478,1.9,0.001219512,26,73225,-108,201,234,1
115624435,0,-0.17075905,0.17508854,0.28203154,1.9,0.001219512,26,73225,-108,202,230,1
115648452,0,-0.16942298,0.17508854,0.28545398,1.9,0.001219512,26,73225,-107,202,233,1
115672451,0,-0.17343119,0.170268,0.28431314,1.9,0.001219512,26,73225,-110,198,232,1
115696555,0,-0.17075905,0.17147313,0.28089073,1.9,0.001219512,26,73225,-108,199,229,1
115719121,0,-0.17075905,0.17388341,0.28317234,1.9,0.001219512,26,73225,-108,201,231,1
115740504,0,-0.17075905,0.17870396,0.28545398,1.9,0.001219512,26,73225,-108,205,233,1
115763615,0,-0.17209512,0.17267826,0.28317234,1.9,0.001219512,26,73225,-109,200,231,1
115787315,0,-0.16808692,0.17147313,0.28203154,1.9,0.001219512,26,73225,-106,199,230,1
115809462,0,-0.17610332,0.17508854,0.28317234,1.9,0.001219512,25.25,73225,-112,202,231,1
115835562,0,-0.16808692,0.17267826,0.28317234,1.9,0.001219512,25.25,73225,-106,200,231,1
115857476,0,-0.17075905,0.17508854,0.28203154,1.9,0.001219512,25.25,73225,-108,202,230,1
115880526,0,-0.17075905,0.17508854,0.28545398,1.9,0.001219512,25.25,73225,-108,202,233,1
115903018,0,-0.17476726,0.17147313,0.28431314,1.9,0.001219512,25.25,73225,-111,199,232,1
115924520,0,-0.17075905,0.17508854,0.28431314,1.9,0.001219512,25.25,73225,-108,202,232,1
115947630,0,-0.17075905,0.17388341,0.28203154,1.9,0.001219512,25.25,73225,-108,201,230,1
115971542,0,-0.17209512,0.17388341,0.28545398,1.9,0.001219512,25.25,73225,-109,201,233,1
115995574,0,-0.17610332,0.17267826,0.28317234,1.9,0.001219512,25.25,73225,-112,200,231,1
116017440,0,-0.17209512,0.17267826,0.28545398,1.9,0.001219512,25.25,73225,-109,200,233,1
116040436,0,-0.17075905,0.17388341,0.28659478,1.9,0.001219512,25.25,73225,-108,201,234,1
116063011,0,-0.16942298,0.17388341,0.28317234,1.9,0.001219512,26,73225,-107,201,231,1
116087075,0,-0.17343119,0.16906285,0.28431314,1.9,0.001219512,26,73225,-110,197,232,1
116107863,0,-0.17343119,0.17267826,0.28203154,1.9,0.001219512,26,73225,-110,200,230,1
116129512,0,-0.17075905,0.17267826,0.28545398,1.9,0.001219512,26,73225,-108,200,233,1
116153501,0,-0.17343119,0.17267826,0.28545398,1.9,0.001219512,26,73225,-110,200,233,1
116177449,0,-0.17209512,0.17267826,0.28431314,1.9,0.001219512,26,73225,-109,200,232,1
116201436,0,-0.17209512,0.17388341,0.28545398,1.9,0.001219512,26,73225,-109,201,233,1
116225523,0,-0.17075905,0.17508854,0.28317234,1.9,0.001219512,26,73225,-108,202,231,1
116249436,0,-0.17343119,0.16785772,0.28659478,1.9,0.001219512,26,73225,-110,196,234,1
116273446,0,-0.17075905,0.17388341,0.28431314,1.9,0.001219512,26,73225,-108,201,232,1
116295698,0,-0.16808692,0.17508854,0.28431314,1.9,0.001219512,26,73225,-106,202,232,1
116317444,0,-0.17209512,0.17147313,0.28545398,1.9,0.001219512,25.5,73225,-109,199,233,1
116340437,0,-0.17343119,0.17388341,0.28431314,1.9,0.001219512,25.5,73225,-110,201,232,1
116361445,0,-0.17610332,0.17147313,0.28431314,1.9,0.001219512,25.5,73225,-112,199,232,1
116383823,0,-0.17610332,0.17267826,0.28431314,1.9,0.001219512,25.5,73225,-112,200,232,1
116407863,0,-0.17209512,0.17388341,0.28431314,1.9,0.001219512,25.5,73225,-109,201,232,1
116429544,0,-0.16942298,0.17147313,0.28431314,1.9,0.001219512,25.5,73225,-107,199,232,1
116452382,0,-0.16942298,0.17267826,0.28431314,1.9,0.001219512,25.5,73225,-107,200,232,1
116473503,0,-0.17209512,0.17508854,0.28431314,1.9,0.001219512,25.5,73225,-109,202,232,1
116496436,0,-0.17075905,0.17629367,0.28659478,1.9,0.001219512,25.5,73225,-108,203,234,1
116519833,0,-0.17343119,0.17267826,0.28431314,1.9,0.001219512,25.5,73225,-110,200,232,1
116543776,0,-0.16942298,0.17629367,0.28431314,1.9,0.001219512,25.5,73225,-107,203,232,1
116567855,0,-0.17476726,0.16906285,0.28203154,1.9,0.001219512,25.5,73225,-111,197,230,1
116591918,0,-0.17343119,0.17388341,0.28317234,1.9,0.001219512,25.5,73225,-110,201,231,1
116613615,0,-0.17343119,0.17267826,0.28431314,1.9,0.001219512,25.5,73225,-110,200,232,1
116636466,0,-0.17343119,0.17267826,0.28431314,1.9,0.001219512,25.5,73225,-110,200,232,1
116658452,0,-0.16942298,0.17267826,0.28431314,1.9,0.001219512,25.5,73225,-107,200,232,1
116680474,0,-0.17209512,0.17267826,0.28431314,1.9,0.001219512,25.5,73225,-109,200,232,1
116702447,0,-0.17209512,0.17147313,0.28659478,1.9,0.001219512,25.5,73225,-109,199,234,1
116724440,0,-0.17343119,0.17388341,0.28659478,1.9,0.001219512,25.5,73225,-110,201,234,1
116745448,0,-0.17209512,0.170268,0.28203154,1.9,0.001219512,25.5,73225,-109,198,230,1
116768446,0,-0.17209512,0.1774988,0.28659478,1.9,0.001219512,25.5,73225,-109,204,234,1
116789436,0,-0.17209512,0.17388341,0.28659478,1.9,0.001219512,25.5,73225,-109,201,234,1
116812922,0,-0.17743939,0.17388341,0.28317234,1.9,0.001219512,25.75,73225,-113,201,231,1
116836439,0,-0.17209512,0.17388341,0.28431314,1.9,0.001219512,25.75,73225,-109,201,232,1
116858497,0,-0.1640787,0.17388341,0.28431314,1.9,0.001219512,25.75,73225,-103,201,232,1
116880689,0,-0.17476726,0.17267826,0.28317234,1.9,0.001219512,25.75,73225,-111,200,231,1
116904548,0,-0.16808692,0.17267826,0.28545398,1.9,0.001219512,25.75,73225,-106,200,233,1
116928670,0,-0.17343119,0.17388341,0.28431314,1.9,0.001219512,25.75,73225,-110,201,232,1
116952638,0,-0.17343119,0.17388341,0.28431314,1.9,0.001219512,25.75,73225,-110,201,232,1
116976594,0,-0.17209512,0.170268,0.28545398,1.9,0.001219512,25.75,73225,-109,198,233,1
117000574,0,-0.17877546,0.17388341,0.28545398,1.9,0.001219512,25.75,73225,-114,201,233,1
117024629,0,-0.17209512,0.17629367,0.28659478,1.9,0.001219512,25.75,73225,-109,203,234,1
117048507,0,-0.17209512,0.17508854,0.28203154,1.9,0.001219512,25.75,73225,-109,202,230,1
117072523,0,-0.17343119,0.17629367,0.28545398,1.9,0.001219512,25,73225,-110,203,233,1
117096525,0,-0.17075905,0.17267826,0.28545398,1.9,0.001219512,25,73225,-108,200,233,1
117120634,0,-0.17075905,0.17388341,0.28545398,1.9,0.001219512,25,73225,-108,201,233,1
117144564,0,-0.17209512,0.17508854,0.28317234,1.9,0.001219512,25,73225,-109,202,231,1
117168611,0,-0.17209512,0.17388341,0.28317234,1.9,0.001219512,25,73225,-109,201,231,1
117192537,0,-0.17476726,0.17388341,0.28317234,1.9,0.001219512,25,73225,-111,201,231,1
117216528,0,-0.17209512,0.17388341,0.28431314,1.9,0.001219512,25,73225,-109,201,232,1
117240665,0,-0.17209512,0.17388341,0.28659478,1.9,0.001219512,25,73225,-109,201,234,1
117264642,0,-0.17343119,0.16785772,0.28317234,1.9,0.001219512,25,73225,-110,196,231,1
117288714,0,-0.17075905,0.17508854,0.28203154,1.9,0.001219512,25,73225,-108,202,230,1
117312608,0,-0.17209512,0.17267826,0.28203154,1.9,0.001219512,25,73225,-109,200,230,1
117336518,0,-0.17075905,0.17388341,0.28317234,1.9,0.001219512,25.5,73225,-108,201,231,1
117360641,0,-0.17343119,0.17147313,0.28203154,1.9,0.001219512,25.5,73225,-110,199,230,1
117384498,0,-0.17610332,0.17388341,0.28431314,1.9,0.001219512,25.5,73225,-112,201,232,1
117408637,0,-0.17075905,0.17388341,0.28431314,1.9,0.001219512,25.5,73225,-108,201,232,1
117432575,0,-0.17209512,0.170268,0.28431314,1.9,0.001219512,25.5,73225,-109,198,232,1
117456617,0,-0.17209512,0.17267826,0.28431314,1.9,0.001219512,25.5,73225,-109,200,232,1
117479453,0,-0.17075905,0.17629367,0.28659478,1.9,0.001219512,25.5,73225,-108,203,234,1
117503637,0,-0.17209512,0.17147313,0.28545398,1.9,0.001219512,25.5,73225,-109,199,233,1
117527537,0,-0.17610332,0.17267826,0.28545398,1.9,0.001219512,25.5,73225,-112,200,233,1
117551449,0,-0.17476726,0.17267826,0.28203154,1.9,0.001219512,25.5,73225,-111,200,230,1
117575531,0,-0.17075905,0.17147313,0.28431314,1.9,0.001219512,25.5,73225,-108,199,232,1
117599583,0,-0.17343119,0.17267826,0.28317234,1.9,0.001219512,25.5,73225,-110,200,231,1
117626545,0,-0.17610332,0.17147313,0.28431314,1.9,0.001219512,25.5,73225,-112,199,232,1
117650435,0,-0.17209512,0.170268,0.28317234,1.9,0.001219512,25.5,73225,-109,198,231,1
117674002,0,-0.17209512,0.17508854,0.28431314,1.9,0.001219512,25.5,73225,-109,202,232,1
117695595,0,-0.17209512,0.17267826,0.28545398,1.9,0.001219512,25.5,73225,-109,200,233,1
117719515,0,-0.17075905,0.17508854,0.28431314,1.9,0.001219512,25.5,73225,-108,202,232,1
117743437,0,-0.17343119,0.17267826,0.28317234,1.9,0.001219512,25.5,73225,-110,200,231,1
117767523,0,-0.17743939,0.17147313,0.28431314,1.9,0.001219512,25.5,73225,-113,199,232,1
117791654,0,-0.17209512,0.17147313,0.28431314,1.9,0.001219512,25.5,73225,-109,199,232,1
117815562,0,-0.17209512,0.17388341,0.28317234,1.9,0.001219512,25.5,73225,-109,201,231,1
117839447,0,-0.17343119,0.17508854,0.28089073,1.9,0.001219512,25.5,73225,-110,202,229,1
117863437,0,-0.16808692,0.17267826,0.28203154,1.9,0.001219512,25.5,73225,-106,200,230,1
117887620,0,-0.17209512,0.170268,0.28089073,1.9,0.001219512,25.5,73225,-109,198,229,1
117911524,0,-0.17343119,0.17147313,0.28317234,1.9,0.001219512,25.5,73225,-110,199,231,1
117935440,0,-0.17343119,0.17508854,0.28317234,1.9,0.001219512,25.5,73225,-110,202,231,1
117962376,0,-0.17343119,0.17147313,0.28659478,1.9,0.001219512,25.5,73225,-110,199,234,1
117986185,0,-0.17209512,0.170268,0.28659478,1.9,0.001219512,25.5,73225,-109,198,234,1
118007600,0,-0.17209512,0.17267826,0.28545398,1.9,0.001219512,25.5,73225,-109,200,233,1
118031437,0,-0.17209512,0.17388341,0.28545398,1.9,0.001219512,25.5,73225,-109,201,233,1
118055514,0,-0.17209512,0.17147313,0.28431314,1.9,0.001219512,25.5,73225,-109,199,232,1
118078447,0,-0.17075905,0.17147313,0.28545398,1.9,0.001219512,25.5,73225,-108,199,233,1
118102452,0,-0.16942298,0.17508854,0.28887638,1.9,0.001219512,25.5,73225,-107,202,236,1
118126487,0,-0.17075905,0.17388341,0.28317234,1.9,0.001219512,25.25,73225,-108,201,231,1
118150435,0,-0.17209512,0.17388341,0.28659478,1.9,0.001219512,25.25,73225,-109,201,234,1
118174439,0,-0.17209512,0.17508854,0.28545398,1.9,0.001219512,25.25,73225,-109,202,233,1
118198438,0,-0.16808692,0.17388341,0.28431314,1.9,0.001219512,25.25,73225,-106,201,232,1
118222126,0,-0.17075905,0.17629367,0.28089073,1.9,0.001219512,25.25,73225,-108,203,229,1
118243571,0,-0.17209512,0.17267826,0.28089073,1.9,0.001219512,25.25,73225,-109,200,229,1
118266532,0,-0.17209512,0.17388341,0.28089073,1.9,0.001219512,25.25,73225,-109,201,229,1
118288597,0,-0.17075905,0.17388341,0.28545398,1.9,0.001219512,25.25,73225,-108,201,233,1
118312439,0,-0.17343119,0.17267826,0.28317234,1.9,0.001219512,25.25,73225,-110,200,231,1
118336512,0,-0.16942298,0.17267826,0.28659478,1.9,0.001219512,25.25,73225,-107,200,234,1
118360436,0,-0.17075905,0.17508854,0.28773558,1.9,0.001219512,25.25,73225,-108,202,235,1
118384498,0,-0.17343119,0.17267826,0.28317234,1.9,0.001219512,25.75,73225,-110,200,231,1
118411960,0,-0.17075905,0.17267826,0.28317234,1.9,0.001219512,25.75,73225,-108,200,231,1
118434910,0,-0.17075905,0.17267826,0.28773558,1.9,0.001219512,25.75,73225,-108,200,235,1
118456449,0,-0.17209512,0.17388341,0.28089073,1.9,0.001219512,25.75,73225,-109,201,229,1
118480519,0,-0.16942298,0.170268,0.28317234,1.9,0.001219512,25.75,73225,-107,198,231,1
118504515,0,-0.17343119,0.17267826,0.28545398,1.9,0.001219512,25.75,73225,-110,200,233,1
118528436,0,-0.17209512,0.17388341,0.28203154,1.9,0.001219512,25.75,73225,-109,201,230,1
118552436,0,-0.17743939,0.17267826,0.28545398,1.9,0.001219512,25.75,73225,-113,200,233,1
118575601,0,-0.17209512,0.17388341,0.28317234,1.9,0.001219512,25.75,73225,-109,201,231,1
118598225,0,-0.16942298,0.16785772,0.28545398,1.9,0.001219512,25.75,73225,-107,196,233,1
118618841,0,-0.17075905,0.17147313,0.28431314,1.9,0.001219512,25.75,73225,-108,199,232,1
118640499,0,-0.16808692,0.17267826,0.28203154,1.9,0.001219512,25.25,73225,-106,200,230,1
118664449,0,-0.16808692,0.17267826,0.28431314,1.9,0.001219512,25.25,73225,-106,200,232,1
118688436,0,-0.17075905,0.170268,0.27974993,1.9,0.001219512,25.25,73225,-108,198,228,1
118711597,0,-0.17743939,0.17267826,0.28545398,1.9,0.001219512,25.25,73225,-113,200,233,1
118733449,0,-0.17343119,0.16906285,0.28431314,1.9,0.001219512,25.25,73225,-110,197,232,1
118756515,0,-0.17209512,0.17267826,0.28545398,1.9,0.001219512,25.25,73225,-109,200,233,1
118779104,0,-0.17209512,0.17147313,0.28431314,1.9,0.001219512,25.25,73225,-109,199,232,1
118799633,0,-0.17075905,0.17267826,0.28431314,1.9,0.001219512,25.25,73225,-108,200,232,1
118823543,0,-0.17343119,0.170268,0.28545398,1.9,0.001219512,25.25,73225,-110,198,233,1
118845488,0,-0.17209512,0.170268,0.28089073,1.9,0.001219512,25.25,73225,-109,198,229,1
118869447,0,-0.17476726,0.17267826,0.28089073,1.9,0.001219512,25.25,73225,-111,200,229,1
118893436,0,-0.17075905,0.16906285,0.28317234,1.9,0.001219512,25.75,73225,-108,197,231,1
118917562,0,-0.17610332,0.17267826,0.28545398,1.9,0.001219512,25.75,73225,-112,200,233,1
118941436,0,-0.17476726,0.17388341,0.28431314,1.9,0.001219512,25.75,73225,-111,201,232,1
118965446,0,-0.17209512,0.17388341,0.28545398,1.9,0.001219512,25.75,73225,-109,201,233,1
118989449,0,-0.17476726,0.17629367,0.28317234,1.9,0.001219512,25.75,73225,-111,203,231,1
119013548,0,-0.17209512,0.170268,0.28545398,1.9,0.001219512,25.75,73225,-109,198,233,1
119037436,0,-0.17343119,0.17508854,0.28203154,1.9,0.001219512,25.75,73225,-110,202,230,1
119060436,0,-0.17209512,0.17388341,0.28545398,1.9,0.001219512,25.75,73225,-109,201,233,1
119083123,0,-0.17075905,0.16785772,0.28089073,1.9,0.001219512,25.75,73225,-108,196,229,1
119104491,0,-0.16942298,0.17267826,0.28545398,1.9,0.001219512,25.75,73225,-107,200,233,1
119127562,0,-0.17343119,0.17388341,0.28545398,1.9,0.001219512,25.75,73225,-110,201,233,1
119151573,0,-0.17476726,0.17147313,0.28545398,1.9,0.001219512,25.75,73225,-111,199,233,1
119175671,0,-0.17343119,0.170268,0.28545398,1.9,0.001219512,25.75,73225,-110,198,233,1
119197436,0,-0.17343119,0.17147313,0.28545398,1.9,0.001219512,25.75,73225,-110,199,233,1
119221512,0,-0.17476726,0.170268,0.28545398,1.9,0.001219512,25.75,73225,-111,198,233,1
119245446,0,-0.17343119,0.17388341,0.28545398,1.9,0.001219512,25.75,73225,-110,201,233,1
119271626,0,-0.17476726,0.17147313,0.28317234,1.9,0.001219512,25.75,73225,-111,199,231,1
119293435,0,-0.17343119,0.17147313,0.28203154,1.9,0.001219512,25.75,73225,-110,199,230,1
119315728,0,-0.17075905,0.17388341,0.28431314,1.9,0.001219512,25.75,73225,-108,201,232,1
119337436,0,-0.17610332,0.17267826,0.28203154,1.9,0.001219512,25.75,73225,-112,200,230,1
119360435,0,-0.17476726,0.17267826,0.28431314,1.9,0.001219512,25.75,73225,-111,200,232,1
119383932,0,-0.17209512,0.17147313,0.28659478,1.9,0.001219512,25.75,73225,-109,199,234,1
119405453,0,-0.16942298,0.17267826,0.28431314,1.9,0.001219512,25.75,73225,-107,200,232,1
119429551,0,-0.17209512,0.17388341,0.28545398,1.9,0.001219512,25.75,73225,-109,201,233,1
119451738,0,-0.16942298,0.17629367,0.28659478,1.9,0.001219512,25.75,73225,-107,203,234,1
119473504,0,-0.16942298,0.17388341,0.28431314,1.9,0.001219512,25.75,73225,-107,201,232,1
119494593,0,-0.17209512,0.16906285,0.28545398,1.9,0.001219512,25.75,73225,-109,197,233,1
119518436,0,-0.17209512,0.17388341,0.28431314,1.9,0.001219512,25.75,73225,-109,201,232,1
119544148,0,-0.17476726,0.17267826,0.28659478,1.9,0.001219512,25.75,73225,-111,200,234,1
119568389,0,-0.17343119,0.17267826,0.28431314,1.9,0.001219512,25.75,73225,-110,200,232,1
119589449,0,-0.17343119,0.170268,0.28317234,1.9,0.001219512,25.75,73225,-110,198,231,1
119611704,0,-0.17610332,0.17508854,0.28545398,1.9,0.001219512,25.75,73225,-112,202,233,1
119633449,0,-0.16942298,0.16906285,0.28317234,1.9,0.001219512,25.75,73225,-107,197,231,1
119657448,0,-0.17343119,0.170268,0.28089073,1.9,0.001219512,25.25,73225,-110,198,229,1
119681538,0,-0.16675083,0.17267826,0.28659478,1.9,0.001219512,25.25,73225,-105,200,234,1
119704436,0,-0.17743939,0.17147313,0.28431314,1.9,0.001219512,25.25,73225,-113,199,232,1
119726435,0,-0.17209512,0.17267826,0.28431314,1.9,0.001219512,25.25,73225,-109,200,232,1
119748449,0,-0.17610332,0.17388341,0.28545398,1.9,0.001219512,25.25,73225,-112,201,233,1
119770436,0,-0.17610332,0.17267826,0.28317234,1.9,0.001219512,25.25,73225,-112,200,231,1
119792447,0,-0.16942298,0.17388341,0.28431314,1.9,0.001219512,25.25,73225,-107,201,232,1
119813447,0,-0.17743939,0.17267826,0.28659478,1.9,0.001219512,25.25,73225,-113,200,234,1
119835735,0,-0.17743939,0.170268,0.28317234,1.9,0.001219512,25.25,73225,-113,198,231,1
119857447,0,-0.17343119,0.17147313,0.28545398,1.9,0.001219512,25.25,73225,-110,199,233,1
119880848,0,-0.16675083,0.17388341,0.28089073,1.9,0.001219512,25.25,73225,-105,201,229,1
119904890,0,-0.17209512,0.17508854,0.28203154,1.9,0.001219512,26,73225,-109,202,230,1
119928862,0,-0.17209512,0.170268,0.28659478,1.9,0.001219512,26,73225,-109,198,234,1
119952796,0,-0.17209512,0.17629367,0.28317234,1.9,0.001219512,26,73225,-109,203,231,1
119977439,0,-0.17343119,0.17147313,0.28545398,1.9,0.001219512,26,73225,-110,199,233,1
120002709,0,-0.16808692,0.17388341,0.28545398,1.9,0.001219512,26,73225,-106,201,233,1
120025446,0,-0.17476726,0.170268,0.28659478,1.9,0.001219512,26,73225,-111,198,234,1
120049487,0,-0.17343119,0.17388341,0.28431314,1.9,0.001219512,26,73225,-110,201,232,1
120073349,0,-0.17343119,0.17388341,0.28431314,1.9,0.001219512,26,73225,-110,201,232,1
120097184,0,-0.17075905,0.17267826,0.28203154,1.9,0.001219512,26,73225,-108,200,230,1
120118436,0,-0.16942298,0.170268,0.28659478,1.9,0.001219512,26,73225,-107,198,234,1
120142545,0,-0.17209512,0.17508854,0.28431314,1.9,0.001219512,26,73225,-109,202,232,1
120166436,0,-0.17476726,0.17147313,0.28545398,1.9,0.001219512,25.75,73225,-111,199,233,1
120194391,0,-0.17476726,0.17147313,0.28545398,1.9,0.001219512,25.75,73225,-111,199,233,1
120218436,0,-0.17476726,0.17267826,0.28317234,1.9,0.001219512,25.75,73225,-111,200,231,1
120242499,0,-0.17209512,0.170268,0.28317234,1.9,0.001219512,25.75,73225,-109,198,231,1
120266436,0,-0.16942298,0.17267826,0.28545398,1.9,0.001219512,25.75,73225,-107,200,233,1
120289297,0,-0.17075905,0.16785772,0.28431314,1.9,0.001219512,25.75,73225,-108,196,232,1
120313280,0,-0.16942298,0.1774988,0.28431314,1.9,0.001219512,25.75,73225,-107,204,232,1
120334498,0,-0.17343119,0.170268,0.2900172,1.9,0.001219512,25.75,73225,-110,198,237,1
120358435,0,-0.17476726,0.17508854,0.28317234,1.9,0.001219512,25.75,73225,-111,202,231,1
120382447,0,-0.17343119,0.17267826,0.28317234,1.9,0.001219512,25.75,73225,-110,200,231,1
120404658,0,-0.17343119,0.17508854,0.28203154,1.9,0.001219512,25.75,73225,-110,202,230,1
120427607,0,-0.17476726,0.17267826,0.28317234,1.9,0.001219512,25.25,73225,-111,200,231,1
120449679,0,-0.16675083,0.170268,0.28317234,1.9,0.001219512,25.25,73225,-105,198,231,1
120471610,0,-0.17343119,0.170268,0.28317234,1.9,0.001219512,25.25,73225,-110,198,231,1
120495550,0,-0.17343119,0.17267826,0.28431314,1.9,0.001219512,25.25,73225,-110,200,232,1
120519438,0,-0.17476726,0.16785772,0.28431314,1.9,0.001219512,25.25,73225,-111,196,232,1
120543639,0,-0.17610332,0.170268,0.28659478,1.9,0.001219512,25.25,73225,-112,198,234,1
120567596,0,-0.17343119,0.17508854,0.28545398,1.9,0.001219512,25.25,73225,-110,202,233,1
120591437,0,-0.17343119,0.17508854,0.28659478,1.9,0.001219512,25.25,73225,-110,202,234,1
120615437,0,-0.17610332,0.17388341,0.28545398,1.9,0.001219512,25.25,73225,-112,201,233,1
120639542,0,-0.16942298,0.17147313,0.28773558,1.9,0.001219512,25.25,73225,-107,199,235,1
120663437,0,-0.17075905,0.17508854,0.28545398,1.9,0.001219512,25.25,73225,-108,202,233,1
120687586,0,-0.17075905,0.17267826,0.28317234,1.9,0.001219512,25.75,73225,-108,200,231,1
120711448,0,-0.17476726,0.170268,0.28545398,1.9,0.001219512,25.75,73225,-111,198,233,1
120735437,0,-0.17476726,0.170268,0.28545398,1.9,0.001219512,25.75,73225,-111,198,233,1
120759437,0,-0.17075905,0.17388341,0.28545398,1.9,0.001219512,25.75,73225,-108,201,233,1
120783610,0,-0.17343119,0.17629367,0.28773558,1.9,0.001219512,25.75,73225,-110,203,235,1
120807554,0,-0.17343119,0.17267826,0.28545398,1.9,0.001219512,25.75,73225,-110,200,233,1
120831437,0,-0.17343119,0.17508854,0.28545398,1.9,0.001219512,25.75,73225,-110,202,233,1
120855579,0,-0.17343119,0.17147313,0.28887638,1.9,0.001219512,25.75,73225,-110,199,236,1
120879437,0,-0.16942298,0.17388341,0.28431314,1.9,0.001219512,25.75,73225,-107,201,232,1
120903586,0,-0.17343119,0.17388341,0.27974993,1.9,0.001219512,25.75,73225,-110,201,228,1
120927449,0,-0.17476726,0.170268,0.28545398,1.9,0.001219512,25.75,73225,-111,198,233,1
120951441,0,-0.17209512,0.17629367,0.28659478,1.9,0.001219512,25.75,73225,-109,203,234,1
120978103,0,-0.17610332,0.170268,0.28545398,1.9,0.001219512,25.75,73225,-112,198,233,1
121003264,0,-0.17476726,0.17508854,0.28431314,1.9,0.001219512,25.75,73225,-111,202,232,1
121026798,0,-0.17476726,0.17147313,0.28431314,1.9,0.001219512,25.75,73225,-111,199,232,1
121050994,0,-0.17075905,0.17267826,0.28431314,1.9,0.001219512,25.75,73225,-108,200,232,1
121072436,0,-0.16808692,0.17388341,0.28317234,1.9,0.001219512,25.75,73225,-106,201,231,1
121096436,0,-0.17209512,0.17388341,0.28773558,1.9,0.001219512,25.75,73225,-109,201,235,1
121120442,0,-0.17610332,0.170268,0.28545398,1.9,0.001219512,25.75,73225,-112,198,233,1
121144510,0,-0.17209512,0.17267826,0.28773558,1.9,0.001219512,25.75,73225,-109,200,235,1
121167517,0,-0.17075905,0.17508854,0.28659478,1.9,0.001219512,25.75,73225,-108,202,234,1
121190336,0,-0.17209512,0.170268,0.28317234,1.9,0.001219512,25.75,73225,-109,198,231,1
121210924,0,-0.16942298,0.17147313,0.28317234,1.9,0.001219512,25,73225,-107,199,231,1
121231600,0,-0.17343119,0.17147313,0.28317234,1.9,0.001219512,25,73225,-110,199,231,1
121254438,0,-0.17343119,0.170268,0.28431314,1.9,0.001219512,25,73225,-110,198,232,1
121278438,0,-0.17343119,0.17508854,0.28203154,1.9,0.001219512,25,73225,-110,202,230,1
121302450,0,-0.16808692,0.17267826,0.28431314,1.9,0.001219512,25,73225,-106,200,232,1
121324436,0,-0.17476726,0.16906285,0.28659478,1.9,0.001219512,25,73225,-111,197,234,1
121347524,0,-0.17343119,0.17267826,0.28431314,1.9,0.001219512,25,73225,-110,200,232,1
121370436,0,-0.17075905,0.17267826,0.28545398,1.9,0.001219512,25,73225,-108,200,233,1
121392436,0,-0.17610332,0.17147313,0.28431314,1.9,0.001219512,25,73225,-112,199,232,1
121416503,0,-0.16942298,0.170268,0.28545398,1.9,0.001219512,25,73225,-107,198,233,1
121440436,0,-0.17476726,0.17508854,0.28317234,1.9,0.001219512,25,73225,-111,202,231,1
121464435,0,-0.17075905,0.16906285,0.28089073,1.9,0.001219512,25.75,73225,-108,197,229,1
121488468,0,-0.17075905,0.17508854,0.28431314,1.9,0.001219512,25.75,73225,-108,202,232,1
121512502,0,-0.17476726,0.17388341,0.28659478,1.9,0.001219512,25.75,73225,-111,201,234,1
121536445,0,-0.16942298,0.170268,0.28545398,1.9,0.001219512,25.75,73225,-107,198,233,1
121560448,0,-0.17209512,0.17147313,0.28659478,1.9,0.001219512,25.75,73225,-109,199,234,1
121583531,0,-0.17209512,0.17267826,0.28431314,1.9,0.001219512,25.75,73225,-109,200,232,1
121606329,0,-0.17075905,0.1774988,0.28431314,1.9,0.001219512,25.75,73225,-108,204,232,1
121628503,0,-0.17075905,0.17267826,0.28317234,1.9,0.001219512,25.75,73225,-108,200,231,1
121651538,0,-0.17209512,0.17388341,0.28545398,1.9,0.001219512,25.75,73225,-109,201,233,1
121674492,0,-0.16541477,0.170268,0.28545398,1.9,0.001219512,25.75,73225,-104,198,233,1
121696457,0,-0.17209512,0.17388341,0.28545398,1.9,0.001219512,25.75,73225,-109,201,233,1
121717457,0,-0.17343119,0.17388341,0.28545398,1.9,0.001219512,25.75,73225,-110,201,233,1
121741448,0,-0.17343119,0.170268,0.28317234,1.9,0.001219512,25.75,73225,-110,198,231,1
121765436,0,-0.17075905,0.17388341,0.28431314,1.9,0.001219512,25.75,73225,-108,201,232,1
121788501,0,-0.17209512,0.1774988,0.28317234,1.9,0.001219512,25.75,73225,-109,204,231,1
121811033,0,-0.17343119,0.17629367,0.28089073,1.9,0.001219512,25.75,73225,-110,203,229,1
121832502,0,-0.17343119,0.17388341,0.28317234,1.9,0.001219512,25.75,73225,-110,201,231,1
121855537,0,-0.17476726,0.17267826,0.28431314,1.9,0.001219512,25.75,73225,-111,200,232,1
121879290,0,-0.17209512,0.17388341,0.28545398,1.9,0.001219512,25.75,73225,-109,201,233,1
121903577,0,-0.17476726,0.16785772,0.28659478,1.9,0.001219512,25.75,73225,-111,196,234,1
121925436,0,-0.17343119,0.16785772,0.28659478,1.9,0.001219512,25.75,73225,-110,196,234,1
121949487,0,-0.17476726,0.17267826,0.28659478,1.9,0.001219512,25.75,73225,-111,200,234,1
121973513,0,-0.17476726,0.17388341,0.28317234,1.9,0.001219512,25.75,73225,-111,201,231,1
121997502,0,-0.17209512,0.17629367,0.28317234,1.9,0.001219512,25.75,73225,-109,203,231,1
122021449,0,-0.16942298,0.16906285,0.28203154,1.9,0.001219512,25.75,73225,-107,197,230,1
122045447,0,-0.17343119,0.170268,0.28659478,1.9,0.001219512,25.75,73225,-110,198,234,1
122068497,0,-0.16808692,0.17267826,0.28203154,1.9,0.001219512,25.75,73225,-106,200,230,1
122089498,0,-0.17075905,0.16906285,0.28545398,1.9,0.001219512,25.75,73225,-108,197,233,1
122112448,0,-0.17476726,0.16785772,0.28431314,1.9,0.001219512,25.75,73225,-111,196,232,1
122135535,0,-0.17209512,0.17267826,0.28317234,1.9,0.001219512,25.75,73225,-109,200,231,1
122157448,0,-0.17476726,0.17508854,0.28203154,1.9,0.001219512,25.75,73225,-111,202,230,1
122181447,0,-0.17476726,0.17629367,0.28887638,1.9,0.001219512,25.75,73225,-111,203,236,1
122204436,0,-0.17209512,0.17267826,0.27974993,1.9,0.001219512,25.75,73225,-109,200,228,1
122227933,0,-0.17743939,0.17388341,0.28203154,1.9,0.001219512,25.5,73225,-113,201,230,1
122251918,0,-0.17476726,0.17388341,0.28431314,1.9,0.001219512,25.5,73225,-111,201,232,1
122273446,0,-0.17209512,0.16906285,0.28317234,1.9,0.001219512,25.5,73225,-109,197,231,1
122294436,0,-0.16808692,0.17267826,0.28203154,1.9,0.001219512,25.5,73225,-106,200,230,1
122320487,0,-0.17343119,0.170268,0.28431314,1.9,0.001219512,25.5,73225,-110,198,232,1
122344017,0,-0.17343119,0.17629367,0.28545398,1.9,0.001219512,25.5,73225,-110,203,233,1
122365448,0,-0.17343119,0.16665259,0.28317234,1.9,0.001219512,25.5,73225,-110,195,231,1
122387838,0,-0.17476726,0.16906285,0.28089073,1.9,0.001219512,25.5,73225,-111,197,229,1
122411769,0,-0.17075905,0.17147313,0.28203154,1.9,0.001219512,25.5,73225,-108,199,230,1
122433547,0,-0.17476726,0.16906285,0.28317234,1.9,0.001219512,25.5,73225,-111,197,231,1
122456435,0,-0.17209512,0.17388341,0.28089073,1.9,0.001219512,25.5,73225,-109,201,229,1
122480437,0,-0.17075905,0.17267826,0.28431314,1.9,0.001219512,25.75,73225,-108,200,232,1
122504439,0,-0.16942298,0.17147313,0.28203154,1.9,0.001219512,25.75,73225,-107,199,230,1
122528059,0,-0.17075905,0.17147313,0.28203154,1.9,0.001219512,25.75,73225,-108,199,230,1
122549436,0,-0.17743939,0.17147313,0.28659478,1.9,0.001219512,25.75,73225,-113,199,234,1
122571760,0,-0.16942298,0.17508854,0.28545398,1.9,0.001219512,25.75,73225,-107,202,233,1
122593436,0,-0.17610332,0.17629367,0.28431314,1.9,0.001219512,25.75,73225,-112,203,232,1
122616436,0,-0.16942298,0.170268,0.28545398,1.9,0.001219512,25.75,73225,-107,198,233,1
122638436,0,-0.16942298,0.17147313,0.28431314,1.9,0.001219512,25.75,73225,-107,199,232,1
122661531,0,-0.16942298,0.17388341,0.28545398,1.9,0.001219512,25.75,73225,-107,201,233,1
122683788,0,-0.17476726,0.17388341,0.28431314,1.9,0.001219512,25.75,73225,-111,201,232,1
122705486,0,-0.17343119,0.17388341,0.28773558,1.9,0.001219512,25.75,73225,-110,201,235,1
122728439,0,-0.17075905,0.17147313,0.28317234,1.9,0.001219512,25.75,73225,-108,199,231,1
122750447,0,-0.17075905,0.17147313,0.28659478,1.9,0.001219512,25.75,73225,-108,199,234,1
122773436,0,-0.17476726,0.17508854,0.28659478,1.9,0.001219512,25.75,73225,-111,202,234,1
122795795,0,-0.17343119,0.17388341,0.28659478,1.9,0.001219512,25.75,73225,-110,201,234,1
122819882,0,-0.17209512,0.17629367,0.28317234,1.9,0.001219512,25.75,73225,-109,203,231,1
122841507,0,-0.16942298,0.17388341,0.28317234,1.9,0.001219512,25.75,73225,-107,201,231,1
122865167,0,-0.16942298,0.17267826,0.28431314,1.9,0.001219512,25.75,73225,-107,200,232,1
122889341,0,-0.16942298,0.17508854,0.28317234,1.9,0.001219512,25.75,73225,-107,202,231,1
122913214,0,-0.17476726,0.170268,0.28317234,1.9,0.001219512,25.75,73225,-111,198,231,1
122937171,0,-0.17209512,0.17267826,0.28773558,1.9,0.001219512,25.75,73225,-109,200,235,1
122961230,0,-0.17610332,0.17267826,0.28773558,1.9,0.001219512,25.75,73225,-112,200,235,1
122985172,0,-0.17343119,0.17388341,0.28317234,1.9,0.001219512,25.75,73225,-110,201,231,1
123009344,0,-0.17075905,0.17147313,0.28545398,1.9,0.001219512,25.75,73225,-108,199,233,1
123033183,0,-0.17075905,0.17388341,0.28317234,1.9,0.001219512,25.75,73225,-108,201,231,1
123057152,0,-0.16808692,0.17388341,0.28545398,1.9,0.001219512,25.75,73225,-106,201,233,1
123081172,0,-0.17343119,0.17267826,0.28317234,1.9,0.001219512,25.75,73225,-110,200,231,1
123105163,0,-0.16942298,0.170268,0.28431314,1.9,0.001219512,25.75,73225,-107,198,232,1
123129270,0,-0.17343119,0.17388341,0.28545398,1.9,0.001219512,25.75,73225,-110,201,233,1
123153406,0,-0.17343119,0.17147313,0.28545398,1.9,0.001219512,25.75,73225,-110,199,233,1
123177245,0,-0.17476726,0.17267826,0.28545398,1.9,0.001219512,25.75,73225,-111,200,233,1
123202018,0,-0.17743939,0.17147313,0.28545398,1.9,0.001219512,25.75,73225,-113,199,233,1
123225153,0,-0.16942298,0.170268,0.28317234,1.9,0.001219512,25.75,73225,-107,198,231,1
123249194,0,-0.17476726,0.17147313,0.28317234,1.9,0.001219512,25.75,73225,-111,199,231,1
123273231,0,-0.17075905,0.17267826,0.28431314,1.9,0.001219512,25.75,73225,-108,200,232,1
123297242,0,-0.17610332,0.17388341,0.28089073,1.9,0.001219512,25.75,73225,-112,201,229,1
123321156,0,-0.17343119,0.17267826,0.28545398,1.9,0.001219512,25.75,73225,-110,200,233,1
123345158,0,-0.16942298,0.17629367,0.28545398,1.9,0.001219512,25.75,73225,-107,203,233,1
123367513,0,-0.17209512,0.17147313,0.28545398,1.9,0.001219512,25.75,73225,-109,199,233,1
123391554,0,-0.17209512,0.17629367,0.28773558,1.9,0.001219512,25.75,73225,-109,203,235,1
123415524,0,-0.17209512,0.170268,0.28317234,1.9,0.001219512,25.75,73225,-109,198,231,1
123439669,0,-0.17209512,0.17267826,0.28431314,1.9,0.001219512,25.75,73225,-109,200,232,1
123463438,0,-0.17343119,0.17508854,0.28089073,1.9,0.001219512,25.75,73225,-110,202,229,1
123490422,0,-0.17075905,0.17267826,0.27974993,1.9,0.001219512,25.75,73225,-108,200,228,1
123511520,0,-0.17343119,0.17267826,0.28659478,1.9,0.001219512,25,73225,-110,200,234,1
123535582,0,-0.17610332,0.17388341,0.28659478,1.9,0.001219512,25,73225,-112,201,234,1
123559448,0,-0.17476726,0.17147313,0.28317234,1.9,0.001219512,25,73225,-111,199,231,1
123583437,0,-0.17476726,0.17388341,0.28203154,1.9,0.001219512,25,73225,-111,201,230,1
123607581,0,-0.17209512,0.17508854,0.28203154,1.9,0.001219512,25,73225,-109,202,230,1
123631616,0,-0.16942298,0.17388341,0.28545398,1.9,0.001219512,25,73225,-107,201,233,1
123655448,0,-0.17209512,0.17267826,0.28659478,1.9,0.001219512,25,73225,-109,200,234,1
123679450,0,-0.17476726,0.17147313,0.28089073,1.9,0.001219512,25,73225,-111,199,229,1
123703445,0,-0.16942298,0.17388341,0.28431314,1.9,0.001219512,25,73225,-107,201,232,1
123727612,0,-0.16942298,0.17629367,0.28659478,1.9,0.001219512,25,73225,-107,203,234,1
123751589,0,-0.17209512,0.17508854,0.28545398,1.9,0.001219512,25,73225,-109,202,233,1
123775565,0,-0.17343119,0.17147313,0.28431314,1.9,0.001219512,25.75,73225,-110,199,232,1
123799448,0,-0.17343119,0.17388341,0.28431314,1.9,0.001219512,25.75,73225,-110,201,232,1
123823540,0,-0.17343119,0.17388341,0.28317234,1.9,0.001219512,25.75,73225,-110,201,231,1
123847532,0,-0.16808692,0.170268,0.28431314,1.9,0.001219512,25.75,73225,-106,198,232,1
123871591,0,-0.17209512,0.17267826,0.28431314,1.9,0.001219512,25.75,73225,-109,200,232,1
123895609,0,-0.17343119,0.17147313,0.28317234,1.9,0.001219512,25.75,73225,-110,199,231,1
123922356,0,-0.17209512,0.17870396,0.28659478,1.9,0.001219512,25.75,73225,-109,205,234,1
123946382,0,-0.17476726,0.16906285,0.28887638,1.9,0.001219512,25.75,73225,-111,197,236,1
123970234,0,-0.17209512,0.17508854,0.28431314,1.9,0.001219512,25.75,73225,-109,202,232,1
123991441,0,-0.17209512,0.17508854,0.28659478,1.9,0.001219512,25.75,73225,-109,202,234,1
124015448,0,-0.17476726,0.170268,0.28545398,1.9,0.001219512,25.75,73225,-111,198,233,1
124039579,0,-0.16942298,0.17147313,0.28431314,1.9,0.001219512,25.75,73225,-107,199,232,1
124063613,0,-0.17075905,0.17508854,0.28317234,1.9,0.001219512,25.75,73225,-108,202,231,1
124086435,0,-0.17476726,0.17508854,0.28203154,1.9,0.001219512,25.75,73225,-111,202,230,1
124110448,0,-0.17476726,0.17508854,0.28545398,1.9,0.001219512,25.75,73225,-111,202,233,1
124134436,0,-0.17343119,0.170268,0.28431314,1.9,0.001219512,25.75,73225,-110,198,232,1
124158447,0,-0.17075905,0.17508854,0.28545398,1.9,0.001219512,25.75,73225,-108,202,233,1
124182456,0,-0.17610332,0.17147313,0.28773558,1.9,0.001219512,25.75,73225,-112,199,235,1
124206134,0,-0.17209512,0.17147313,0.28659478,1.9,0.001219512,25.75,73225,-109,199,234,1
124227542,0,-0.17476726,0.17267826,0.28659478,1.9,0.001219512,25.75,73225,-111,200,234,1
124250728,0,-0.17075905,0.16906285,0.28317234,1.9,0.001219512,25.75,73225,-108,197,231,1
124272514,0,-0.16675083,0.17388341,0.28431314,1.9,0.001219512,25.75,73225,-105,201,232,1
124296437,0,-0.17075905,0.17388341,0.28089073,1.9,0.001219512,25.25,73225,-108,201,229,1
124322525,0,-0.17209512,0.1774988,0.28089073,1.9,0.001219512,25.25,73225,-109,204,229,1
124344436,0,-0.17343119,0.17267826,0.28317234,1.9,0.001219512,25.25,73225,-110,200,231,1
124368501,0,-0.17209512,0.17147313,0.28431314,1.9,0.001219512,25.25,73225,-109,199,232,1
124392462,0,-0.17209512,0.17388341,0.28659478,1.9,0.001219512,25.25,73225,-109,201,234,1
124416437,0,-0.17343119,0.17267826,0.28317234,1.9,0.001219512,25.25,73225,-110,200,231,1
124440447,0,-0.17476726,0.17267826,0.28545398,1.9,0.001219512,25.25,73225,-111,200,233,1
124464512,0,-0.17343119,0.17267826,0.28317234,1.9,0.001219512,25.25,73225,-110,200,231,1
124488436,0,-0.17075905,0.170268,0.28317234,1.9,0.001219512,25.25,73225,-108,198,231,1
124512447,0,-0.17209512,0.17388341,0.28317234,1.9,0.001219512,25.25,73225,-109,201,231,1
124536439,0,-0.17075905,0.16906285,0.28317234,1.9,0.001219512,25.25,73225,-108,197,231,1
124562866,0,-0.17343119,0.170268,0.28545398,1.9,0.001219512,26.25,73225,-110,198,233,1
124586756,0,-0.17343119,0.17388341,0.28317234,1.9,0.001219512,26.25,73225,-110,201,231,1
124611532,0,-0.17209512,0.16906285,0.28659478,1.9,0.001219512,26.25,73225,-109,197,234,1
124634822,0,-0.17610332,0.17508854,0.28431314,1.9,0.001219512,26.25,73225,-112,202,232,1
124656443,0,-0.16808692,0.17267826,0.28317234,1.9,0.001219512,26.25,73225,-106,200,231,1
124680536,0,-0.16675083,0.17629367,0.28431314,1.9,0.001219512,26.25,73225,-105,203,232,1
124704439,0,-0.17343119,0.17388341,0.28545398,1.9,0.001219512,26.25,73225,-110,201,233,1
124727828,0,-0.17610332,0.17388341,0.28659478,1.9,0.001219512,26.25,73225,-112,201,234,1
124751715,0,-0.17476726,0.170268,0.28659478,1.9,0.001219512,26.25,73225,-111,198,234,1
124773435,0,-0.17610332,0.17388341,0.28317234,1.9,0.001219512,26.25,73225,-112,201,231,1
124796501,0,-0.16808692,0.17267826,0.28431314,1.9,0.001219512,26.25,73225,-106,200,232,1
124817498,0,-0.17075905,0.17388341,0.28545398,1.9,0.001219512,25.75,73225,-108,201,233,1
124841484,0,-0.17075905,0.17388341,0.28431314,1.9,0.001219512,25.75,73225,-108,201,232,1
124864449,0,-0.17075905,0.17629367,0.28431314,1.9,0.001219512,25.75,73225,-108,203,232,1
124885436,0,-0.17209512,0.17388341,0.28545398,1.9,0.001219512,25.75,73225,-109,201,233,1
124909479,0,-0.17209512,0.17147313,0.28431314,1.9,0.001219512,25.75,73225,-109,199,232,1
124932438,0,-0.17075905,0.17388341,0.28317234,1.9,0.001219512,25.75,73225,-108,201,231,1
124953436,0,-0.17610332,0.17267826,0.28659478,1.9,0.001219512,25.75,73225,-112,200,234,1
124975641,0,-0.16942298,0.17388341,0.28431314,1.9,0.001219512,25.75,73225,-107,201,232,1
124999247,0,-0.17209512,0.17147313,0.28431314,1.9,0.001219512,25.75,73225,-109,199,232,1
125021503,0,-0.17209512,0.17267826,0.28431314,1.9,0.001219512,25.75,73225,-109,200,232,1
125047636,0,-0.17209512,0.170268,0.28089073,1.9,0.001219512,25.75,73225,-109,198,229,1
125069451,0,-0.16942298,0.17267826,0.28203154,1.9,0.001219512,25.75,73225,-107,200,230,1
125093436,0,-0.17476726,0.17267826,0.28203154,1.9,0.001219512,25.75,73225,-111,200,230,1
125117535,0,-0.17343119,0.17508854,0.28545398,1.9,0.001219512,25.75,73225,-110,202,233,1
125141526,0,-0.17209512,0.16906285,0.28431314,1.9,0.001219512,25.75,73225,-109,197,232,1
125165445,0,-0.17075905,0.17508854,0.28545398,1.9,0.001219512,25.75,73225,-108,202,233,1
125189447,0,-0.17075905,0.17267826,0.28431314,1.9,0.001219512,25.75,73225,-108,200,232,1
125211520,0,-0.17476726,0.17267826,0.28089073,1.9,0.001219512,25.75,73225,-111,200,229,1
125235106,0,-0.17476726,0.17388341,0.28431314,1.9,0.001219512,25.75,73225,-111,201,232,1
125256503,0,-0.17476726,0.17388341,0.28545398,1.9,0.001219512,25.75,73225,-111,201,233,1
125277503,0,-0.16942298,0.17267826,0.28545398,1.9,0.001219512,25.75,73225,-107,200,233,1
125299852,0,-0.17075905,0.17267826,0.28317234,1.9,0.001219512,25.75,73225,-108,200,231,1
125321504,0,-0.16942298,0.17508854,0.28317234,1.9,0.001219512,25.5,73225,-107,202,231,1
125345436,0,-0.17476726,0.17388341,0.28431314,1.9,0.001219512,25.5,73225,-111,201,232,1
125368519,0,-0.17343119,0.17147313,0.28089073,1.9,0.001219512,25.5,73225,-110,199,229,1
125392447,0,-0.16942298,0.17267826,0.28431314,1.9,0.001219512,25.5,73225,-107,200,232,1
125416808,0,-0.17209512,0.17388341,0.28659478,1.9,0.001219512,25.5,73225,-109,201,234,1
125440019,0,-0.16942298,0.17388341,0.28773558,1.9,0.001219512,25.5,73225,-107,201,235,1
125461450,0,-0.17075905,0.17508854,0.28659478,1.9,0.001219512,25.5,73225,-108,202,234,1
125483715,0,-0.16808692,0.17147313,0.28431314,1.9,0.001219512,25.5,73225,-106,199,232,1
125505450,0,-0.17209512,0.17388341,0.28545398,1.9,0.001219512,25.5,73225,-109,201,233,1
125528436,0,-0.17476726,0.17267826,0.28431314,1.9,0.001219512,25.5,73225,-111,200,232,1
125552107,0,-0.17075905,0.17508854,0.28545398,1.9,0.001219512,25.5,73225,-108,202,233,1
125573436,0,-0.17209512,0.170268,0.28545398,1.9,0.001219512,25.75,73225,-109,198,233,1
125597547,0,-0.17075905,0.17388341,0.28431314,1.9,0.001219512,25.75,73225,-108,201,232,1
125619817,0,-0.17075905,0.1774988,0.28089073,1.9,0.001219512,25.75,73225,-108,204,229,1
125641498,0,-0.17075905,0.17388341,0.28431314,1.9,0.001219512,25.75,73225,-108,201,232,1
125663980,0,-0.17209512,0.17267826,0.28431314,1.9,0.001219512,25.75,73225,-109,200,232,1
125685502,0,-0.17610332,0.17388341,0.28431314,1.9,0.001219512,25.75,73225,-112,201,232,1
125707835,0,-0.17476726,0.17508854,0.28545398,1.9,0.001219512,25.75,73225,-111,202,233,1
125729558,0,-0.16942298,0.17267826,0.28431314,1.9,0.001219512,25.75,73225,-107,200,232,1
125752439,0,-0.17209512,0.17388341,0.28773558,1.9,0.001219512,25.75,73225,-109,201,235,1
125776439,0,-0.17075905,0.17388341,0.28317234,1.9,0.001219512,25.75,73225,-108,201,231,1
125800885,0,-0.17075905,0.170268,0.28431314,1.9,0.001219512,25.75,73225,-108,198,232,1
125824020,0,-0.17476726,0.16544746,0.28431314,1.9,0.001219512,25.5,73225,-111,194,232,1
125846944,0,-0.17743939,0.17388341,0.28545398,1.9,0.001219512,25.5,73225,-113,201,233,1
125870449,0,-0.17476726,0.17388341,0.28773558,1.9,0.001219512,25.5,73225,-111,201,235,1
125892670,0,-0.17209512,0.17508854,0.28431314,1.9,0.001219512,25.5,73225,-109,202,232,1
125916669,0,-0.17343119,0.17267826,0.28317234,1.9,0.001219512,25.5,73225,-110,200,231,1
125940710,0,-0.17610332,0.16906285,0.28431314,1.9,0.001219512,25.5,73225,-112,197,232,1
125964565,0,-0.17476726,0.17147313,0.28203154,1.9,0.001219512,25.5,73225,-111,199,230,1
125988757,0,-0.17075905,0.17508854,0.28431314,1.9,0.001219512,25.5,73225,-108,202,232,1
126012631,0,-0.17476726,0.17147313,0.28317234,1.9,0.001219512,25.5,73225,-111,199,231,1
126036620,0,-0.17209512,0.17147313,0.28203154,1.9,0.001219512,25.5,73225,-109,199,230,1
126060645,0,-0.16942298,0.17267826,0.28545398,1.9,0.001219512,25.5,73225,-107,200,233,1
126084616,0,-0.17075905,0.170268,0.28317234,1.9,0.001219512,25.5,73225,-108,198,231,1
126108800,0,-0.16942298,0.17388341,0.28545398,1.9,0.001219512,25.5,73225,-107,201,233,1
126132610,0,-0.17343119,0.17147313,0.28317234,1.9,0.001219512,25.5,73225,-110,199,231,1
126156606,0,-0.17610332,0.17388341,0.28431314,1.9,0.001219512,25.5,73225,-112,201,232,1
126180719,0,-0.17209512,0.17267826,0.28659478,1.9,0.001219512,25.5,73225,-109,200,234,1
126204651,0,-0.17075905,0.17147313,0.28317234,1.9,0.001219512,25.5,73225,-108,199,231,1
126228687,0,-0.17209512,0.17147313,0.28317234,1.9,0.001219512,25.5,73225,-109,199,231,1
126252661,0,-0.17343119,0.17388341,0.28773558,1.9,0.001219512,25.5,73225,-110,201,235,1
126276653,0,-0.16942298,0.17267826,0.28317234,1.9,0.001219512,25.5,73225,-107,200,231,1
126300595,0,-0.16675083,0.17267826,0.28317234,1.9,0.001219512,25.5,73225,-105,200,231,1
126324606,0,-0.17209512,0.17388341,0.28659478,1.9,0.001219512,25.5,73225,-109,201,234,1
126348624,0,-0.17209512,0.17388341,0.28773558,1.9,0.001219512,25,73225,-109,201,235,1
126372580,0,-0.17343119,0.170268,0.28545398,1.9,0.001219512,25,73225,-110,198,233,1
126395561,0,-0.17209512,0.17147313,0.28545398,1.9,0.001219512,25,73225,-109,199,233,1
126419573,0,-0.17343119,0.17147313,0.28431314,1.9,0.001219512,25,73225,-110,199,232,1
126441629,0,-0.17075905,0.17388341,0.28545398,1.9,0.001219512,25,73225,-108,201,233,1
126463598,0,-0.17209512,0.17870396,0.28089073,1.9,0.001219512,25,73225,-109,205,229,1
126487529,0,-0.16675083,0.17388341,0.28545398,1.9,0.001219512,25,73225,-105,201,233,1
126511611,0,-0.18011153,0.170268,0.28431314,1.9,0.001219512,25,73225,-115,198,232,1
126535448,0,-0.17209512,0.170268,0.28545398,1.9,0.001219512,25,73225,-109,198,233,1
126559437,0,-0.17209512,0.17388341,0.28317234,1.9,0.001219512,25,73225,-109,201,231,1
126583437,0,-0.17075905,0.17147313,0.28545398,1.9,0.001219512,25,73225,-108,199,233,1
126605439,0,-0.17075905,0.17267826,0.28545398,1.9,0.001219512,25.5,73225,-108,200,233,1
126627636,0,-0.16942298,0.17508854,0.28203154,1.9,0.001219512,25.5,73225,-107,202,230,1
126651570,0,-0.17075905,0.17388341,0.28431314,1.9,0.001219512,25.5,73225,-108,201,232,1
126674480,0,-0.16942298,0.17267826,0.28431314,1.9,0.001219512,25.5,73225,-107,200,232,1
126697698,0,-0.17075905,0.17508854,0.28317234,1.9,0.001219512,25.5,73225,-108,202,231,1
126722190,0,-0.17610332,0.170268,0.28317234,1.9,0.001219512,25.5,73225,-112,198,231,1
126745972,0,-0.17209512,0.17147313,0.28773558,1.9,0.001219512,25.5,73225,-109,199,235,1
126767437,0,-0.17209512,0.170268,0.28317234,1.9,0.001219512,25.5,73225,-109,198,231,1
126791605,0,-0.17075905,0.170268,0.28545398,1.9,0.001219512,25.5,73225,-108,198,233,1
126815437,0,-0.17075905,0.17267826,0.28431314,1.9,0.001219512,25.5,73225,-108,200,232,1
126839440,0,-0.17209512,0.170268,0.28203154,1.9,0.001219512,25.5,73225,-109,198,230,1
126863437,0,-0.17209512,0.16906285,0.28431314,1.9,0.001219512,25.5,73225,-109,197,232,1
126887692,0,-0.16942298,0.17267826,0.28203154,1.9,0.001219512,25.5,73225,-107,200,230,1
126911562,0,-0.17075905,0.17147313,0.28431314,1.9,0.001219512,25.5,73225,-108,199,232,1
126935437,0,-0.17209512,0.17388341,0.28773558,1.9,0.001219512,25.5,73225,-109,201,235,1
126959448,0,-0.17075905,0.17147313,0.28317234,1.9,0.001219512,25.5,73225,-108,199,231,1
126983582,0,-0.17209512,0.17267826,0.28545398,1.9,0.001219512,25.5,73225,-109,200,233,1
127007444,0,-0.17209512,0.17267826,0.2900172,1.9,0.001219512,25.5,73225,-109,200,237,1
127031448,0,-0.17476726,0.17629367,0.28431314,1.9,0.001219512,25.5,73225,-111,203,232,1
127055582,0,-0.17209512,0.16785772,0.28431314,1.9,0.001219512,25.5,73225,-109,196,232,1
127078221,0,-0.16942298,0.17267826,0.28089073,1.9,0.001219512,25.5,73225,-107,200,229,1
127098470,0,-0.16942298,0.17147313,0.28203154,1.9,0.001219512,25.5,73225,-107,199,230,1
127119564,0,-0.16942298,0.17147313,0.28203154,1.9,0.001219512,25.5,73225,-107,199,230,1
127142436,0,-0.17209512,0.16906285,0.28089073,1.9,0.001219512,25.5,73225,-109,197,229,1
