timestamp,error_count,x,y,z,range_ga,scaling,temperature,device_id,x_raw,y_raw,z_raw,is_external
109422692,0,-0.20165855,0.133408,0.27087393,48,0.0015,49.434902,263178,-53,-117,-199,0
109431494,0,-0.1961329,0.14587381,0.28315228,48,0.0015,49.41828,263178,-60,-120,-206,0
109450692,0,-0.20718417,0.14231214,0.29718465,48,0.0015,49.39889,263178,-58,-114,-214,0
109460319,0,-0.1961329,0.14587381,0.29016846,48,0.0015,49.412743,263178,-60,-120,-210,0
110261119,0,-0.21639356,0.15477796,0.27087393,48,0.0015,49.396122,263178,-65,-109,-199,0
110269948,0,-0.21086793,0.13875048,0.29016846,48,0.0015,49.407204,263178,-56,-112,-210,0
110281119,0,-0.19797479,0.14409298,0.28841442,48,0.0015,49.426594,263178,-59,-119,-209,0
110289955,0,-0.20165855,0.14765465,0.27438205,48,0.0015,49.426594,263178,-61,-117,-201,0
110301119,0,-0.1961329,0.13875048,0.2796442,48,0.0015,49.429363,263178,-56,-120,-204,0
110309951,0,-0.19429103,0.14053132,0.27789015,48,0.0015,49.42382,263178,-57,-121,-203,0
110321119,0,-0.21086793,0.14231214,0.26911992,48,0.0015,49.44044,263178,-58,-112,-198,0
110329956,0,-0.21086793,0.14231214,0.26911992,48,0.0015,49.409973,263178,-58,-112,-198,0
110338742,0,-0.19797479,0.14053132,0.26736587,48,0.0015,49.432133,263178,-57,-119,-197,0
110349119,0,-0.18876539,0.16012046,0.2796442,48,0.0015,49.42105,263178,-68,-124,-204,0
110358757,0,-0.2053423,0.1512163,0.28139824,48,0.0015,49.42382,263178,-63,-115,-205,0
110369110,0,-0.20902605,0.133408,0.27789015,48,0.0015,49.41828,263178,-53,-113,-203,0
110378744,0,-0.21270981,0.1512163,0.26034966,48,0.0015,49.462605,263178,-63,-111,-193,0
110389116,0,-0.21823545,0.13875048,0.2761361,48,0.0015,49.445984,263178,-56,-108,-202,0
110517079,0,-0.1961329,0.14587381,0.2796442,48,0.0015,49.445984,263178,-60,-120,-204,0
110537105,0,-0.2035004,0.15299714,0.2761361,48,0.0015,49.443214,263178,-64,-116,-202,0
110546730,0,-0.2035004,0.15299714,0.2761361,48,0.0015,49.43767,263178,-64,-116,-202,0
110556298,0,-0.1961329,0.14231214,0.2761361,48,0.0015,49.454292,263178,-58,-120,-202,0
110565913,0,-0.2053423,0.14053132,0.28841442,48,0.0015,49.42105,263178,-57,-115,-209,0
110576291,0,-0.19429103,0.14409298,0.27438205,48,0.0015,49.451523,263178,-59,-121,-201,0
110585921,0,-0.19060728,0.14765465,0.27438205,48,0.0015,49.462605,263178,-61,-123,-201,0
110596293,0,-0.21086793,0.14587381,0.26561183,48,0.0015,49.44044,263178,-60,-112,-196,0
110605902,0,-0.20902605,0.13696966,0.26736587,48,0.0015,49.396122,263178,-55,-113,-197,0
110616291,0,-0.20902605,0.14765465,0.27789015,48,0.0015,49.443214,263178,-61,-113,-203,0
110626734,0,-0.20902605,0.14765465,0.27789015,48,0.0015,49.43767,263178,-61,-113,-203,0
110636291,0,-0.20902605,0.14053132,0.27438205,48,0.0015,49.43767,263178,-57,-113,-201,0
110645092,0,-0.2053423,0.1512163,0.27789015,48,0.0015,49.429363,263178,-63,-115,-203,0
110656297,0,-0.19244914,0.13875048,0.28315228,48,0.0015,49.473682,263178,-56,-122,-206,0
110665091,0,-0.21086793,0.14231214,0.2761361,48,0.0015,49.443214,263178,-58,-112,-202,0
110676304,0,-0.19981666,0.14943546,0.28315228,48,0.0015,49.445984,263178,-62,-118,-206,0
110685091,0,-0.19429103,0.12984632,0.28490633,48,0.0015,49.44044,263178,-51,-121,-207,0
110696292,0,-0.20165855,0.1512163,0.27087393,48,0.0015,49.432133,263178,-63,-117,-199,0
110705138,0,-0.20165855,0.1512163,0.27087393,48,0.0015,49.412743,263178,-63,-117,-199,0
110713886,0,-0.19797479,0.1512163,0.27087393,48,0.0015,49.445984,263178,-63,-119,-199,0
110724291,0,-0.19797479,0.14765465,0.26034966,48,0.0015,49.426594,263178,-61,-119,-193,0
110734713,0,-0.21639356,0.14409298,0.26385778,48,0.0015,49.42382,263178,-59,-109,-195,0
110744291,0,-0.19244914,0.14231214,0.2796442,48,0.0015,49.465374,263178,-58,-122,-204,0
110753907,0,-0.20718417,0.14587381,0.28315228,48,0.0015,49.434902,263178,-60,-114,-206,0
110764291,0,-0.2035004,0.14943546,0.2796442,48,0.0015,49.470913,263178,-62,-116,-204,0
110773895,0,-0.2035004,0.14943546,0.2796442,48,0.0015,49.445984,263178,-62,-116,-204,0
110774741,0,-0.2035004,0.14943546,0.2796442,48,0.0015,49.451523,263178,-62,-116,-204,0
110793091,0,-0.2053423,0.13696966,0.28139824,48,0.0015,49.468143,263178,-55,-115,-205,0
110804305,0,-0.2035004,0.14231214,0.27262798,48,0.0015,49.44044,263178,-58,-116,-200,0
110813091,0,-0.20718417,0.13518882,0.26561183,48,0.0015,49.44044,263178,-54,-114,-196,0
110824324,0,-0.19981666,0.15299714,0.28315228,48,0.0015,49.448753,263178,-64,-118,-206,0
110833092,0,-0.2053423,0.14765465,0.28490633,48,0.0015,49.476456,263178,-61,-115,-207,0
110844306,0,-0.20165855,0.1512163,0.27087393,48,0.0015,49.44044,263178,-63,-117,-199,0
110853092,0,-0.20165855,0.1512163,0.27087393,48,0.0015,49.43767,263178,-63,-117,-199,0
110862749,0,-0.20165855,0.1512163,0.28139824,48,0.0015,49.451523,263178,-63,-117,-205,0
110872307,0,-0.21270981,0.14053132,0.27087393,48,0.0015,49.454292,263178,-57,-111,-199,0
110883492,0,-0.2053423,0.16190128,0.27789015,48,0.0015,49.470913,263178,-69,-115,-203,0
110892294,0,-0.2035004,0.13518882,0.2761361,48,0.0015,49.429363,263178,-54,-116,-202,0
111109103,0,-0.19797479,0.13696966,0.28490633,48,0.0015,49.451523,263178,-55,-119,-207,0
111119519,0,-0.21823545,0.13162716,0.2761361,48,0.0015,49.473682,263178,-52,-108,-202,0
111129098,0,-0.1961329,0.14587381,0.29367658,48,0.0015,49.454292,263178,-60,-120,-212,0
111139519,0,-0.2035004,0.14587381,0.26911992,48,0.0015,49.468143,263178,-60,-116,-198,0
111149891,0,-0.2035004,0.14587381,0.26911992,48,0.0015,49.476456,263178,-60,-116,-198,0
111159513,0,-0.2035004,0.1565588,0.2761361,48,0.0015,49.468143,263178,-66,-116,-202,0
111168298,0,-0.19797479,0.1512163,0.27087393,48,0.0015,49.448753,263178,-63,-119,-199,0
111179513,0,-0.20165855,0.14409298,0.26385778,48,0.0015,49.45706,263178,-59,-117,-195,0
111188292,0,-0.19797479,0.13696966,0.27789015,48,0.0015,49.45706,263178,-55,-119,-203,0
111199552,0,-0.21823545,0.15299714,0.2761361,48,0.0015,49.445984,263178,-64,-108,-202,0
111208299,0,-0.21086793,0.14231214,0.26911992,48,0.0015,49.459835,263178,-58,-112,-198,0
111228292,0,-0.21086793,0.14231214,0.26911992,48,0.0015,49.45706,263178,-58,-112,-198,0
111237092,0,-0.19429103,0.1512163,0.26911992,48,0.0015,49.484764,263178,-63,-121,-198,0
111238703,0,-0.19429103,0.1512163,0.27789015,48,0.0015,49.481995,263178,-63,-121,-203,0
111247513,0,-0.2035004,0.13162716,0.26911992,48,0.0015,49.479225,263178,-52,-116,-198,0
111257095,0,-0.21270981,0.14053132,0.26911992,48,0.0015,49.493073,263178,-57,-111,-198,0
111258719,0,-0.21270981,0.14053132,0.28841442,48,0.0015,49.476456,263178,-57,-111,-209,0
111267513,0,-0.20165855,0.13696966,0.27087393,48,0.0015,49.45706,263178,-55,-117,-199,0
111277105,0,-0.2145517,0.13518882,0.27087393,48,0.0015,49.459835,263178,-54,-110,-199,0
111278703,0,-0.2145517,0.13518882,0.2761361,48,0.0015,49.459835,263178,-54,-110,-202,0
111287513,0,-0.2145517,0.14231214,0.2796442,48,0.0015,49.495846,263178,-58,-110,-204,0
111297094,0,-0.2145517,0.14231214,0.2796442,48,0.0015,49.468143,263178,-58,-110,-204,0
111306719,0,-0.20902605,0.14053132,0.27789015,48,0.0015,49.473682,263178,-57,-113,-203,0
111316293,0,-0.18508163,0.13875048,0.2761361,48,0.0015,49.490303,263178,-56,-126,-202,0
111326714,0,-0.2035004,0.14587381,0.27262798,48,0.0015,49.468143,263178,-60,-116,-200,0
111336300,0,-0.20902605,0.133408,0.27087393,48,0.0015,49.501385,263178,-53,-113,-199,0
111346722,0,-0.18692352,0.1512163,0.27438205,48,0.0015,49.498615,263178,-63,-125,-201,0
111356293,0,-0.21086793,0.13518882,0.2761361,48,0.0015,49.476456,263178,-54,-112,-202,0
111366705,0,-0.21823545,0.14231214,0.28315228,48,0.0015,49.484764,263178,-58,-108,-206,0
111376299,0,-0.21823545,0.14231214,0.28315228,48,0.0015,49.451523,263178,-58,-108,-206,0
111386720,0,-0.21823545,0.13875048,0.29016846,48,0.0015,49.484764,263178,-56,-108,-210,0
111395520,0,-0.20902605,0.14053132,0.27087393,48,0.0015,49.445984,263178,-57,-113,-199,0
111406701,0,-0.20165855,0.133408,0.26736587,48,0.0015,49.481995,263178,-53,-117,-197,0
111415522,0,-0.19797479,0.15477796,0.27789015,48,0.0015,49.45706,263178,-65,-119,-203,0
111426694,0,-0.20902605,0.14409298,0.27087393,48,0.0015,49.468143,263178,-59,-113,-199,0
111435519,0,-0.22007732,0.15477796,0.28841442,48,0.0015,49.470913,263178,-65,-107,-209,0
111583516,0,-0.21639356,0.13696966,0.28139824,48,0.0015,49.468143,263178,-55,-109,-205,0
111602719,0,-0.21639356,0.14765465,0.27789015,48,0.0015,49.512466,263178,-61,-109,-203,0
111612361,0,-0.22560297,0.13875048,0.27262798,48,0.0015,49.495846,263178,-56,-104,-200,0
111622739,0,-0.19981666,0.13875048,0.2621037,48,0.0015,49.481995,263178,-56,-118,-194,0
111632350,0,-0.2053423,0.1512163,0.27087393,48,0.0015,49.468143,263178,-63,-115,-199,0
111642730,0,-0.21270981,0.14053132,0.27789015,48,0.0015,49.465374,263178,-57,-111,-203,0
111652313,0,-0.1961329,0.14587381,0.27789015,48,0.0015,49.512466,263178,-60,-120,-203,0
111653892,0,-0.1961329,0.14587381,0.27262798,48,0.0015,49.520775,263178,-60,-120,-200,0
111662713,0,-0.19797479,0.14765465,0.27438205,48,0.0015,49.498615,263178,-61,-119,-201,0
111672321,0,-0.19797479,0.14765465,0.27438205,48,0.0015,49.523544,263178,-61,-119,-201,0
111681891,0,-0.2035004,0.1565588,0.28666037,48,0.0015,49.506924,263178,-66,-116,-208,0
111691498,0,-0.20902605,0.14409298,0.27789015,48,0.0015,49.493073,263178,-59,-113,-203,0
111701892,0,-0.2035004,0.14587381,0.27262798,48,0.0015,49.490303,263178,-60,-116,-200,0
111711498,0,-0.20902605,0.14765465,0.2919225,48,0.0015,49.498615,263178,-61,-113,-211,0
111721898,0,-0.19797479,0.1512163,0.27789015,48,0.0015,49.481995,263178,-63,-119,-203,0
111731520,0,-0.19797479,0.1512163,0.27087393,48,0.0015,49.501385,263178,-63,-119,-199,0
111741898,0,-0.19797479,0.1512163,0.27087393,48,0.0015,49.493073,263178,-63,-119,-199,0
111751520,0,-0.19797479,0.1512163,0.27087393,48,0.0015,49.454292,263178,-63,-119,-199,0
111869893,0,-0.21086793,0.13518882,0.27262798,48,0.0015,49.498615,263178,-54,-112,-200,0
111879519,0,-0.2145517,0.14231214,0.27262798,48,0.0015,49.518005,263178,-58,-110,-200,0
111889891,0,-0.2145517,0.12806548,0.2761361,48,0.0015,49.490303,263178,-50,-110,-202,0
112325119,0,-0.20902605,0.14409298,0.27438205,48,0.0015,49.501385,263178,-59,-113,-201,0
112333892,0,-0.19981666,0.13162716,0.27262798,48,0.0015,49.504154,263178,-52,-118,-200,0
112353113,0,-0.2035004,0.13518882,0.28666037,48,0.0015,49.540165,263178,-54,-116,-208,0
112362720,0,-0.21086793,0.13162716,0.2621037,48,0.0015,49.548477,263178,-52,-112,-194,0
112373113,0,-0.21270981,0.14053132,0.27087393,48,0.0015,49.495846,263178,-57,-111,-199,0
112382704,0,-0.2053423,0.133408,0.2919225,48,0.0015,49.498615,263178,-53,-115,-211,0
112393113,0,-0.21270981,0.14765465,0.26736587,48,0.0015,49.506924,263178,-61,-111,-197,0
112402708,0,-0.21270981,0.13696966,0.27438205,48,0.0015,49.501385,263178,-55,-111,-201,0
112413113,0,-0.19981666,0.14231214,0.2796442,48,0.0015,49.479225,263178,-58,-118,-204,0
112422743,0,-0.19981666,0.14231214,0.2796442,48,0.0015,49.506924,263178,-58,-118,-204,0
112423529,0,-0.19981666,0.14231214,0.2796442,48,0.0015,49.515236,263178,-58,-118,-204,0
112433113,0,-0.2053423,0.16190128,0.27087393,48,0.0015,49.509693,263178,-69,-115,-199,0
112441892,0,-0.20718417,0.14231214,0.27262798,48,0.0015,49.515236,263178,-58,-114,-200,0
112453113,0,-0.20902605,0.14409298,0.27087393,48,0.0015,49.512466,263178,-59,-113,-199,0
112461891,0,-0.22191921,0.13518882,0.28315228,48,0.0015,49.518005,263178,-54,-106,-206,0
112473113,0,-0.19981666,0.15299714,0.2796442,48,0.0015,49.520775,263178,-64,-118,-204,0
112481892,0,-0.22007732,0.15477796,0.28139824,48,0.0015,49.515236,263178,-65,-107,-205,0
112501113,0,-0.18692352,0.1512163,0.26736587,48,0.0015,49.529087,263178,-63,-125,-197,0
112510725,0,-0.19429103,0.14765465,0.27789015,48,0.0015,49.523544,263178,-61,-121,-203,0
112521132,0,-0.2035004,0.14587381,0.2796442,48,0.0015,49.523544,263178,-60,-116,-204,0
112757893,0,-0.21270981,0.13696966,0.27789015,48,0.0015,49.534626,263178,-55,-111,-203,0
112768319,0,-0.20165855,0.14053132,0.26385778,48,0.0015,49.537395,263178,-57,-117,-195,0
112777892,0,-0.22376108,0.1512163,0.27438205,48,0.0015,49.529087,263178,-63,-105,-201,0
112788309,0,-0.2053423,0.14053132,0.27087393,48,0.0015,49.523544,263178,-57,-115,-199,0
112797892,0,-0.2053423,0.14053132,0.27087393,48,0.0015,49.518005,263178,-57,-115,-199,0
112798711,0,-0.2053423,0.14053132,0.27087393,48,0.0015,49.518005,263178,-57,-115,-199,0
112808341,0,-0.2035004,0.1565588,0.28666037,48,0.0015,49.534626,263178,-66,-116,-208,0
112817091,0,-0.22007732,0.14409298,0.26385778,48,0.0015,49.529087,263178,-59,-107,-195,0
112828274,0,-0.18692352,0.13696966,0.26736587,48,0.0015,49.526314,263178,-55,-125,-197,0
112837091,0,-0.2145517,0.14943546,0.28315228,48,0.0015,49.515236,263178,-62,-110,-206,0
112848275,0,-0.19429103,0.15477796,0.28139824,48,0.0015,49.512466,263178,-65,-121,-205,0
112857091,0,-0.1961329,0.14587381,0.26561183,48,0.0015,49.537395,263178,-60,-120,-196,0
112876319,0,-0.21086793,0.13875048,0.2796442,48,0.0015,49.520775,263178,-56,-112,-204,0
112885920,0,-0.2053423,0.1512163,0.28139824,48,0.0015,49.556786,263178,-63,-115,-205,0
112896295,0,-0.20902605,0.14409298,0.27087393,48,0.0015,49.520775,263178,-59,-113,-199,0
112905963,0,-0.21086793,0.14943546,0.28315228,48,0.0015,49.548477,263178,-62,-112,-206,0
112916304,0,-0.20165855,0.1512163,0.26034966,48,0.0015,49.531857,263178,-63,-117,-193,0
112925961,0,-0.20165855,0.14053132,0.27789015,48,0.0015,49.559555,263178,-57,-117,-203,0
112936330,0,-0.21823545,0.1565588,0.2796442,48,0.0015,49.548477,263178,-66,-108,-204,0
112945914,0,-0.21823545,0.1565588,0.2796442,48,0.0015,49.545708,263178,-66,-108,-204,0
112955491,0,-0.21270981,0.14765465,0.28490633,48,0.0015,49.537395,263178,-61,-111,-207,0
112965119,0,-0.21270981,0.14053132,0.27438205,48,0.0015,49.531857,263178,-57,-111,-201,0
112975491,0,-0.22191921,0.14587381,0.29016846,48,0.0015,49.537395,263178,-60,-106,-210,0
112985119,0,-0.19797479,0.14765465,0.27438205,48,0.0015,49.523544,263178,-61,-119,-201,0
112995506,0,-0.2053423,0.12984632,0.27789015,48,0.0015,49.534626,263178,-51,-115,-203,0
113005119,0,-0.19981666,0.15299714,0.28315228,48,0.0015,49.518005,263178,-64,-118,-206,0
113015515,0,-0.19981666,0.15299714,0.28315228,48,0.0015,49.537395,263178,-64,-118,-206,0
113024292,0,-0.20165855,0.15477796,0.26385778,48,0.0015,49.556786,263178,-65,-117,-195,0
113035511,0,-0.19981666,0.14943546,0.2761361,48,0.0015,49.556786,263178,-62,-118,-202,0
113044292,0,-0.22007732,0.1512163,0.28139824,48,0.0015,49.545708,263178,-63,-107,-205,0
113055502,0,-0.22376108,0.14765465,0.2954306,48,0.0015,49.542934,263178,-61,-105,-213,0
113064291,0,-0.19244914,0.15299714,0.2761361,48,0.0015,49.540165,263178,-64,-122,-202,0
113075531,0,-0.21639356,0.1512163,0.28490633,48,0.0015,49.554016,263178,-63,-109,-207,0
113084318,0,-0.20718417,0.14587381,0.2796442,48,0.0015,49.551247,263178,-60,-114,-204,0
113093950,0,-0.20718417,0.14587381,0.2796442,48,0.0015,49.529087,263178,-60,-114,-204,0
113103491,0,-0.21270981,0.14053132,0.27438205,48,0.0015,49.537395,263178,-57,-111,-201,0
113113119,0,-0.22560297,0.15299714,0.2761361,48,0.0015,49.542934,263178,-64,-104,-202,0
113123500,0,-0.2145517,0.14231214,0.26911992,48,0.0015,49.554016,263178,-58,-110,-198,0
113143515,0,-0.2035004,0.14587381,0.26911992,48,0.0015,49.551247,263178,-60,-116,-198,0
113153119,0,-0.20165855,0.14409298,0.28490633,48,0.0015,49.518005,263178,-59,-117,-207,0
113163529,0,-0.20165855,0.14409298,0.28490633,48,0.0015,49.523544,263178,-59,-117,-207,0
113172291,0,-0.21823545,0.15299714,0.2761361,48,0.0015,49.540165,263178,-64,-108,-202,0
113183500,0,-0.20718417,0.14943546,0.27262798,48,0.0015,49.529087,263178,-62,-114,-200,0
113192298,0,-0.21823545,0.14587381,0.28315228,48,0.0015,49.559555,263178,-60,-108,-206,0
113203509,0,-0.22744483,0.13696966,0.28841442,48,0.0015,49.606647,263178,-55,-103,-209,0
113212291,0,-0.2053423,0.14053132,0.28139824,48,0.0015,49.529087,263178,-57,-115,-205,0
113223534,0,-0.20718417,0.13875048,0.28666037,48,0.0015,49.523544,263178,-56,-114,-208,0
113232312,0,-0.2053423,0.12984632,0.27789015,48,0.0015,49.584488,263178,-51,-115,-203,0
113251491,0,-0.2035004,0.14943546,0.27262798,48,0.0015,49.554016,263178,-62,-116,-200,0
113261119,0,-0.1961329,0.14943546,0.28315228,48,0.0015,49.529087,263178,-62,-120,-206,0
113271496,0,-0.2035004,0.14587381,0.2796442,48,0.0015,49.534626,263178,-60,-116,-204,0
113281119,0,-0.20718417,0.13875048,0.28666037,48,0.0015,49.542934,263178,-56,-114,-208,0
113291505,0,-0.18692352,0.14053132,0.27438205,48,0.0015,49.545708,263178,-57,-125,-201,0
113301119,0,-0.18323976,0.14765465,0.26736587,48,0.0015,49.526314,263178,-61,-127,-197,0
113311538,0,-0.20902605,0.14765465,0.27789015,48,0.0015,49.556786,263178,-61,-113,-203,0
113321914,0,-0.20902605,0.14765465,0.27789015,48,0.0015,49.548477,263178,-61,-113,-203,0
113331505,0,-0.19797479,0.14765465,0.26034966,48,0.0015,49.542934,263178,-61,-119,-193,0
113340310,0,-0.20165855,0.12628467,0.27789015,48,0.0015,49.504154,263178,-49,-117,-203,0
113351512,0,-0.20902605,0.13696966,0.27438205,48,0.0015,49.58172,263178,-55,-113,-201,0
113360292,0,-0.19797479,0.14409298,0.27438205,48,0.0015,49.554016,263178,-59,-119,-201,0
113371531,0,-0.2035004,0.13518882,0.27262798,48,0.0015,49.542934,263178,-54,-116,-200,0
113380297,0,-0.21639356,0.14765465,0.27438205,48,0.0015,49.554016,263178,-61,-109,-201,0
113390691,0,-0.20718417,0.1565588,0.28315228,48,0.0015,49.554016,263178,-66,-114,-206,0
113400296,0,-0.20718417,0.1565588,0.28315228,48,0.0015,49.551247,263178,-66,-114,-206,0
113409954,0,-0.1961329,0.13875048,0.2761361,48,0.0015,49.551247,263178,-56,-120,-202,0
113419532,0,-0.21639356,0.1512163,0.2989387,48,0.0015,49.58172,263178,-63,-109,-215,0
113430692,0,-0.20165855,0.13696966,0.26736587,48,0.0015,49.565098,263178,-55,-117,-197,0
113439520,0,-0.21270981,0.14765465,0.28490633,48,0.0015,49.545708,263178,-61,-111,-207,0
113450692,0,-0.20902605,0.14053132,0.28139824,48,0.0015,49.587257,263178,-57,-113,-205,0
113459544,0,-0.2035004,0.14943546,0.2796442,48,0.0015,49.559555,263178,-62,-116,-204,0
113469120,0,-0.2035004,0.14943546,0.2796442,48,0.0015,49.559555,263178,-62,-116,-204,0
113478728,0,-0.20718417,0.12806548,0.26561183,48,0.0015,49.554016,263178,-50,-114,-196,0
113488298,0,-0.1961329,0.14587381,0.26911992,48,0.0015,49.578945,263178,-60,-120,-198,0
113498728,0,-0.2035004,0.14587381,0.2761361,48,0.0015,49.570637,263178,-60,-116,-202,0
113508297,0,-0.22007732,0.1512163,0.28139824,48,0.0015,49.551247,263178,-63,-107,-205,0
113518722,0,-0.2053423,0.14409298,0.28139824,48,0.0015,49.548477,263178,-59,-115,-205,0
113528293,0,-0.20902605,0.13696966,0.27438205,48,0.0015,49.542934,263178,-55,-113,-201,0
113538722,0,-0.20718417,0.14587381,0.25859562,48,0.0015,49.567867,263178,-60,-114,-192,0
113549092,0,-0.20718417,0.14587381,0.25859562,48,0.0015,49.556786,263178,-60,-114,-192,0
113558724,0,-0.21086793,0.14587381,0.2796442,48,0.0015,49.573406,263178,-60,-112,-204,0
113567528,0,-0.21086793,0.14943546,0.26911992,48,0.0015,49.576176,263178,-62,-112,-198,0
113577128,0,-0.21086793,0.14409298,0.26911992,48,0.0015,49.556786,263178,-59,-112,-198,0
113578724,0,-0.2053423,0.14409298,0.26034966,48,0.0015,49.556786,263178,-59,-115,-193,0
113587520,0,-0.2145517,0.13162716,0.2796442,48,0.0015,49.570637,263178,-52,-110,-204,0
113598722,0,-0.19244914,0.14231214,0.2796442,48,0.0015,49.556786,263178,-58,-122,-204,0
113607495,0,-0.2053423,0.14409298,0.28139824,48,0.0015,49.567867,263178,-59,-115,-205,0
113618722,0,-0.22376108,0.14409298,0.26736587,48,0.0015,49.537395,263178,-59,-105,-197,0
113627503,0,-0.22376108,0.14409298,0.26736587,48,0.0015,49.540165,263178,-59,-105,-197,0
113636293,0,-0.19244914,0.12806548,0.28666037,48,0.0015,49.565098,263178,-50,-122,-208,0
113646713,0,-0.2035004,0.13875048,0.2796442,48,0.0015,49.567867,263178,-56,-116,-204,0
113656292,0,-0.20718417,0.14587381,0.27262798,48,0.0015,49.56233,263178,-60,-114,-200,0
113666713,0,-0.18876539,0.12806548,0.2796442,48,0.0015,49.592796,263178,-50,-124,-204,0
113676291,0,-0.21270981,0.14765465,0.28490633,48,0.0015,49.556786,263178,-61,-111,-207,0
113686713,0,-0.19797479,0.14765465,0.27438205,48,0.0015,49.58172,263178,-61,-119,-201,0
113696292,0,-0.21086793,0.15299714,0.28666037,48,0.0015,49.590027,263178,-64,-112,-208,0
113706715,0,-0.21086793,0.15299714,0.28666037,48,0.0015,49.565098,263178,-64,-112,-208,0
113715497,0,-0.2035004,0.13875048,0.27262798,48,0.0015,49.570637,263178,-56,-116,-200,0
113726716,0,-0.21270981,0.14765465,0.27087393,48,0.0015,49.592796,263178,-61,-111,-199,0
113735517,0,-0.1961329,0.15299714,0.26561183,48,0.0015,49.567867,263178,-64,-120,-196,0
113746713,0,-0.21639356,0.14765465,0.27087393,48,0.0015,49.587257,263178,-61,-109,-199,0
113755500,0,-0.2053423,0.13696966,0.26385778,48,0.0015,49.570637,263178,-55,-115,-195,0
113765903,0,-0.20165855,0.1512163,0.27789015,48,0.0015,49.567867,263178,-63,-117,-203,0
113775507,0,-0.1961329,0.14231214,0.26561183,48,0.0015,49.556786,263178,-58,-120,-196,0
113785920,0,-0.1961329,0.14231214,0.26561183,48,0.0015,49.537395,263178,-58,-120,-196,0
113794719,0,-0.19981666,0.1565588,0.26911992,48,0.0015,49.587257,263178,-66,-118,-198,0
113804291,0,-0.21086793,0.14231214,0.26911992,48,0.0015,49.554016,263178,-58,-112,-198,0
113805919,0,-0.21086793,0.14231214,0.2796442,48,0.0015,49.573406,263178,-58,-112,-204,0
113814714,0,-0.20718417,0.14587381,0.2761361,48,0.0015,49.551247,263178,-60,-114,-202,0
113824291,0,-0.2145517,0.13875048,0.2761361,48,0.0015,49.570637,263178,-56,-110,-202,0
113825919,0,-0.2145517,0.13875048,0.26911992,48,0.0015,49.542934,263178,-56,-110,-198,0
113834713,0,-0.20902605,0.12984632,0.28139824,48,0.0015,49.540165,263178,-51,-113,-205,0
113844292,0,-0.20902605,0.15477796,0.28139824,48,0.0015,49.570637,263178,-65,-113,-205,0
113845919,0,-0.20902605,0.15477796,0.27789015,48,0.0015,49.570637,263178,-65,-113,-203,0
113854714,0,-0.20902605,0.15477796,0.27789015,48,0.0015,49.556786,263178,-65,-113,-203,0
113863554,0,-0.20902605,0.14053132,0.27087393,48,0.0015,49.570637,263178,-57,-113,-199,0
113873919,0,-0.20902605,0.12984632,0.27789015,48,0.0015,49.556786,263178,-51,-113,-203,0
113883497,0,-0.21823545,0.14587381,0.2761361,48,0.0015,49.58172,263178,-60,-108,-202,0
113893919,0,-0.19981666,0.14231214,0.2796442,48,0.0015,49.551247,263178,-58,-118,-204,0
113903520,0,-0.2035004,0.14231214,0.28315228,48,0.0015,49.570637,263178,-58,-116,-206,0
113913906,0,-0.20718417,0.15299714,0.2761361,48,0.0015,49.584488,263178,-64,-114,-202,0
113923513,0,-0.20718417,0.14231214,0.26561183,48,0.0015,49.58172,263178,-58,-114,-196,0
113933941,0,-0.20718417,0.14231214,0.26561183,48,0.0015,49.570637,263178,-58,-114,-196,0
113942691,0,-0.22376108,0.14409298,0.28139824,48,0.0015,49.573406,263178,-59,-105,-205,0
113952299,0,-0.22376108,0.1565588,0.28139824,48,0.0015,49.587257,263178,-66,-105,-205,0
113953881,0,-0.19981666,0.1565588,0.27262798,48,0.0015,49.584488,263178,-66,-118,-200,0
113962691,0,-0.19981666,0.13875048,0.28666037,48,0.0015,49.59834,263178,-56,-118,-208,0
113973921,0,-0.1961329,0.1565588,0.26911992,48,0.0015,49.587257,263178,-66,-120,-198,0
113982691,0,-0.2053423,0.16190128,0.27438205,48,0.0015,49.584488,263178,-69,-115,-201,0
113993919,0,-0.2035004,0.1565588,0.27262798,48,0.0015,49.567867,263178,-66,-116,-200,0
114002691,0,-0.20165855,0.15833963,0.26385778,48,0.0015,49.592796,263178,-67,-117,-195,0
114021919,0,-0.19797479,0.1512163,0.27789015,48,0.0015,49.576176,263178,-63,-119,-203,0
114031588,0,-0.2053423,0.1512163,0.28490633,48,0.0015,49.567867,263178,-63,-115,-207,0
114041919,0,-0.20165855,0.14765465,0.28490633,48,0.0015,49.592796,263178,-61,-117,-207,0
114051549,0,-0.2053423,0.14409298,0.27789015,48,0.0015,49.565098,263178,-59,-115,-203,0
114061891,0,-0.20718417,0.14587381,0.28666037,48,0.0015,49.578945,263178,-60,-114,-208,0
114071548,0,-0.21639356,0.15833963,0.28490633,48,0.0015,49.570637,263178,-67,-109,-207,0
114081929,0,-0.21639356,0.15833963,0.28490633,48,0.0015,49.570637,263178,-67,-109,-207,0
114090719,0,-0.20165855,0.14765465,0.28841442,48,0.0015,49.595566,263178,-61,-117,-209,0
114101892,0,-0.21086793,0.14587381,0.28315228,48,0.0015,49.576176,263178,-60,-112,-206,0
114110719,0,-0.20902605,0.15833963,0.27438205,48,0.0015,49.584488,263178,-67,-113,-201,0
114121891,0,-0.2035004,0.14587381,0.2761361,48,0.0015,49.58172,263178,-60,-116,-202,0
114130719,0,-0.21823545,0.14231214,0.26561183,48,0.0015,49.587257,263178,-58,-108,-196,0
114141917,0,-0.19981666,0.14231214,0.2796442,48,0.0015,49.570637,263178,-58,-118,-204,0
114150719,0,-0.19981666,0.15299714,0.26911992,48,0.0015,49.60111,263178,-64,-118,-198,0
114169903,0,-0.19429103,0.14409298,0.26736587,48,0.0015,49.565098,263178,-59,-121,-197,0
114179555,0,-0.20902605,0.14765465,0.27087393,48,0.0015,49.595566,263178,-61,-113,-199,0
114189906,0,-0.20902605,0.14765465,0.27789015,48,0.0015,49.595566,263178,-61,-113,-203,0
114199578,0,-0.2053423,0.15833963,0.27789015,48,0.0015,49.58172,263178,-67,-115,-203,0
114209891,0,-0.20165855,0.1512163,0.27087393,48,0.0015,49.554016,263178,-63,-117,-199,0
114219540,0,-0.22007732,0.14409298,0.27789015,48,0.0015,49.595566,263178,-59,-107,-203,0
114229891,0,-0.2035004,0.14943546,0.2796442,48,0.0015,49.584488,263178,-62,-116,-204,0
114240331,0,-0.2035004,0.14943546,0.2796442,48,0.0015,49.573406,263178,-62,-116,-204,0
114249122,0,-0.20718417,0.14943546,0.2761361,48,0.0015,49.592796,263178,-62,-114,-202,0
114258677,0,-0.19797479,0.133408,0.27789015,48,0.0015,49.59834,263178,-53,-119,-203,0
114269091,0,-0.19060728,0.14765465,0.26385778,48,0.0015,49.570637,263178,-61,-123,-195,0
114278677,0,-0.2053423,0.14409298,0.28139824,48,0.0015,49.578945,263178,-59,-115,-205,0
114289101,0,-0.2035004,0.13875048,0.2796442,48,0.0015,49.592796,263178,-56,-116,-204,0
114298677,0,-0.21639356,0.15477796,0.26385778,48,0.0015,49.60111,263178,-65,-109,-195,0
114309092,0,-0.21639356,0.15477796,0.26385778,48,0.0015,49.576176,263178,-65,-109,-195,0
114317891,0,-0.19981666,0.17080544,0.28666037,48,0.0015,49.587257,263178,-74,-118,-208,0
114327560,0,-0.21270981,0.15477796,0.27087393,48,0.0015,49.548477,263178,-65,-111,-199,0
114337892,0,-0.19244914,0.15299714,0.25859562,48,0.0015,49.606647,263178,-64,-122,-192,0
114347552,0,-0.21639356,0.1512163,0.25859562,48,0.0015,49.592796,263178,-63,-109,-192,0
114349092,0,-0.21639356,0.1512163,0.26736587,48,0.0015,49.606647,263178,-63,-109,-197,0
114357892,0,-0.21270981,0.14409298,0.28139824,48,0.0015,49.606647,263178,-59,-111,-205,0
114367583,0,-0.2053423,0.1512163,0.27087393,48,0.0015,49.548477,263178,-63,-115,-199,0
114377901,0,-0.19797479,0.1512163,0.28139824,48,0.0015,49.590027,263178,-63,-119,-205,0
114387560,0,-0.19797479,0.1512163,0.28139824,48,0.0015,49.60111,263178,-63,-119,-205,0
114397111,0,-0.21639356,0.14053132,0.27087393,48,0.0015,49.595566,263178,-57,-109,-199,0
114406719,0,-0.20165855,0.14409298,0.27087393,48,0.0015,49.570637,263178,-59,-117,-199,0
114417098,0,-0.2053423,0.1512163,0.26385778,48,0.0015,49.587257,263178,-63,-115,-195,0
114426721,0,-0.21270981,0.14765465,0.27789015,48,0.0015,49.603878,263178,-61,-111,-203,0
114437091,0,-0.2053423,0.14053132,0.28490633,48,0.0015,49.61496,263178,-57,-115,-207,0
114446719,0,-0.2145517,0.16012046,0.2761361,48,0.0015,49.59834,263178,-68,-110,-202,0
114457092,0,-0.20718417,0.13162716,0.28315228,48,0.0015,49.60111,263178,-52,-114,-206,0
114466720,0,-0.20718417,0.13162716,0.28315228,48,0.0015,49.59834,263178,-52,-114,-206,0
114467514,0,-0.20718417,0.13162716,0.28315228,48,0.0015,49.60111,263178,-52,-114,-206,0
114477091,0,-0.20718417,0.13518882,0.2761361,48,0.0015,49.606647,263178,-54,-114,-202,0
114485891,0,-0.21823545,0.14587381,0.29718465,48,0.0015,49.573406,263178,-60,-108,-214,0
114497096,0,-0.1961329,0.13875048,0.2761361,48,0.0015,49.58172,263178,-56,-120,-202,0
114505891,0,-0.20165855,0.1512163,0.28139824,48,0.0015,49.6205,263178,-63,-117,-205,0
114517094,0,-0.19981666,0.14231214,0.25859562,48,0.0015,49.63435,263178,-58,-118,-192,0
114525891,0,-0.20902605,0.14765465,0.28490633,48,0.0015,49.603878,263178,-61,-113,-207,0
114535594,0,-0.20902605,0.14765465,0.28490633,48,0.0015,49.60111,263178,-61,-113,-207,0
114545091,0,-0.19429103,0.14409298,0.27789015,48,0.0015,49.578945,263178,-59,-121,-203,0
114554719,0,-0.2145517,0.1565588,0.27262798,48,0.0015,49.609417,263178,-66,-110,-200,0
114565094,0,-0.20165855,0.1512163,0.26736587,48,0.0015,49.576176,263178,-63,-117,-197,0
114574719,0,-0.18876539,0.13518882,0.28666037,48,0.0015,49.612186,263178,-54,-124,-208,0
114585091,0,-0.20165855,0.13696966,0.2919225,48,0.0015,49.603878,263178,-55,-117,-211,0
114594719,0,-0.20902605,0.13696966,0.26736587,48,0.0015,49.603878,263178,-55,-113,-197,0
114605091,0,-0.20165855,0.14765465,0.27789015,48,0.0015,49.584488,263178,-61,-117,-203,0
114614720,0,-0.20165855,0.14765465,0.27789015,48,0.0015,49.62327,263178,-61,-117,-203,0
114624320,0,-0.2053423,0.133408,0.28139824,48,0.0015,49.595566,263178,-53,-115,-205,0
114633892,0,-0.21270981,0.1512163,0.28139824,48,0.0015,49.6205,263178,-63,-111,-205,0
114645091,0,-0.21639356,0.14765465,0.28490633,48,0.0015,49.612186,263178,-61,-109,-207,0
114653891,0,-0.21639356,0.1512163,0.27789015,48,0.0015,49.587257,263178,-63,-109,-203,0
114664313,0,-0.20718417,0.14587381,0.26911992,48,0.0015,49.63158,263178,-60,-114,-198,0
114673891,0,-0.22191921,0.13162716,0.27262798,48,0.0015,49.603878,263178,-52,-106,-200,0
114684356,0,-0.20902605,0.14053132,0.28139824,48,0.0015,49.626038,263178,-57,-113,-205,0
114693892,0,-0.20902605,0.14053132,0.28139824,48,0.0015,49.612186,263178,-57,-113,-205,0
114704333,0,-0.22007732,0.14053132,0.27438205,48,0.0015,49.609417,263178,-57,-107,-201,0
114713092,0,-0.21823545,0.14587381,0.29367658,48,0.0015,49.63158,263178,-60,-108,-212,0
114724340,0,-0.20902605,0.13696966,0.2954306,48,0.0015,49.59834,263178,-55,-113,-213,0
114733092,0,-0.21270981,0.12984632,0.27789015,48,0.0015,49.59834,263178,-51,-111,-203,0
114742691,0,-0.21270981,0.1512163,0.27789015,48,0.0015,49.603878,263178,-63,-111,-203,0
114744358,0,-0.22376108,0.1512163,0.27789015,48,0.0015,49.592796,263178,-63,-105,-203,0
114753092,0,-0.20718417,0.14587381,0.2761361,48,0.0015,49.626038,263178,-60,-114,-202,0
114762692,0,-0.20718417,0.14587381,0.2761361,48,0.0015,49.609417,263178,-60,-114,-202,0
114772313,0,-0.20902605,0.133408,0.26034966,48,0.0015,49.606647,263178,-53,-113,-193,0
114781891,0,-0.2035004,0.14231214,0.26561183,48,0.0015,49.590027,263178,-58,-116,-196,0
114792358,0,-0.1961329,0.14231214,0.28666037,48,0.0015,49.587257,263178,-58,-120,-208,0
114801892,0,-0.2035004,0.13162716,0.26911992,48,0.0015,49.595566,263178,-52,-116,-198,0
114812363,0,-0.19797479,0.15833963,0.28841442,48,0.0015,49.609417,263178,-67,-119,-209,0
114821892,0,-0.2035004,0.14231214,0.29718465,48,0.0015,49.628807,263178,-58,-116,-214,0
114832353,0,-0.20902605,0.1512163,0.27087393,48,0.0015,49.59834,263178,-63,-113,-199,0
114841893,0,-0.20902605,0.1512163,0.27087393,48,0.0015,49.578945,263178,-63,-113,-199,0
114842692,0,-0.20902605,0.1512163,0.27087393,48,0.0015,49.59834,263178,-63,-113,-199,0
114852331,0,-0.2053423,0.15833963,0.27087393,48,0.0015,49.606647,263178,-67,-115,-199,0
114861095,0,-0.20902605,0.133408,0.28490633,48,0.0015,49.63435,263178,-53,-113,-207,0
114872339,0,-0.2053423,0.13696966,0.27087393,48,0.0015,49.592796,263178,-55,-115,-199,0
114881092,0,-0.21270981,0.14765465,0.27438205,48,0.0015,49.61496,263178,-61,-111,-201,0
114892352,0,-0.20718417,0.14587381,0.26561183,48,0.0015,49.6205,263178,-60,-114,-196,0
114901105,0,-0.22560297,0.14587381,0.26561183,48,0.0015,49.63158,263178,-60,-104,-196,0
114920313,0,-0.19060728,0.133408,0.28490633,48,0.0015,49.606647,263178,-53,-123,-207,0
114929903,0,-0.21823545,0.14943546,0.2761361,48,0.0015,49.61496,263178,-62,-108,-202,0
114940315,0,-0.2145517,0.14943546,0.27262798,48,0.0015,49.603878,263178,-62,-110,-200,0
114949892,0,-0.2053423,0.15833963,0.26385778,48,0.0015,49.609417,263178,-67,-115,-195,0
114960326,0,-0.20902605,0.14765465,0.27789015,48,0.0015,49.63158,263178,-61,-113,-203,0
114969892,0,-0.2035004,0.14943546,0.26911992,48,0.0015,49.63712,263178,-62,-116,-198,0
114980361,0,-0.20718417,0.14943546,0.26561183,48,0.0015,49.61496,263178,-62,-114,-196,0
114990692,0,-0.20718417,0.14943546,0.26561183,48,0.0015,49.66205,263178,-62,-114,-196,0
115000342,0,-0.2145517,0.14587381,0.28666037,48,0.0015,49.61496,263178,-60,-110,-208,0
115009141,0,-0.2035004,0.14231214,0.2761361,48,0.0015,49.63435,263178,-58,-116,-202,0
115020345,0,-0.2145517,0.14231214,0.27262798,48,0.0015,49.590027,263178,-58,-110,-200,0
115029092,0,-0.20165855,0.14053132,0.2954306,48,0.0015,49.626038,263178,-57,-117,-213,0
115040352,0,-0.2053423,0.1512163,0.28841442,48,0.0015,49.63158,263178,-63,-115,-209,0
115049092,0,-0.22744483,0.133408,0.27087393,48,0.0015,49.61773,263178,-53,-103,-199,0
115068319,0,-0.2053423,0.14409298,0.27438205,48,0.0015,49.628807,263178,-59,-115,-201,0
115077893,0,-0.21639356,0.14409298,0.27438205,48,0.0015,49.61496,263178,-59,-109,-201,0
115088313,0,-0.21270981,0.14765465,0.27438205,48,0.0015,49.63158,263178,-61,-111,-201,0
115099519,0,-0.2145517,0.14587381,0.2761361,48,0.0015,49.63158,263178,-60,-110,-202,0
115108351,0,-0.22007732,0.14053132,0.26385778,48,0.0015,49.603878,263178,-57,-107,-195,0
115117892,0,-0.19981666,0.14943546,0.26385778,48,0.0015,49.62327,263178,-62,-118,-195,0
115119519,0,-0.19981666,0.14943546,0.27262798,48,0.0015,49.63435,263178,-62,-118,-200,0
115128319,0,-0.2035004,0.14231214,0.2796442,48,0.0015,49.63712,263178,-58,-116,-204,0
115137892,0,-0.2035004,0.14231214,0.2796442,48,0.0015,49.61773,263178,-58,-116,-204,0
115147519,0,-0.20165855,0.15477796,0.26034966,48,0.0015,49.6205,263178,-65,-117,-193,0
115157151,0,-0.19797479,0.14409298,0.27087393,48,0.0015,49.606647,263178,-59,-119,-199,0
115167519,0,-0.20718417,0.14231214,0.2761361,48,0.0015,49.61773,263178,-58,-114,-202,0
115177142,0,-0.19981666,0.14943546,0.2761361,48,0.0015,49.612186,263178,-62,-118,-202,0
115187519,0,-0.1961329,0.15299714,0.26911992,48,0.0015,49.64266,263178,-64,-120,-198,0
115197141,0,-0.21823545,0.14231214,0.2796442,48,0.0015,49.62327,263178,-58,-108,-204,0
115207509,0,-0.20902605,0.14409298,0.27087393,48,0.0015,49.626038,263178,-59,-113,-199,0
115217151,0,-0.20902605,0.14409298,0.27087393,48,0.0015,49.609417,263178,-59,-113,-199,0
115225892,0,-0.20902605,0.14943546,0.27087393,48,0.0015,49.645428,263178,-62,-113,-199,0
115227533,0,-0.20718417,0.14943546,0.28315228,48,0.0015,49.63158,263178,-62,-114,-206,0
115236318,0,-0.21270981,0.14053132,0.27789015,48,0.0015,49.6205,263178,-57,-111,-203,0
115247491,0,-0.19981666,0.15299714,0.26911992,48,0.0015,49.648197,263178,-64,-118,-198,0
115256306,0,-0.2145517,0.13875048,0.2796442,48,0.0015,49.63989,263178,-56,-110,-204,0
115267491,0,-0.21270981,0.14053132,0.28139824,48,0.0015,49.63989,263178,-57,-111,-205,0
115276281,0,-0.20718417,0.14943546,0.2796442,48,0.0015,49.63712,263178,-62,-114,-204,0
115295491,0,-0.20165855,0.1512163,0.28841442,48,0.0015,49.63158,263178,-63,-117,-209,0
115305113,0,-0.20718417,0.14587381,0.29367658,48,0.0015,49.65097,263178,-60,-114,-212,0
115315491,0,-0.2145517,0.14231214,0.27262798,48,0.0015,49.63158,263178,-58,-110,-200,0
115325151,0,-0.20902605,0.1512163,0.27087393,48,0.0015,49.6205,263178,-63,-113,-199,0
115335491,0,-0.22007732,0.13696966,0.28490633,48,0.0015,49.63712,263178,-55,-107,-207,0
115345149,0,-0.2035004,0.15299714,0.28666037,48,0.0015,49.64266,263178,-64,-116,-208,0
115355491,0,-0.2053423,0.14409298,0.27438205,48,0.0015,49.628807,263178,-59,-115,-201,0
115365893,0,-0.2053423,0.14409298,0.27438205,48,0.0015,49.645428,263178,-59,-115,-201,0
115375529,0,-0.20902605,0.13696966,0.28139824,48,0.0015,49.664818,263178,-55,-113,-205,0
115384322,0,-0.21823545,0.14587381,0.2761361,48,0.0015,49.63158,263178,-60,-108,-202,0
115395491,0,-0.2035004,0.13875048,0.2796442,48,0.0015,49.628807,263178,-56,-116,-204,0
115404306,0,-0.20902605,0.14053132,0.27087393,48,0.0015,49.64266,263178,-57,-113,-199,0
115415498,0,-0.19797479,0.14053132,0.27087393,48,0.0015,49.65651,263178,-57,-119,-199,0
115424286,0,-0.20165855,0.14053132,0.28490633,48,0.0015,49.63158,263178,-57,-117,-207,0
115443491,0,-0.1961329,0.13162716,0.27262798,48,0.0015,49.63989,263178,-52,-120,-200,0
115453113,0,-0.2035004,0.13875048,0.26561183,48,0.0015,49.63989,263178,-56,-116,-196,0
115463491,0,-0.22007732,0.15833963,0.27438205,48,0.0015,49.648197,263178,-67,-107,-201,0
115473113,0,-0.20718417,0.13518882,0.26911992,48,0.0015,49.648197,263178,-54,-114,-198,0
115483493,0,-0.19981666,0.13875048,0.28666037,48,0.0015,49.66205,263178,-56,-118,-208,0
115493151,0,-0.2145517,0.13518882,0.2621037,48,0.0015,49.63158,263178,-54,-110,-194,0
115503491,0,-0.20718417,0.14587381,0.25859562,48,0.0015,49.603878,263178,-60,-114,-192,0
115513163,0,-0.20718417,0.14587381,0.25859562,48,0.0015,49.65097,263178,-60,-114,-192,0
115522692,0,-0.21270981,0.1512163,0.28139824,48,0.0015,49.626038,263178,-63,-111,-205,0
115532275,0,-0.20718417,0.14587381,0.2796442,48,0.0015,49.6205,263178,-60,-114,-204,0
115542691,0,-0.18876539,0.14587381,0.26911992,48,0.0015,49.62327,263178,-60,-124,-198,0
115552310,0,-0.19797479,0.1512163,0.27789015,48,0.0015,49.63989,263178,-63,-119,-203,0
115562691,0,-0.22560297,0.15299714,0.27262798,48,0.0015,49.65097,263178,-64,-104,-200,0
115572291,0,-0.21270981,0.16190128,0.27438205,48,0.0015,49.645428,263178,-69,-111,-201,0
115582691,0,-0.19981666,0.14231214,0.2761361,48,0.0015,49.664818,263178,-58,-118,-202,0
115592295,0,-0.19981666,0.14231214,0.2761361,48,0.0015,49.65097,263178,-58,-118,-202,0
115602692,0,-0.19981666,0.16012046,0.26911992,48,0.0015,49.645428,263178,-68,-118,-198,0
115611492,0,-0.20718417,0.14943546,0.27262798,48,0.0015,49.65651,263178,-62,-114,-200,0
115621113,0,-0.20718417,0.14231214,0.27262798,48,0.0015,49.65374,263178,-58,-114,-200,0
115622697,0,-0.21086793,0.14231214,0.28315228,48,0.0015,49.65097,263178,-58,-112,-206,0
115631491,0,-0.21270981,0.14053132,0.27087393,48,0.0015,49.67867,263178,-57,-111,-199,0
115642698,0,-0.21270981,0.133408,0.27438205,48,0.0015,49.65374,263178,-53,-111,-201,0
115651492,0,-0.2035004,0.1565588,0.2761361,48,0.0015,49.65651,263178,-66,-116,-202,0
115661155,0,-0.2035004,0.1565588,0.2761361,48,0.0015,49.626038,263178,-66,-116,-202,0
115670691,0,-0.20165855,0.13696966,0.26385778,48,0.0015,49.65097,263178,-55,-117,-195,0
115680347,0,-0.20902605,0.12984632,0.28490633,48,0.0015,49.65651,263178,-51,-113,-207,0
115690693,0,-0.20902605,0.14053132,0.28139824,48,0.0015,49.648197,263178,-57,-113,-205,0
115700332,0,-0.2053423,0.14765465,0.28841442,48,0.0015,49.67313,263178,-61,-115,-209,0
115710691,0,-0.20718417,0.13518882,0.27262798,48,0.0015,49.645428,263178,-54,-114,-200,0
115720296,0,-0.19981666,0.15299714,0.28666037,48,0.0015,49.664818,263178,-64,-118,-208,0
115730691,0,-0.19797479,0.14409298,0.26034966,48,0.0015,49.65374,263178,-59,-119,-193,0
115740295,0,-0.19797479,0.14409298,0.26034966,48,0.0015,49.65097,263178,-59,-119,-193,0
115741108,0,-0.19797479,0.14409298,0.26034966,48,0.0015,49.65928,263178,-59,-119,-193,0
115750693,0,-0.20902605,0.14053132,0.2568416,48,0.0015,49.65097,263178,-57,-113,-191,0
115759492,0,-0.2145517,0.14943546,0.2761361,48,0.0015,49.63989,263178,-62,-110,-202,0
115770691,0,-0.21823545,0.12806548,0.26911992,48,0.0015,49.67036,263178,-50,-108,-198,0
115779496,0,-0.2053423,0.15477796,0.27438205,48,0.0015,49.628807,263178,-65,-115,-201,0
115790691,0,-0.2035004,0.13162716,0.2796442,48,0.0015,49.65651,263178,-52,-116,-204,0
115799492,0,-0.21639356,0.14409298,0.26034966,48,0.0015,49.65097,263178,-59,-109,-193,0
115810692,0,-0.21270981,0.14409298,0.26736587,48,0.0015,49.645428,263178,-59,-111,-197,0
115819492,0,-0.21270981,0.14409298,0.26736587,48,0.0015,49.67313,263178,-59,-111,-197,0
115828305,0,-0.20718417,0.15299714,0.2761361,48,0.0015,49.65097,263178,-64,-114,-202,0
115838701,0,-0.21086793,0.14943546,0.27262798,48,0.0015,49.648197,263178,-62,-112,-200,0
115848348,0,-0.19429103,0.14409298,0.26736587,48,0.0015,49.66205,263178,-59,-121,-197,0
115858701,0,-0.2053423,0.14765465,0.27438205,48,0.0015,49.66759,263178,-61,-115,-201,0
115868329,0,-0.21086793,0.13518882,0.28666037,48,0.0015,49.63435,263178,-54,-112,-208,0
115878705,0,-0.19060728,0.1512163,0.27438205,48,0.0015,49.63712,263178,-63,-123,-201,0
115889106,0,-0.19060728,0.1512163,0.27438205,48,0.0015,49.65928,263178,-63,-123,-201,0
115898708,0,-0.19060728,0.1512163,0.27438205,48,0.0015,49.67867,263178,-63,-123,-201,0
115907517,0,-0.21086793,0.14587381,0.28315228,48,0.0015,49.69529,263178,-60,-112,-206,0
115918707,0,-0.20902605,0.122723,0.27789015,48,0.0015,49.628807,263178,-47,-113,-203,0
115927492,0,-0.19797479,0.13696966,0.27087393,48,0.0015,49.65928,263178,-55,-119,-199,0
115938707,0,-0.21086793,0.13875048,0.28666037,48,0.0015,49.63435,263178,-56,-112,-208,0
115947492,0,-0.20902605,0.14765465,0.27438205,48,0.0015,49.63712,263178,-61,-113,-201,0
115957916,0,-0.21270981,0.13696966,0.27438205,48,0.0015,49.65097,263178,-55,-111,-201,0
115967491,0,-0.21270981,0.13696966,0.27438205,48,0.0015,49.68975,263178,-55,-111,-201,0
115977915,0,-0.2035004,0.13875048,0.27262798,48,0.0015,49.67036,263178,-56,-116,-200,0
115986692,0,-0.2035004,0.124503836,0.27262798,48,0.0015,49.63712,263178,-48,-116,-200,0
115996344,0,-0.2053423,0.14765465,0.27789015,48,0.0015,49.68975,263178,-61,-115,-203,0
116006692,0,-0.2145517,0.14943546,0.27262798,48,0.0015,49.65651,263178,-62,-110,-200,0
116016344,0,-0.2035004,0.14231214,0.27262798,48,0.0015,49.664818,263178,-58,-116,-200,0
116017913,0,-0.2035004,0.14231214,0.28315228,48,0.0015,49.65928,263178,-58,-116,-206,0
116026692,0,-0.21270981,0.13696966,0.2919225,48,0.0015,49.69529,263178,-55,-111,-211,0
116036332,0,-0.21639356,0.14409298,0.2919225,48,0.0015,49.67036,263178,-59,-109,-211,0
116046692,0,-0.21639356,0.14409298,0.2919225,48,0.0015,49.65651,263178,-59,-109,-211,0
116055491,0,-0.1961329,0.14943546,0.2796442,48,0.0015,49.66205,263178,-62,-120,-204,0
116065913,0,-0.21086793,0.13875048,0.2761361,48,0.0015,49.64266,263178,-56,-112,-202,0
116075566,0,-0.21270981,0.12984632,0.27789015,48,0.0015,49.65374,263178,-51,-111,-203,0
116085913,0,-0.21270981,0.14053132,0.27438205,48,0.0015,49.67036,263178,-57,-111,-201,0
116095492,0,-0.21270981,0.16546296,0.27438205,48,0.0015,49.66759,263178,-71,-111,-201,0
116105914,0,-0.2035004,0.15299714,0.28315228,48,0.0015,49.67313,263178,-64,-116,-206,0
116115492,0,-0.2035004,0.15299714,0.28315228,48,0.0015,49.664818,263178,-64,-116,-206,0
116116292,0,-0.2035004,0.15299714,0.28315228,48,0.0015,49.65097,263178,-64,-116,-206,0
116124338,0,-0.2035004,0.14943546,0.28315228,48,0.0015,49.67313,263178,-62,-116,-206,0
116125916,0,-0.20718417,0.14943546,0.26561183,48,0.0015,49.6759,263178,-62,-114,-196,0
116134728,0,-0.1961329,0.14231214,0.28315228,48,0.0015,49.67036,263178,-58,-120,-206,0
116145914,0,-0.21086793,0.13875048,0.27262798,48,0.0015,49.68975,263178,-56,-112,-200,0
116154692,0,-0.20902605,0.15833963,0.27789015,48,0.0015,49.68698,263178,-67,-113,-203,0
116164357,0,-0.20902605,0.14231214,0.27789015,48,0.0015,49.65374,263178,-58,-113,-203,0
116165913,0,-0.21823545,0.14231214,0.2761361,48,0.0015,49.65928,263178,-58,-108,-202,0
116174692,0,-0.2053423,0.14053132,0.27789015,48,0.0015,49.645428,263178,-57,-115,-203,0
116185913,0,-0.19429103,0.14409298,0.26385778,48,0.0015,49.69252,263178,-59,-121,-195,0
116194698,0,-0.19429103,0.14409298,0.26385778,48,0.0015,49.68144,263178,-59,-121,-195,0
116203508,0,-0.22007732,0.14765465,0.28139824,48,0.0015,49.67036,263178,-61,-107,-205,0
116213913,0,-0.19797479,0.14765465,0.2954306,48,0.0015,49.65928,263178,-61,-119,-213,0
116223492,0,-0.2035004,0.14943546,0.29016846,48,0.0015,49.664818,263178,-62,-116,-210,0
116233913,0,-0.1961329,0.14231214,0.2761361,48,0.0015,49.67313,263178,-58,-120,-202,0
116243495,0,-0.19797479,0.133408,0.27438205,48,0.0015,49.65651,263178,-53,-119,-201,0
116253913,0,-0.21086793,0.14587381,0.26561183,48,0.0015,49.6759,263178,-60,-112,-196,0
116263504,0,-0.2053423,0.14053132,0.26736587,48,0.0015,49.6759,263178,-57,-115,-197,0
116273891,0,-0.2053423,0.14053132,0.26736587,48,0.0015,49.69529,263178,-57,-115,-197,0
116282761,0,-0.20718417,0.14231214,0.28315228,48,0.0015,49.68421,263178,-58,-114,-206,0
116293891,0,-0.2053423,0.13696966,0.27438205,48,0.0015,49.65374,263178,-55,-115,-201,0
116302762,0,-0.21086793,0.13162716,0.2761361,48,0.0015,49.67036,263178,-52,-112,-202,0
116313891,0,-0.21639356,0.13696966,0.27789015,48,0.0015,49.66205,263178,-55,-109,-203,0
116322716,0,-0.2053423,0.13696966,0.27438205,48,0.0015,49.700832,263178,-55,-115,-201,0
116333919,0,-0.20718417,0.13875048,0.28666037,48,0.0015,49.66759,263178,-56,-114,-208,0
116342722,0,-0.22007732,0.13696966,0.28490633,48,0.0015,49.66205,263178,-55,-107,-207,0
116361919,0,-0.2035004,0.14231214,0.28315228,48,0.0015,49.6759,263178,-58,-116,-206,0
116371492,0,-0.21086793,0.14943546,0.28315228,48,0.0015,49.65374,263178,-62,-112,-206,0
116373135,0,-0.21086793,0.14943546,0.27262798,48,0.0015,49.68144,263178,-62,-112,-200,0
116381891,0,-0.2035004,0.13162716,0.26911992,48,0.0015,49.664818,263178,-52,-116,-198,0
116391492,0,-0.22376108,0.14053132,0.26911992,48,0.0015,49.67313,263178,-57,-105,-198,0
116393096,0,-0.22376108,0.14053132,0.27789015,48,0.0015,49.68698,263178,-57,-105,-203,0
116401891,0,-0.18876539,0.14231214,0.26911992,48,0.0015,49.68698,263178,-58,-124,-198,0
116413135,0,-0.21270981,0.15477796,0.27087393,48,0.0015,49.66205,263178,-65,-111,-199,0
116421921,0,-0.21270981,0.15477796,0.27087393,48,0.0015,49.67036,263178,-65,-111,-199,0
116430714,0,-0.22191921,0.14943546,0.26911992,48,0.0015,49.6759,263178,-62,-106,-198,0
116441093,0,-0.20718417,0.13162716,0.27262798,48,0.0015,49.65928,263178,-52,-114,-200,0
116450761,0,-0.19797479,0.14765465,0.27087393,48,0.0015,49.6759,263178,-61,-119,-199,0
116461093,0,-0.2145517,0.14231214,0.2761361,48,0.0015,49.67036,263178,-58,-110,-202,0
116470732,0,-0.20165855,0.133408,0.28490633,48,0.0015,49.66759,263178,-53,-117,-207,0
116481100,0,-0.21086793,0.13518882,0.28315228,48,0.0015,49.67313,263178,-54,-112,-206,0
116490719,0,-0.2035004,0.13875048,0.28315228,48,0.0015,49.66205,263178,-56,-116,-206,0
116501177,0,-0.2035004,0.13875048,0.28315228,48,0.0015,49.7036,263178,-56,-116,-206,0
116509919,0,-0.2145517,0.13875048,0.2761361,48,0.0015,49.68144,263178,-56,-110,-202,0
116521157,0,-0.19429103,0.14053132,0.27087393,48,0.0015,49.68421,263178,-57,-121,-199,0
116529919,0,-0.2035004,0.1565588,0.26561183,48,0.0015,49.68975,263178,-66,-116,-196,0
116541118,0,-0.20902605,0.14765465,0.28841442,48,0.0015,49.67036,263178,-61,-113,-209,0
116549919,0,-0.22191921,0.14231214,0.26561183,48,0.0015,49.6759,263178,-58,-106,-196,0
116561146,0,-0.19797479,0.13696966,0.26736587,48,0.0015,49.700832,263178,-55,-119,-197,0
116569919,0,-0.21086793,0.14587381,0.2761361,48,0.0015,49.68698,263178,-60,-112,-202,0
116589140,0,-0.19797479,0.13696966,0.27087393,48,0.0015,49.68144,263178,-55,-119,-199,0
116598722,0,-0.20165855,0.14765465,0.27789015,48,0.0015,49.69252,263178,-61,-117,-203,0
116609109,0,-0.19981666,0.14231214,0.27262798,48,0.0015,49.6759,263178,-58,-118,-200,0
116618760,0,-0.2035004,0.124503836,0.2621037,48,0.0015,49.720222,263178,-48,-116,-194,0
116629140,0,-0.21270981,0.13696966,0.27789015,48,0.0015,49.69806,263178,-55,-111,-203,0
116638759,0,-0.19981666,0.15299714,0.2796442,48,0.0015,49.66205,263178,-64,-118,-204,0
116649093,0,-0.19981666,0.15299714,0.2796442,48,0.0015,49.69806,263178,-64,-118,-204,0
116657919,0,-0.1961329,0.14231214,0.29016846,48,0.0015,49.69252,263178,-58,-120,-210,0
116669163,0,-0.1961329,0.14231214,0.26561183,48,0.0015,49.68698,263178,-58,-120,-196,0
116677919,0,-0.22007732,0.12984632,0.27438205,48,0.0015,49.66205,263178,-51,-107,-201,0
116689156,0,-0.2053423,0.14409298,0.27087393,48,0.0015,49.67313,263178,-59,-115,-199,0
116697919,0,-0.21823545,0.1565588,0.26911992,48,0.0015,49.7036,263178,-66,-108,-198,0
116709130,0,-0.2035004,0.14231214,0.27262798,48,0.0015,49.71191,263178,-58,-116,-200,0
116717919,0,-0.2145517,0.13518882,0.2761361,48,0.0015,49.68698,263178,-54,-110,-202,0
116737107,0,-0.21086793,0.14943546,0.2761361,48,0.0015,49.66205,263178,-62,-112,-202,0
116746719,0,-0.2145517,0.14231214,0.27262798,48,0.0015,49.700832,263178,-58,-110,-200,0
116757109,0,-0.2053423,0.14053132,0.27087393,48,0.0015,49.67036,263178,-57,-115,-199,0
116766719,0,-0.19981666,0.13875048,0.28315228,48,0.0015,49.70637,263178,-56,-118,-206,0
116777114,0,-0.20902605,0.14053132,0.27789015,48,0.0015,49.6759,263178,-57,-113,-203,0
116786745,0,-0.21823545,0.14587381,0.27262798,48,0.0015,49.7036,263178,-60,-108,-200,0
116797142,0,-0.21823545,0.14587381,0.27262798,48,0.0015,49.700832,263178,-60,-108,-200,0
116805919,0,-0.1961329,0.14231214,0.28666037,48,0.0015,49.720222,263178,-58,-120,-208,0
116816292,0,-0.2035004,0.13518882,0.28315228,48,0.0015,49.68975,263178,-54,-116,-206,0
116825919,0,-0.19060728,0.14053132,0.28139824,48,0.0015,49.67036,263178,-57,-123,-205,0
116836304,0,-0.21086793,0.13875048,0.26911992,48,0.0015,49.69252,263178,-56,-112,-198,0
116845919,0,-0.2035004,0.13518882,0.29016846,48,0.0015,49.68975,263178,-54,-116,-210,0
116856291,0,-0.19797479,0.1512163,0.27789015,48,0.0015,49.68698,263178,-63,-119,-203,0
116865919,0,-0.21639356,0.14409298,0.27087393,48,0.0015,49.70914,263178,-59,-109,-199,0
116876292,0,-0.21639356,0.14409298,0.27087393,48,0.0015,49.68698,263178,-59,-109,-199,0
116885097,0,-0.21639356,0.14765465,0.27087393,48,0.0015,49.71191,263178,-61,-109,-199,0
116896292,0,-0.20165855,0.14765465,0.28841442,48,0.0015,49.67313,263178,-61,-117,-209,0
116905131,0,-0.19797479,0.14409298,0.28139824,48,0.0015,49.72576,263178,-59,-119,-205,0
116916292,0,-0.19244914,0.14943546,0.29367658,48,0.0015,49.68975,263178,-62,-122,-212,0
116925135,0,-0.19981666,0.13518882,0.27262798,48,0.0015,49.71468,263178,-54,-118,-200,0
116936291,0,-0.19244914,0.14943546,0.2796442,48,0.0015,49.700832,263178,-62,-122,-204,0
116945103,0,-0.21086793,0.13875048,0.2761361,48,0.0015,49.68698,263178,-56,-112,-202,0
116954730,0,-0.21086793,0.13875048,0.2761361,48,0.0015,49.736843,263178,-56,-112,-202,0
116964295,0,-0.19797479,0.12984632,0.28139824,48,0.0015,49.69529,263178,-51,-119,-205,0
116973919,0,-0.21270981,0.13696966,0.26736587,48,0.0015,49.717453,263178,-55,-111,-197,0
116984291,0,-0.21270981,0.15477796,0.26034966,48,0.0015,49.69806,263178,-65,-111,-193,0
116993913,0,-0.20165855,0.14409298,0.27438205,48,0.0015,49.73407,263178,-59,-117,-201,0
117004298,0,-0.21270981,0.14053132,0.2954306,48,0.0015,49.69252,263178,-57,-111,-213,0
117013893,0,-0.2035004,0.16012046,0.27262798,48,0.0015,49.68144,263178,-68,-116,-200,0
117024302,0,-0.2035004,0.16012046,0.27262798,48,0.0015,49.67313,263178,-68,-116,-200,0
117033100,0,-0.2035004,0.16012046,0.28315228,48,0.0015,49.68975,263178,-68,-116,-206,0
117044291,0,-0.19981666,0.15299714,0.2761361,48,0.0015,49.72576,263178,-64,-118,-202,0
117053134,0,-0.20165855,0.133408,0.26385778,48,0.0015,49.722992,263178,-53,-117,-195,0
117064291,0,-0.19981666,0.13875048,0.28315228,48,0.0015,49.700832,263178,-56,-118,-206,0
117073139,0,-0.20165855,0.15833963,0.28490633,48,0.0015,49.69806,263178,-67,-117,-207,0
117084291,0,-0.20718417,0.13875048,0.2796442,48,0.0015,49.72576,263178,-56,-114,-204,0
117093127,0,-0.20902605,0.14409298,0.27789015,48,0.0015,49.722992,263178,-59,-113,-203,0
117112291,0,-0.2035004,0.13875048,0.26561183,48,0.0015,49.67867,263178,-56,-116,-196,0
117121892,0,-0.21639356,0.15833963,0.27087393,48,0.0015,49.739613,263178,-67,-109,-199,0
117132291,0,-0.19060728,0.1512163,0.27789015,48,0.0015,49.71191,263178,-63,-123,-203,0
117141908,0,-0.21086793,0.14943546,0.28666037,48,0.0015,49.717453,263178,-62,-112,-208,0
117152291,0,-0.21086793,0.13162716,0.2796442,48,0.0015,49.720222,263178,-52,-112,-204,0
117161927,0,-0.21086793,0.14231214,0.2761361,48,0.0015,49.7036,263178,-58,-112,-202,0
117172299,0,-0.21086793,0.14231214,0.2761361,48,0.0015,49.69529,263178,-58,-112,-202,0
117181105,0,-0.19429103,0.14053132,0.27087393,48,0.0015,49.70914,263178,-57,-121,-199,0
117192302,0,-0.20902605,0.14765465,0.2919225,48,0.0015,49.74792,263178,-61,-113,-211,0
117201137,0,-0.22191921,0.14587381,0.2796442,48,0.0015,49.68144,263178,-60,-106,-204,0
117212291,0,-0.19244914,0.14587381,0.27262798,48,0.0015,49.69252,263178,-60,-122,-200,0
117221094,0,-0.2035004,0.14943546,0.27262798,48,0.0015,49.71191,263178,-62,-116,-200,0
117232308,0,-0.21086793,0.14587381,0.26911992,48,0.0015,49.72853,263178,-60,-112,-198,0
117241127,0,-0.22376108,0.15477796,0.28139824,48,0.0015,49.69529,263178,-65,-105,-205,0
117251513,0,-0.22376108,0.15477796,0.28139824,48,0.0015,49.69252,263178,-65,-105,-205,0
117260341,0,-0.20165855,0.1512163,0.27438205,48,0.0015,49.720222,263178,-63,-117,-201,0
117269891,0,-0.20165855,0.14053132,0.27438205,48,0.0015,49.722992,263178,-57,-117,-201,0
117271513,0,-0.2053423,0.14053132,0.27087393,48,0.0015,49.736843,263178,-57,-115,-199,0
117280294,0,-0.20165855,0.133408,0.26385778,48,0.0015,49.736843,263178,-53,-117,-195,0
117289903,0,-0.20165855,0.15299714,0.26385778,48,0.0015,49.70914,263178,-64,-117,-195,0
117291515,0,-0.2145517,0.15299714,0.2761361,48,0.0015,49.717453,263178,-64,-110,-202,0
117300294,0,-0.20902605,0.14765465,0.28139824,48,0.0015,49.70914,263178,-61,-113,-205,0
117311524,0,-0.18692352,0.12628467,0.26736587,48,0.0015,49.700832,263178,-49,-125,-197,0
117320291,0,-0.21639356,0.13696966,0.27087393,48,0.0015,49.70637,263178,-55,-109,-199,0
117329908,0,-0.21639356,0.13696966,0.27087393,48,0.0015,49.71191,263178,-55,-109,-199,0
117339519,0,-0.19244914,0.14943546,0.28666037,48,0.0015,49.72853,263178,-62,-122,-208,0
117349107,0,-0.20718417,0.14231214,0.26561183,48,0.0015,49.717453,263178,-58,-114,-196,0
117359513,0,-0.2145517,0.16368212,0.28315228,48,0.0015,49.73407,263178,-70,-110,-206,0
117369098,0,-0.20165855,0.1512163,0.27438205,48,0.0015,49.700832,263178,-63,-117,-201,0
117379519,0,-0.20718417,0.14943546,0.26911992,48,0.0015,49.71468,263178,-62,-114,-198,0
117389137,0,-0.2053423,0.14409298,0.26736587,48,0.0015,49.71191,263178,-59,-115,-197,0
117399520,0,-0.2053423,0.14409298,0.26736587,48,0.0015,49.720222,263178,-59,-115,-197,0
117409125,0,-0.2053423,0.14409298,0.26736587,48,0.0015,49.71468,263178,-59,-115,-197,0
117419519,0,-0.21823545,0.14231214,0.2796442,48,0.0015,49.73407,263178,-58,-108,-204,0
117428294,0,-0.22191921,0.13518882,0.28666037,48,0.0015,49.71468,263178,-54,-106,-208,0
117439513,0,-0.2053423,0.14053132,0.27789015,48,0.0015,49.722992,263178,-57,-115,-203,0
117448292,0,-0.22191921,0.14587381,0.28666037,48,0.0015,49.75069,263178,-60,-106,-208,0
117459513,0,-0.21086793,0.13875048,0.29016846,48,0.0015,49.736843,263178,-56,-112,-210,0
117468296,0,-0.22007732,0.15477796,0.26385778,48,0.0015,49.72576,263178,-65,-107,-195,0
117487491,0,-0.19244914,0.1565588,0.2761361,48,0.0015,49.700832,263178,-66,-122,-202,0
117497127,0,-0.20718417,0.14587381,0.28666037,48,0.0015,49.722992,263178,-60,-114,-208,0
117507491,0,-0.2145517,0.13518882,0.2796442,48,0.0015,49.71191,263178,-54,-110,-204,0
117517110,0,-0.2053423,0.14765465,0.28139824,48,0.0015,49.72853,263178,-61,-115,-205,0
117527491,0,-0.2053423,0.14765465,0.2919225,48,0.0015,49.7036,263178,-61,-115,-211,0
117537131,0,-0.19797479,0.13696966,0.27789015,48,0.0015,49.75069,263178,-55,-119,-203,0
117547491,0,-0.21639356,0.13696966,0.27087393,48,0.0015,49.717453,263178,-55,-109,-199,0
117557924,0,-0.21639356,0.13696966,0.27087393,48,0.0015,49.736843,263178,-55,-109,-199,0
117567491,0,-0.20165855,0.14053132,0.27087393,48,0.0015,49.74792,263178,-57,-117,-199,0
117576351,0,-0.2035004,0.14587381,0.26561183,48,0.0015,49.717453,263178,-60,-116,-196,0
117587491,0,-0.21086793,0.14231214,0.28315228,48,0.0015,49.70637,263178,-58,-112,-206,0
117596362,0,-0.20718417,0.15299714,0.27262798,48,0.0015,49.70637,263178,-64,-114,-200,0
117606691,0,-0.19797479,0.14053132,0.28139824,48,0.0015,49.770084,263178,-57,-119,-205,0
117616313,0,-0.20902605,0.1512163,0.27438205,48,0.0015,49.759003,263178,-63,-113,-201,0
117626733,0,-0.21270981,0.14765465,0.27789015,48,0.0015,49.739613,263178,-61,-111,-203,0
117636318,0,-0.21270981,0.14765465,0.27789015,48,0.0015,49.73407,263178,-61,-111,-203,0
117645104,0,-0.2145517,0.14231214,0.27789015,48,0.0015,49.742382,263178,-58,-110,-203,0
117646702,0,-0.2145517,0.14231214,0.28315228,48,0.0015,49.73407,263178,-58,-110,-206,0
117655521,0,-0.20902605,0.14053132,0.27087393,48,0.0015,49.74515,263178,-57,-113,-199,0
117665115,0,-0.20718417,0.14231214,0.27087393,48,0.0015,49.739613,263178,-58,-114,-199,0
117666730,0,-0.20718417,0.14231214,0.2796442,48,0.0015,49.7313,263178,-58,-114,-204,0
117675519,0,-0.20165855,0.16190128,0.27087393,48,0.0015,49.736843,263178,-69,-117,-199,0
117685141,0,-0.19981666,0.13518882,0.29016846,48,0.0015,49.73407,263178,-54,-118,-210,0
117695519,0,-0.19981666,0.16012046,0.26911992,48,0.0015,49.736843,263178,-68,-118,-198,0
117705125,0,-0.19981666,0.16012046,0.26911992,48,0.0015,49.74515,263178,-68,-118,-198,0
117714691,0,-0.21086793,0.14943546,0.28666037,48,0.0015,49.70914,263178,-62,-112,-208,0
117724313,0,-0.2035004,0.14231214,0.28315228,48,0.0015,49.720222,263178,-58,-116,-206,0
117734691,0,-0.21086793,0.1565588,0.28315228,48,0.0015,49.736843,263178,-66,-112,-206,0
117744351,0,-0.21086793,0.13518882,0.26561183,48,0.0015,49.742382,263178,-54,-112,-196,0
117754691,0,-0.19981666,0.13875048,0.2761361,48,0.0015,49.75069,263178,-56,-118,-202,0
117764350,0,-0.21086793,0.13875048,0.2796442,48,0.0015,49.74515,263178,-56,-112,-204,0
117774691,0,-0.20718417,0.1565588,0.27262798,48,0.0015,49.74792,263178,-66,-114,-200,0
117785092,0,-0.20718417,0.1565588,0.27262798,48,0.0015,49.720222,263178,-66,-114,-200,0
117794729,0,-0.20165855,0.14409298,0.26736587,48,0.0015,49.70914,263178,-59,-117,-197,0
117803519,0,-0.20718417,0.14943546,0.27262798,48,0.0015,49.74515,263178,-62,-114,-200,0
117813113,0,-0.20718417,0.14053132,0.27262798,48,0.0015,49.72853,263178,-57,-114,-200,0
117814732,0,-0.21639356,0.14053132,0.27438205,48,0.0015,49.722992,263178,-57,-109,-201,0
117823526,0,-0.20718417,0.14231214,0.28666037,48,0.0015,49.7036,263178,-58,-114,-208,0
117833131,0,-0.20718417,0.13696966,0.28666037,48,0.0015,49.736843,263178,-55,-114,-208,0
117834721,0,-0.2053423,0.13696966,0.28139824,48,0.0015,49.75069,263178,-55,-115,-205,0
117843519,0,-0.20718417,0.14943546,0.2796442,48,0.0015,49.73407,263178,-62,-114,-204,0
117854719,0,-0.2035004,0.14943546,0.2796442,48,0.0015,49.736843,263178,-62,-116,-204,0
117863520,0,-0.2035004,0.14943546,0.2796442,48,0.0015,49.74792,263178,-62,-116,-204,0
117872320,0,-0.19981666,0.14587381,0.28315228,48,0.0015,49.7313,263178,-60,-118,-206,0
117882691,0,-0.19429103,0.14765465,0.26736587,48,0.0015,49.722992,263178,-61,-121,-197,0
117892313,0,-0.20165855,0.16190128,0.28139824,48,0.0015,49.736843,263178,-69,-117,-205,0
117902691,0,-0.22191921,0.14231214,0.2796442,48,0.0015,49.72576,263178,-58,-106,-204,0
117912355,0,-0.2053423,0.14409298,0.27438205,48,0.0015,49.7313,263178,-59,-115,-201,0
117922691,0,-0.1961329,0.13162716,0.27262798,48,0.0015,49.76731,263178,-52,-120,-200,0
117932315,0,-0.21086793,0.14587381,0.28315228,48,0.0015,49.73407,263178,-60,-112,-206,0
117942692,0,-0.21086793,0.14587381,0.28315228,48,0.0015,49.736843,263178,-60,-112,-206,0
117951519,0,-0.2053423,0.15833963,0.27438205,48,0.0015,49.756233,263178,-67,-115,-201,0
117962729,0,-0.2053423,0.15833963,0.27087393,48,0.0015,49.761772,263178,-67,-115,-199,0
