timestamp,baro_alt_meter,baro_temp_celcius,baro_pressure_pa,rho
109422918,221.98126,29.17,98687.0,1.1725649
109434185,221.4713,29.17,98693.0,1.1726362
109444471,221.72496,29.17,98690.0,1.1726005
109466196,221.55585,29.179998,98692.0,1.1726242
110278124,221.64041,29.199999,98691.0,1.1726123
110288008,222.32213,29.199999,98682.99,1.1725172
110299093,221.04588,29.199999,98698.0,1.1726955
110320475,221.3841,29.199999,98694.0,1.172648
110331543,221.55585,29.199999,98692.0,1.1726242
110341468,221.3841,29.199999,98694.0,1.172648
110363629,221.3841,29.199999,98694.0,1.172648
110374200,221.4713,29.199999,98693.0,1.1726362
110383808,222.06581,29.199999,98686.0,1.172553
110516337,221.55585,29.21,98692.0,1.1726242
110548514,221.3841,29.21,98694.0,1.172648
110560179,221.3841,29.21,98694.0,1.172648
110581834,221.81215,29.21,98688.99,1.1725885
110592473,221.55585,29.21,98692.0,1.1726242
110605330,221.55585,29.21,98692.0,1.1726242
110628071,221.3841,29.21,98694.0,1.172648
110637490,221.64041,29.21,98691.0,1.1726123
110648468,221.13043,29.21,98697.0,1.1726836
110670470,221.4713,29.21,98693.0,1.1726362
110681469,221.89671,29.21,98688.0,1.1725767
110692535,221.72496,29.21,98690.0,1.1726005
110714539,221.4713,29.21,98693.0,1.1726362
110725474,221.55585,29.21,98692.0,1.1726242
110735783,221.64041,29.21,98691.0,1.1726123
110756519,221.72496,29.21,98690.0,1.1726005
110767827,221.13043,29.21,98697.0,1.1726836
110778558,221.3841,29.21,98694.0,1.172648
110799873,221.55585,29.21,98692.0,1.1726242
110810481,221.72496,29.21,98690.0,1.1726005
110821475,222.23492,29.21,98684.0,1.1725292
110842529,221.3841,29.21,98694.0,1.172648
110852542,221.3841,29.21,98694.0,1.172648
110863830,221.3841,29.21,98694.0,1.172648
110886480,221.215,29.22,98696.0,1.1726718
111112604,221.30219,29.22,98694.99,1.1726598
111125275,221.3841,29.22,98694.0,1.172648
111136627,221.64041,29.22,98691.0,1.1726123
111160567,221.3841,29.22,98694.0,1.172648
111173277,221.4713,29.22,98693.0,1.1726362
111184702,221.81215,29.22,98688.99,1.1725885
111208726,221.55585,29.21,98692.0,1.1726242
111220973,221.89671,29.21,98688.0,1.1725767
111232653,221.4713,29.21,98693.0,1.1726362
111256666,221.4713,29.21,98693.0,1.1726362
111269256,221.89671,29.21,98688.0,1.1725767
111280620,221.55585,29.21,98692.0,1.1726242
111300958,221.81215,29.21,98688.99,1.1725885
111312626,221.55585,29.21,98692.0,1.1726242
111324910,221.64041,29.21,98691.0,1.1726123
111349164,221.55585,29.21,98692.0,1.1726242
111360801,221.98126,29.21,98687.0,1.1725649
111372840,221.4713,29.21,98693.0,1.1726362
111396846,221.215,29.22,98696.0,1.1726718
111408863,221.4713,29.22,98693.0,1.1726362
111420820,221.89671,29.22,98688.0,1.1725767
111444791,221.55585,29.21,98692.0,1.1726242
111588931,221.98126,29.21,98687.0,1.1725649
111599554,221.64041,29.21,98691.0,1.1726123
111610480,221.72496,29.21,98690.0,1.1726005
111631897,221.89671,29.22,98688.0,1.1725767
111642823,221.4713,29.22,98693.0,1.1726362
111653377,222.15038,29.22,98685.0,1.172541
111673603,221.64041,29.22,98691.0,1.1726123
111685340,221.04588,29.22,98698.0,1.1726955
111695589,222.06581,29.22,98686.0,1.172553
111717427,221.04588,29.23,98698.0,1.1726955
111727785,221.98126,29.23,98687.0,1.1725649
111738024,221.3841,29.23,98694.0,1.172648
111871900,221.81215,29.23,98688.99,1.1725885
111893306,221.64041,29.23,98691.0,1.1726123
112328474,221.30219,29.24,98694.99,1.1726598
112339224,221.72496,29.24,98690.0,1.1726005
112350512,221.55585,29.24,98692.0,1.1726242
112374558,221.04588,29.24,98698.0,1.1726955
112387132,221.72496,29.24,98690.0,1.1726005
112398799,221.55585,29.24,98692.0,1.1726242
112422499,221.3841,29.25,98694.0,1.172648
112434865,221.4713,29.25,98693.0,1.1726362
112446486,221.64041,29.25,98691.0,1.1726123
112470762,221.4713,29.24,98693.0,1.1726362
112483021,221.13043,29.24,98697.0,1.1726836
112494497,221.72496,29.24,98690.0,1.1726005
112518811,221.98126,29.24,98687.0,1.1725649
112766328,222.32213,29.25,98682.99,1.1725172
112787195,221.81215,29.25,98688.99,1.1725885
112798218,221.30219,29.25,98694.99,1.1726598
112808464,222.15038,29.25,98685.0,1.172541
112830983,221.64041,29.26,98691.0,1.1726123
112841473,221.30219,29.26,98694.99,1.1726598
112852468,221.55585,29.26,98692.0,1.1726242
112873480,221.55585,29.26,98692.0,1.1726242
112884470,221.30219,29.26,98694.99,1.1726598
112895555,221.72496,29.26,98690.0,1.1726005
112919165,221.30219,29.26,98694.99,1.1726598
112928592,221.215,29.26,98696.0,1.1726718
112939626,221.72496,29.26,98690.0,1.1726005
112960807,221.64041,29.26,98691.0,1.1726123
112971583,221.64041,29.26,98691.0,1.1726123
112983268,221.81215,29.26,98688.99,1.1725885
113004396,221.55585,29.26,98692.0,1.1726242
113013501,221.81215,29.26,98688.99,1.1725885
113024509,221.55585,29.26,98692.0,1.1726242
113047001,221.3841,29.269999,98694.0,1.172648
113057481,221.30219,29.269999,98694.99,1.1726598
113068476,221.215,29.269999,98696.0,1.1726718
113089470,221.4713,29.269999,98693.0,1.1726362
113100531,221.64041,29.269999,98691.0,1.1726123
113110966,221.72496,29.269999,98690.0,1.1726005
113132469,221.3841,29.269999,98694.0,1.172648
113143622,221.72496,29.269999,98690.0,1.1726005
113155188,221.13043,29.269999,98697.0,1.1726836
113176469,221.04588,29.269999,98698.0,1.1726955
113187984,221.64041,29.269999,98691.0,1.1726123
113198981,221.72496,29.269999,98690.0,1.1726005
113219711,221.4713,29.269999,98693.0,1.1726362
113231073,221.4713,29.269999,98693.0,1.1726362
113241531,221.64041,29.269999,98691.0,1.1726123
113263062,220.95868,29.269999,98699.0,1.1727074
113273522,221.72496,29.269999,98690.0,1.1726005
113283649,221.4713,29.269999,98693.0,1.1726362
113306192,221.13043,29.269999,98697.0,1.1726836
113315722,221.4713,29.269999,98693.0,1.1726362
113327027,220.87413,29.269999,98700.0,1.1727192
113348481,221.64041,29.269999,98691.0,1.1726123
113359616,221.81215,29.269999,98688.99,1.1725885
113369464,221.72496,29.269999,98690.0,1.1726005
113391039,221.81215,29.269999,98688.99,1.1725885
113403345,221.55585,29.269999,98692.0,1.1726242
113412720,221.55585,29.269999,98692.0,1.1726242
113435783,221.13043,29.269999,98697.0,1.1726836
113446940,221.64041,29.269999,98691.0,1.1726123
113456780,221.98126,29.269999,98687.0,1.1725649
113477478,221.3841,29.279999,98694.0,1.172648
113488474,221.3841,29.279999,98694.0,1.172648
113499877,221.98126,29.279999,98687.0,1.1725649
113521905,221.30219,29.269999,98694.99,1.1726598
113531903,221.04588,29.269999,98698.0,1.1726955
113544463,221.64041,29.269999,98691.0,1.1726123
113568627,221.4713,29.279999,98693.0,1.1726362
113579808,221.30219,29.279999,98694.99,1.1726598
113592076,221.64041,29.279999,98691.0,1.1726123
113611869,221.13043,29.269999,98697.0,1.1726836
113622469,221.215,29.269999,98696.0,1.1726718
113633505,221.89671,29.269999,98688.0,1.1725767
113654524,221.30219,29.279999,98694.99,1.1726598
113665469,221.30219,29.279999,98694.99,1.1726598
113675837,221.98126,29.279999,98687.0,1.1725649
113697603,221.55585,29.279999,98692.0,1.1726242
113708485,221.55585,29.279999,98692.0,1.1726242
113718563,221.4713,29.279999,98693.0,1.1726362
113739878,221.3841,29.279999,98694.0,1.172648
113750498,221.81215,29.279999,98688.99,1.1725885
113761464,221.72496,29.279999,98690.0,1.1726005
113784105,221.30219,29.279999,98694.99,1.1726598
113793746,221.215,29.279999,98696.0,1.1726718
113804481,221.215,29.279999,98696.0,1.1726718
113825490,221.215,29.289999,98696.0,1.1726718
113836469,221.13043,29.289999,98697.0,1.1726836
113846477,221.64041,29.289999,98691.0,1.1726123
113867842,221.13043,29.279999,98697.0,1.1726836
113880512,221.55585,29.279999,98692.0,1.1726242
113891816,222.06581,29.279999,98686.0,1.172553
113915806,221.72496,29.289999,98690.0,1.1726005
113928466,221.3841,29.289999,98694.0,1.172648
113940596,221.64041,29.289999,98691.0,1.1726123
113964632,221.4713,29.279999,98693.0,1.1726362
113977507,221.215,29.279999,98696.0,1.1726718
113988764,221.4713,29.279999,98693.0,1.1726362
114011402,221.89671,29.279999,98688.0,1.1725767
114022436,221.64041,29.279999,98691.0,1.1726123
114033307,221.55585,29.279999,98692.0,1.1726242
114057332,221.4713,29.279999,98693.0,1.1726362
114068636,221.64041,29.279999,98691.0,1.1726123
114081524,221.215,29.279999,98696.0,1.1726718
114105278,221.30219,29.279999,98694.99,1.1726598
114116587,221.55585,29.279999,98692.0,1.1726242
114129211,221.89671,29.279999,98688.0,1.1725767
114153156,221.215,29.279999,98696.0,1.1726718
114164572,221.98126,29.279999,98687.0,1.1725649
114177236,222.06581,29.279999,98686.0,1.172553
114201192,221.13043,29.279999,98697.0,1.1726836
114212588,221.13043,29.279999,98697.0,1.1726836
114225175,221.30219,29.279999,98694.99,1.1726598
114249192,221.64041,29.279999,98691.0,1.1726123
114260575,221.72496,29.279999,98690.0,1.1726005
114273295,221.30219,29.279999,98694.99,1.1726598
114297408,221.4713,29.279999,98693.0,1.1726362
114308639,221.64041,29.279999,98691.0,1.1726123
114321257,221.64041,29.279999,98691.0,1.1726123
114345154,221.215,29.279999,98696.0,1.1726718
114356739,221.64041,29.279999,98691.0,1.1726123
114369286,221.3841,29.279999,98694.0,1.172648
114392964,221.3841,29.279999,98694.0,1.172648
114404491,221.72496,29.279999,98690.0,1.1726005
114417218,221.55585,29.279999,98692.0,1.1726242
114441166,221.72496,29.279999,98690.0,1.1726005
114452614,221.64041,29.279999,98691.0,1.1726123
114464914,221.55585,29.279999,98692.0,1.1726242
114486435,221.98126,29.279999,98687.0,1.1725649
114496882,221.4713,29.279999,98693.0,1.1726362
114508620,222.06581,29.279999,98686.0,1.172553
114532512,221.215,29.289999,98696.0,1.1726718
114543550,221.98126,29.289999,98687.0,1.1725649
114553580,221.72496,29.289999,98690.0,1.1726005
114575585,221.55585,29.289999,98692.0,1.1726242
114586437,222.06581,29.289999,98686.0,1.172553
114597393,221.3841,29.289999,98694.0,1.172648
114618128,221.4713,29.289999,98693.0,1.1726362
114629495,221.4713,29.289999,98693.0,1.1726362
114642135,221.4713,29.289999,98693.0,1.1726362
114663862,221.30219,29.289999,98694.99,1.1726598
114673686,221.215,29.289999,98696.0,1.1726718
114685430,222.15038,29.289999,98685.0,1.172541
114706017,220.87413,29.3,98700.0,1.1727192
114717382,222.06581,29.3,98686.0,1.172553
114727437,221.215,29.3,98696.0,1.1726718
114749472,221.4713,29.3,98693.0,1.1726362
114759751,221.81215,29.3,98688.99,1.1725885
114770857,221.215,29.3,98696.0,1.1726718
114794311,221.30219,29.3,98694.99,1.1726598
114805367,221.72496,29.3,98690.0,1.1726005
114815458,221.72496,29.3,98690.0,1.1726005
114837374,221.13043,29.3,98697.0,1.1726836
114847437,221.81215,29.3,98688.99,1.1725885
114858021,221.3841,29.3,98694.0,1.172648
114879852,221.4713,29.3,98693.0,1.1726362
114890269,221.4713,29.3,98693.0,1.1726362
114901375,221.13043,29.3,98697.0,1.1726836
114922440,221.72496,29.3,98690.0,1.1726005
114933488,221.64041,29.3,98691.0,1.1726123
114943437,221.72496,29.3,98690.0,1.1726005
114965358,221.55585,29.31,98692.0,1.1726242
114975915,221.55585,29.31,98692.0,1.1726242
114986072,221.55585,29.31,98692.0,1.1726242
115007497,221.30219,29.31,98694.99,1.1726598
115018177,221.13043,29.31,98697.0,1.1726836
115029398,221.13043,29.31,98697.0,1.1726836
115053351,221.215,29.31,98696.0,1.1726718
115063441,221.64041,29.31,98691.0,1.1726123
115074099,221.3841,29.31,98694.0,1.172648
115095756,221.215,29.31,98696.0,1.1726718
115106376,221.3841,29.31,98694.0,1.172648
115117369,221.3841,29.31,98694.0,1.172648
115137637,221.72496,29.31,98690.0,1.1726005
115148446,221.72496,29.31,98690.0,1.1726005
115159437,221.55585,29.31,98692.0,1.1726242
115182161,221.4713,29.31,98693.0,1.1726362
115192436,221.4713,29.31,98693.0,1.1726362
115202801,221.3841,29.31,98694.0,1.172648
115224452,221.215,29.31,98696.0,1.1726718
115235579,221.215,29.31,98696.0,1.1726718
115246190,221.215,29.31,98696.0,1.1726718
115266811,221.3841,29.32,98694.0,1.172648
115278174,221.215,29.32,98696.0,1.1726718
115288486,221.72496,29.32,98690.0,1.1726005
115310238,221.30219,29.32,98694.99,1.1726598
115319541,221.72496,29.32,98690.0,1.1726005
115330486,221.13043,29.32,98697.0,1.1726836
115352753,221.4713,29.32,98693.0,1.1726362
115363307,221.4713,29.32,98693.0,1.1726362
115374127,221.3841,29.32,98694.0,1.172648
115394448,221.4713,29.32,98693.0,1.1726362
115406159,221.72496,29.32,98690.0,1.1726005
115415553,221.72496,29.32,98690.0,1.1726005
115438231,221.4713,29.32,98693.0,1.1726362
115448761,221.89671,29.32,98688.0,1.1725767
115459031,221.215,29.32,98696.0,1.1726718
115480465,221.55585,29.32,98692.0,1.1726242
115490471,222.06581,29.32,98686.0,1.172553
115502128,221.30219,29.32,98694.99,1.1726598
115523110,221.04588,29.32,98698.0,1.1726955
115534178,221.81215,29.32,98688.99,1.1725885
115544802,221.4713,29.32,98693.0,1.1726362
115566438,221.64041,29.33,98691.0,1.1726123
115579052,221.72496,29.33,98690.0,1.1726005
115590172,221.55585,29.33,98692.0,1.1726242
115611780,221.215,29.33,98696.0,1.1726718
115622447,221.81215,29.33,98688.99,1.1725885
115632440,221.4713,29.33,98693.0,1.1726362
115654171,221.55585,29.33,98692.0,1.1726242
115664747,221.64041,29.33,98691.0,1.1726123
115675364,221.98126,29.33,98687.0,1.1725649
115696436,221.215,29.33,98696.0,1.1726718
115707587,221.64041,29.33,98691.0,1.1726123
115719042,221.13043,29.33,98697.0,1.1726836
115740436,221.3841,29.33,98694.0,1.172648
115750886,221.215,29.33,98696.0,1.1726718
115761436,221.4713,29.33,98693.0,1.1726362
115783582,221.30219,29.33,98694.99,1.1726598
115795705,221.4713,29.33,98693.0,1.1726362
115806950,221.215,29.33,98696.0,1.1726718
115827873,221.3841,29.33,98694.0,1.172648
115839089,221.4713,29.33,98693.0,1.1726362
115849761,221.89671,29.33,98688.0,1.1725767
115870979,221.13043,29.33,98697.0,1.1726836
115880463,221.89671,29.33,98688.0,1.1725767
115891578,221.3841,29.33,98694.0,1.172648
115913447,221.04588,29.33,98698.0,1.1726955
115924457,220.79222,29.33,98700.99,1.172731
115934903,221.13043,29.33,98697.0,1.1726836
115956437,221.215,29.33,98696.0,1.1726718
115966985,221.3841,29.33,98694.0,1.172648
115977452,221.30219,29.33,98694.99,1.1726598
115999084,221.81215,29.33,98688.99,1.1725885
116011344,221.4713,29.33,98693.0,1.1726362
116021447,221.89671,29.33,98688.0,1.1725767
116043568,221.4713,29.34,98693.0,1.1726362
116055305,221.3841,29.34,98694.0,1.172648
116064646,221.30219,29.34,98694.99,1.1726598
116086960,221.4713,29.34,98693.0,1.1726362
116097436,221.3841,29.34,98694.0,1.172648
116107686,221.64041,29.34,98691.0,1.1726123
116129441,222.06581,29.34,98686.0,1.172553
116140436,221.55585,29.34,98692.0,1.1726242
116151546,221.81215,29.34,98688.99,1.1725885
116172446,221.72496,29.34,98690.0,1.1726005
116183026,221.215,29.34,98696.0,1.1726718
116193760,221.55585,29.34,98692.0,1.1726242
116215065,221.13043,29.34,98697.0,1.1726836
116225462,221.4713,29.34,98693.0,1.1726362
116236490,221.13043,29.34,98697.0,1.1726836
116257453,221.215,29.34,98696.0,1.1726718
116268447,221.30219,29.34,98694.99,1.1726598
116279858,221.72496,29.34,98690.0,1.1726005
116300530,221.72496,29.34,98690.0,1.1726005
116311816,221.30219,29.34,98694.99,1.1726598
116321577,221.72496,29.34,98690.0,1.1726005
116342526,221.215,29.349998,98696.0,1.1726718
116353761,221.13043,29.349998,98697.0,1.1726836
116364031,221.13043,29.349998,98697.0,1.1726836
116386446,221.215,29.34,98696.0,1.1726718
116396479,221.3841,29.34,98694.0,1.172648
116407795,221.81215,29.34,98688.99,1.1725885
116429435,221.30219,29.349998,98694.99,1.1726598
116440436,221.72496,29.349998,98690.0,1.1726005
116452160,221.64041,29.349998,98691.0,1.1726123
116473435,221.04588,29.349998,98698.0,1.1726955
116484439,221.72496,29.349998,98690.0,1.1726005
116494436,221.4713,29.349998,98693.0,1.1726362
116516435,221.64041,29.34,98691.0,1.1726123
116527810,221.30219,29.34,98694.99,1.1726598
116537451,221.72496,29.34,98690.0,1.1726005
116559849,221.3841,29.34,98694.0,1.172648
116569530,221.4713,29.34,98693.0,1.1726362
116580440,221.64041,29.34,98691.0,1.1726123
116602436,221.13043,29.349998,98697.0,1.1726836
116613553,221.4713,29.349998,98693.0,1.1726362
116623744,221.13043,29.349998,98697.0,1.1726836
116645436,221.55585,29.349998,98692.0,1.1726242
116655801,221.4713,29.349998,98693.0,1.1726362
116666446,220.95868,29.349998,98699.0,1.1727074
116688436,221.55585,29.349998,98692.0,1.1726242
116699981,221.04588,29.349998,98698.0,1.1726955
116710488,221.64041,29.349998,98691.0,1.1726123
116732439,221.04588,29.349998,98698.0,1.1726955
116743747,221.3841,29.349998,98694.0,1.172648
116754449,221.3841,29.349998,98694.0,1.172648
116776436,221.3841,29.349998,98694.0,1.172648
116788023,221.72496,29.349998,98690.0,1.1726005
116798486,221.89671,29.349998,98688.0,1.1725767
116820398,221.4713,29.359999,98693.0,1.1726362
116830446,222.15038,29.359999,98685.0,1.172541
116841436,221.55585,29.359999,98692.0,1.1726242
116863774,221.3841,29.349998,98694.0,1.172648
116874447,221.3841,29.349998,98694.0,1.172648
116884823,221.30219,29.349998,98694.99,1.1726598
116909253,221.4713,29.349998,98693.0,1.1726362
116920955,221.30219,29.349998,98694.99,1.1726598
116933143,221.30219,29.349998,98694.99,1.1726598
116957627,220.87413,29.359999,98700.0,1.1727192
116968818,220.87413,29.359999,98700.0,1.1727192
116981363,221.55585,29.359999,98692.0,1.1726242
117004946,221.55585,29.349998,98692.0,1.1726242
117016848,221.4713,29.349998,98693.0,1.1726362
117029290,221.13043,29.349998,98697.0,1.1726836
117052971,221.64041,29.349998,98691.0,1.1726123
117064918,222.06581,29.349998,98686.0,1.172553
117076789,222.23492,29.349998,98684.0,1.1725292
117101257,220.87413,29.349998,98700.0,1.1727192
117112849,221.55585,29.349998,98692.0,1.1726242
117125157,221.81215,29.349998,98688.99,1.1725885
117149218,221.04588,29.349998,98698.0,1.1726955
117161165,221.81215,29.349998,98688.99,1.1725885
117172838,221.64041,29.349998,98691.0,1.1726123
117197125,221.4713,29.349998,98693.0,1.1726362
117208968,221.64041,29.349998,98691.0,1.1726123
117220865,221.55585,29.349998,98692.0,1.1726242
117244900,221.04588,29.349998,98698.0,1.1726955
117256843,221.89671,29.349998,98688.0,1.1725767
117269259,221.13043,29.349998,98697.0,1.1726836
117293162,221.72496,29.349998,98690.0,1.1726005
117304917,221.4713,29.349998,98693.0,1.1726362
117316945,221.215,29.349998,98696.0,1.1726718
117341277,221.55585,29.349998,98692.0,1.1726242
117353146,221.4713,29.349998,98693.0,1.1726362
117364766,221.55585,29.349998,98692.0,1.1726242
117389347,221.4713,29.349998,98693.0,1.1726362
117401182,221.4713,29.349998,98693.0,1.1726362
117413173,221.89671,29.349998,98688.0,1.1725767
117436787,221.98126,29.349998,98687.0,1.1725649
117448960,221.81215,29.349998,98688.99,1.1725885
117461353,221.72496,29.349998,98690.0,1.1726005
117483549,221.30219,29.349998,98694.99,1.1726598
117493440,221.72496,29.349998,98690.0,1.1726005
117503570,221.3841,29.349998,98694.0,1.172648
117525315,221.98126,29.359999,98687.0,1.1725649
117535531,221.30219,29.359999,98694.99,1.1726598
117546436,221.64041,29.359999,98691.0,1.1726123
117567958,221.81215,29.359999,98688.99,1.1725885
117578245,221.64041,29.359999,98691.0,1.1726123
117589421,221.4713,29.359999,98693.0,1.1726362
117610508,221.72496,29.359999,98690.0,1.1726005
117621314,221.55585,29.359999,98692.0,1.1726242
117631532,221.30219,29.359999,98694.99,1.1726598
117653439,221.3841,29.369999,98694.0,1.172648
117663594,221.30219,29.369999,98694.99,1.1726598
117673770,221.64041,29.369999,98691.0,1.1726123
117695448,221.3841,29.369999,98694.0,1.172648
117706440,221.4713,29.369999,98693.0,1.1726362
117717477,221.81215,29.369999,98688.99,1.1725885
117738435,221.4713,29.369999,98693.0,1.1726362
117749542,221.81215,29.369999,98688.99,1.1725885
117759867,221.4713,29.369999,98693.0,1.1726362
117781316,221.30219,29.369999,98694.99,1.1726598
117791437,221.215,29.369999,98696.0,1.1726718
117801635,221.4713,29.369999,98693.0,1.1726362
117823437,221.4713,29.38,98693.0,1.1726362
117834475,220.95868,29.38,98699.0,1.1727074
117845374,221.3841,29.38,98694.0,1.172648
117866577,221.4713,29.369999,98693.0,1.1726362
117877401,221.55585,29.369999,98692.0,1.1726242
117887553,221.4713,29.369999,98693.0,1.1726362
117909399,221.55585,29.38,98692.0,1.1726242
117921967,221.3841,29.38,98694.0,1.172648
117933374,221.3841,29.38,98694.0,1.172648
117953960,221.4713,29.38,98693.0,1.1726362
117963467,221.81215,29.38,98688.99,1.1725885
117974436,221.64041,29.38,98691.0,1.1726123
117997398,221.4713,29.38,98693.0,1.1726362
118007437,221.64041,29.38,98691.0,1.1726123
118017636,221.4713,29.38,98693.0,1.1726362
118039447,221.64041,29.39,98691.0,1.1726123
118050782,221.64041,29.39,98691.0,1.1726123
118062162,221.4713,29.39,98693.0,1.1726362
118082763,221.13043,29.38,98697.0,1.1726836
118094465,221.4713,29.38,98693.0,1.1726362
118106823,221.55585,29.38,98692.0,1.1726242
118130777,221.215,29.38,98696.0,1.1726718
118142615,221.13043,29.38,98697.0,1.1726836
118154565,221.4713,29.38,98693.0,1.1726362
118179044,221.3841,29.38,98694.0,1.172648
118190778,221.3841,29.38,98694.0,1.172648
118202773,221.55585,29.38,98692.0,1.1726242
118224446,221.55585,29.38,98692.0,1.1726242
118235855,221.30219,29.38,98694.99,1.1726598
118246446,221.72496,29.38,98690.0,1.1726005
118266464,221.72496,29.38,98690.0,1.1726005
118278182,221.4713,29.38,98693.0,1.1726362
118288436,221.64041,29.38,98691.0,1.1726123
118310213,221.64041,29.38,98691.0,1.1726123
118319535,221.89671,29.38,98688.0,1.1725767
118330445,221.81215,29.38,98688.99,1.1725885
118352758,221.55585,29.38,98692.0,1.1726242
118363058,222.15038,29.38,98685.0,1.172541
118374061,221.55585,29.38,98692.0,1.1726242
118394774,221.81215,29.39,98688.99,1.1725885
118406114,221.81215,29.39,98688.99,1.1725885
118416486,221.4713,29.39,98693.0,1.1726362
118438226,221.81215,29.39,98688.99,1.1725885
118448808,221.4713,29.39,98693.0,1.1726362
118459001,222.06581,29.39,98686.0,1.172553
118480451,221.3841,29.39,98694.0,1.172648
118490511,221.55585,29.39,98692.0,1.1726242
118502138,221.4713,29.39,98693.0,1.1726362
118523576,221.13043,29.4,98697.0,1.1726836
118534197,221.04588,29.4,98698.0,1.1726955
118544784,221.13043,29.4,98697.0,1.1726836
118566186,221.30219,29.39,98694.99,1.1726598
118575535,221.98126,29.39,98687.0,1.1725649
118586510,221.72496,29.39,98690.0,1.1726005
118608499,221.3841,29.4,98694.0,1.172648
118618732,221.55585,29.4,98692.0,1.1726242
118630161,221.30219,29.4,98694.99,1.1726598
118650867,221.64041,29.4,98691.0,1.1726123
118662131,221.13043,29.4,98697.0,1.1726836
118671641,221.3841,29.4,98694.0,1.172648
118693451,221.72496,29.4,98690.0,1.1726005
118703743,221.72496,29.4,98690.0,1.1726005
118714987,221.3841,29.4,98694.0,1.172648
118735610,221.13043,29.4,98697.0,1.1726836
118747038,221.4713,29.4,98693.0,1.1726362
118756447,221.55585,29.4,98692.0,1.1726242
118779030,221.4713,29.4,98693.0,1.1726362
118789447,221.4713,29.4,98693.0,1.1726362
118799565,221.4713,29.4,98693.0,1.1726362
118821435,221.4713,29.4,98693.0,1.1726362
118832472,221.4713,29.4,98693.0,1.1726362
118843542,221.55585,29.4,98692.0,1.1726242
118864446,221.55585,29.41,98692.0,1.1726242
118874980,221.72496,29.41,98690.0,1.1726005
118885747,221.3841,29.41,98694.0,1.172648
118906947,221.55585,29.4,98692.0,1.1726242
118917499,221.55585,29.4,98692.0,1.1726242
118928450,221.30219,29.4,98694.99,1.1726598
118949447,221.4713,29.41,98693.0,1.1726362
118959594,221.30219,29.41,98694.99,1.1726598
118970995,221.4713,29.41,98693.0,1.1726362
118991734,220.62047,29.41,98703.0,1.1727549
119003004,221.3841,29.41,98694.0,1.172648
119013436,221.215,29.41,98696.0,1.1726718
119035521,221.30219,29.41,98694.99,1.1726598
119047289,221.3841,29.41,98694.0,1.172648
119057436,221.55585,29.41,98692.0,1.1726242
119079550,221.72496,29.41,98690.0,1.1726005
119090972,221.215,29.41,98696.0,1.1726718
119101464,221.64041,29.41,98691.0,1.1726123
119123043,221.55585,29.41,98692.0,1.1726242
119133447,221.4713,29.41,98693.0,1.1726362
119143781,222.23492,29.41,98684.0,1.1725292
119167518,221.30219,29.41,98694.99,1.1726598
119179014,221.4713,29.41,98693.0,1.1726362
119189769,221.215,29.41,98696.0,1.1726718
119211026,221.3841,29.41,98694.0,1.172648
119221450,221.98126,29.41,98687.0,1.1725649
119232450,221.55585,29.41,98692.0,1.1726242
119253435,221.64041,29.41,98691.0,1.1726123
119264461,221.72496,29.41,98690.0,1.1726005
119274921,221.3841,29.41,98694.0,1.172648
119296435,221.04588,29.41,98698.0,1.1726955
119308329,221.3841,29.41,98694.0,1.172648
119318435,221.215,29.41,98696.0,1.1726718
119340447,221.3841,29.42,98694.0,1.172648
119352596,221.64041,29.42,98691.0,1.1726123
119363711,221.3841,29.42,98694.0,1.172648
119386436,221.4713,29.41,98693.0,1.1726362
119397826,221.4713,29.41,98693.0,1.1726362
119408418,221.4713,29.41,98693.0,1.1726362
119429480,221.72496,29.41,98690.0,1.1726005
119440440,221.55585,29.41,98692.0,1.1726242
119451671,221.98126,29.41,98687.0,1.1725649
119473436,221.3841,29.42,98694.0,1.172648
119483733,221.55585,29.42,98692.0,1.1726242
119494485,221.72496,29.42,98690.0,1.1726005
119515818,221.55585,29.41,98692.0,1.1726242
119526446,221.72496,29.41,98690.0,1.1726005
119537435,221.215,29.41,98696.0,1.1726718
119560016,221.72496,29.42,98690.0,1.1726005
119570436,221.215,29.42,98696.0,1.1726718
119581748,221.89671,29.42,98688.0,1.1725767
119604099,221.72496,29.42,98690.0,1.1726005
119614436,221.55585,29.42,98692.0,1.1726242
119625768,221.30219,29.42,98694.99,1.1726598
119649616,221.30219,29.42,98694.99,1.1726598
119659964,221.64041,29.42,98691.0,1.1726123
119670436,221.72496,29.42,98690.0,1.1726005
119691705,221.4713,29.42,98693.0,1.1726362
119702476,221.13043,29.42,98697.0,1.1726836
119713436,221.215,29.42,98696.0,1.1726718
119734449,221.3841,29.42,98694.0,1.172648
119745436,221.55585,29.42,98692.0,1.1726242
119756436,221.64041,29.42,98691.0,1.1726123
119778436,221.3841,29.42,98694.0,1.172648
119789436,221.3841,29.42,98694.0,1.172648
119800437,221.13043,29.42,98697.0,1.1726836
119822499,221.3841,29.42,98694.0,1.172648
119833436,221.55585,29.42,98692.0,1.1726242
119843816,221.64041,29.42,98691.0,1.1726123
119865454,222.06581,29.42,98686.0,1.172553
119876593,221.89671,29.42,98688.0,1.1725767
119889139,221.30219,29.42,98694.99,1.1726598
119913346,221.30219,29.42,98694.99,1.1726598
119924609,221.55585,29.42,98692.0,1.1726242
119937570,221.55585,29.42,98692.0,1.1726242
119961384,221.98126,29.42,98687.0,1.1725649
119972572,221.55585,29.42,98692.0,1.1726242
119985347,221.55585,29.42,98692.0,1.1726242
120008844,221.30219,29.42,98694.99,1.1726598
120018850,221.72496,29.42,98690.0,1.1726005
120028668,221.81215,29.42,98688.99,1.1725885
120052570,221.4713,29.42,98693.0,1.1726362
120065279,221.81215,29.42,98688.99,1.1725885
120076544,221.81215,29.42,98688.99,1.1725885
120099847,221.72496,29.42,98690.0,1.1726005
120110771,221.4713,29.42,98693.0,1.1726362
120121331,221.55585,29.42,98692.0,1.1726242
120142447,221.3841,29.42,98694.0,1.172648
120152850,221.64041,29.42,98691.0,1.1726123
120164859,222.06581,29.42,98686.0,1.172553
120188635,221.30219,29.42,98694.99,1.1726598
120200850,221.215,29.42,98696.0,1.1726718
120210900,221.81215,29.42,98688.99,1.1725885
120233118,221.215,29.429998,98696.0,1.1726718
120242436,221.4713,29.429998,98693.0,1.1726362
120252686,221.55585,29.429998,98692.0,1.1726242
120276559,221.81215,29.429998,98688.99,1.1725885
120289234,221.4713,29.429998,98693.0,1.1726362
120300652,221.64041,29.429998,98691.0,1.1726123
120323772,221.13043,29.429998,98697.0,1.1726836
120334435,221.98126,29.429998,98687.0,1.1725649
120345151,221.55585,29.429998,98692.0,1.1726242
120369131,221.4713,29.429998,98693.0,1.1726362
120380606,221.215,29.429998,98696.0,1.1726718
120392930,220.95868,29.429998,98699.0,1.1727074
120416878,220.95868,29.429998,98699.0,1.1727074
120427545,221.72496,29.429998,98690.0,1.1726005
120437488,221.04588,29.429998,98698.0,1.1726955
120461295,222.40668,29.429998,98682.0,1.1725054
120471548,220.95868,29.429998,98699.0,1.1727074
120482124,221.3841,29.429998,98694.0,1.172648
120503597,221.4713,29.429998,98693.0,1.1726362
120514436,221.72496,29.429998,98690.0,1.1726005
120525390,221.81215,29.429998,98688.99,1.1725885
120545771,221.55585,29.429998,98692.0,1.1726242
120557386,221.55585,29.429998,98692.0,1.1726242
120567444,221.89671,29.429998,98688.0,1.1725767
120589446,222.15038,29.439999,98685.0,1.172541
120603041,221.55585,29.439999,98692.0,1.1726242
120613440,221.64041,29.439999,98691.0,1.1726123
120634436,221.30219,29.439999,98694.99,1.1726598
120645407,220.87413,29.439999,98700.0,1.1727192
120655756,221.4713,29.439999,98693.0,1.1726362
120677349,221.4713,29.439999,98693.0,1.1726362
120687524,221.64041,29.439999,98691.0,1.1726123
120697573,220.62047,29.439999,98703.0,1.1727549
120719437,221.30219,29.449999,98694.99,1.1726598
120730437,221.4713,29.449999,98693.0,1.1726362
120741419,221.3841,29.449999,98694.0,1.172648
120762173,221.55585,29.439999,98692.0,1.1726242
120773305,221.89671,29.439999,98688.0,1.1725767
120783448,221.30219,29.439999,98694.99,1.1726598
120805439,220.87413,29.449999,98700.0,1.1727192
120817629,221.72496,29.449999,98690.0,1.1726005
120829387,221.55585,29.449999,98692.0,1.1726242
120850436,221.81215,29.439999,98688.99,1.1725885
120861343,221.55585,29.439999,98692.0,1.1726242
120871802,221.81215,29.439999,98688.99,1.1725885
120893319,221.3841,29.449999,98694.0,1.172648
120903442,221.72496,29.449999,98690.0,1.1726005
120914436,221.3841,29.449999,98694.0,1.172648
120935545,221.64041,29.449999,98691.0,1.1726123
120946446,221.81215,29.449999,98688.99,1.1725885
120957492,221.30219,29.449999,98694.99,1.1726598
120981481,221.3841,29.449999,98694.0,1.172648
120993950,220.95868,29.449999,98699.0,1.1727074
121005369,221.215,29.449999,98696.0,1.1726718
121026444,221.64041,29.449999,98691.0,1.1726123
121037418,221.64041,29.449999,98691.0,1.1726123
121047442,221.30219,29.449999,98694.99,1.1726598
121070198,221.89671,29.46,98688.0,1.1725767
121080436,221.55585,29.46,98692.0,1.1726242
121091438,221.215,29.46,98696.0,1.1726718
121112762,221.64041,29.449999,98691.0,1.1726123
121123009,221.64041,29.449999,98691.0,1.1726123
121134217,221.215,29.449999,98696.0,1.1726718
121154458,221.81215,29.449999,98688.99,1.1725885
121166128,221.4713,29.449999,98693.0,1.1726362
121176442,221.98126,29.449999,98687.0,1.1725649
121198153,222.06581,29.449999,98686.0,1.172553
121208450,221.215,29.449999,98696.0,1.1726718
121218856,221.64041,29.449999,98691.0,1.1726123
121240449,221.55585,29.449999,98692.0,1.1726242
121250805,221.98126,29.449999,98687.0,1.1725649
121260450,221.72496,29.449999,98690.0,1.1726005
121282439,221.55585,29.46,98692.0,1.1726242
121294480,221.3841,29.46,98694.0,1.172648
121306366,220.95868,29.46,98699.0,1.1727074
121327510,221.3841,29.46,98694.0,1.172648
121339569,221.64041,29.46,98691.0,1.1726123
121350461,221.215,29.46,98696.0,1.1726718
121374157,221.30219,29.46,98694.99,1.1726598
121384818,221.215,29.46,98696.0,1.1726718
121394904,221.55585,29.46,98692.0,1.1726242
121416436,221.55585,29.46,98692.0,1.1726242
121427547,221.64041,29.46,98691.0,1.1726123
121438485,221.89671,29.46,98688.0,1.1725767
121459617,221.4713,29.46,98693.0,1.1726362
121470437,221.4713,29.46,98693.0,1.1726362
121480800,221.4713,29.46,98693.0,1.1726362
121502265,221.30219,29.47,98694.99,1.1726598
121512439,221.3841,29.47,98694.0,1.172648
121522511,221.72496,29.47,98690.0,1.1726005
121543581,220.87413,29.46,98700.0,1.1727192
121554489,221.4713,29.46,98693.0,1.1726362
121564495,221.55585,29.46,98692.0,1.1726242
121587064,221.64041,29.46,98691.0,1.1726123
121598480,221.55585,29.46,98692.0,1.1726242
121608439,221.3841,29.46,98694.0,1.172648
121628436,221.55585,29.47,98692.0,1.1726242
121639531,221.81215,29.47,98688.99,1.1725885
121651320,221.4713,29.47,98693.0,1.1726362
121671531,221.4713,29.47,98693.0,1.1726362
121682962,221.215,29.47,98696.0,1.1726718
121693448,221.4713,29.47,98693.0,1.1726362
121714996,221.64041,29.47,98691.0,1.1726123
121725436,221.04588,29.47,98698.0,1.1726955
121736439,221.4713,29.47,98693.0,1.1726362
121758117,221.3841,29.47,98694.0,1.172648
121767575,221.13043,29.47,98697.0,1.1726836
121778952,221.72496,29.47,98690.0,1.1726005
121800033,221.64041,29.48,98691.0,1.1726123
121810970,221.3841,29.48,98694.0,1.172648
121821436,221.4713,29.48,98693.0,1.1726362
121842911,221.3841,29.48,98694.0,1.172648
121853534,221.55585,29.48,98692.0,1.1726242
121864482,221.13043,29.48,98697.0,1.1726836
121887613,221.4713,29.47,98693.0,1.1726362
121899102,221.81215,29.47,98688.99,1.1725885
121909451,221.55585,29.47,98692.0,1.1726242
121930999,221.3841,29.47,98694.0,1.172648
121941747,220.70502,29.47,98701.99,1.172743
121951709,221.30219,29.47,98694.99,1.1726598
121973446,221.30219,29.47,98694.99,1.1726598
121983562,221.55585,29.47,98692.0,1.1726242
121994910,221.13043,29.47,98697.0,1.1726836
122016439,221.04588,29.48,98698.0,1.1726955
122026936,221.81215,29.48,98688.99,1.1725885
122038133,221.55585,29.48,98692.0,1.1726242
122059060,221.64041,29.48,98691.0,1.1726123
122068435,221.72496,29.48,98690.0,1.1726005
122079582,221.72496,29.48,98690.0,1.1726005
122100439,221.64041,29.48,98691.0,1.1726123
122111260,221.81215,29.48,98688.99,1.1725885
122121447,221.64041,29.48,98691.0,1.1726123
122143814,221.215,29.48,98696.0,1.1726718
122154950,221.4713,29.48,98693.0,1.1726362
122164533,221.215,29.48,98696.0,1.1726718
122185494,221.4713,29.48,98693.0,1.1726362
122196761,221.215,29.48,98696.0,1.1726718
122206485,221.3841,29.48,98694.0,1.172648
122227866,221.30219,29.49,98694.99,1.1726598
122238436,221.30219,29.49,98694.99,1.1726598
122248489,221.3841,29.49,98694.0,1.172648
122270439,221.55585,29.49,98692.0,1.1726242
122280449,221.4713,29.49,98693.0,1.1726362
122291869,221.30219,29.49,98694.99,1.1726598
122313435,221.72496,29.48,98690.0,1.1726005
122323764,221.72496,29.48,98690.0,1.1726005
122336009,221.3841,29.48,98694.0,1.172648
122357753,221.4713,29.48,98693.0,1.1726362
122368473,222.15038,29.48,98685.0,1.172541
122380097,221.72496,29.48,98690.0,1.1726005
122401135,221.30219,29.48,98694.99,1.1726598
122411706,221.72496,29.48,98690.0,1.1726005
122422435,221.4713,29.48,98693.0,1.1726362
122443736,222.06581,29.49,98686.0,1.172553
122454531,221.4713,29.49,98693.0,1.1726362
122465436,221.4713,29.49,98693.0,1.1726362
122486436,221.3841,29.49,98694.0,1.172648
122496558,221.215,29.49,98696.0,1.1726718
122507880,221.64041,29.49,98691.0,1.1726123
122530436,221.215,29.49,98696.0,1.1726718
122541773,221.4713,29.49,98693.0,1.1726362
122552440,221.55585,29.49,98692.0,1.1726242
122574450,221.30219,29.49,98694.99,1.1726598
122585911,221.72496,29.49,98690.0,1.1726005
122596436,221.64041,29.49,98691.0,1.1726123
122619835,221.215,29.49,98696.0,1.1726718
122632174,221.30219,29.49,98694.99,1.1726598
122642480,221.64041,29.49,98691.0,1.1726123
122664442,221.72496,29.49,98690.0,1.1726005
122676098,221.98126,29.49,98687.0,1.1725649
122686467,221.13043,29.49,98697.0,1.1726836
122708436,221.215,29.49,98696.0,1.1726718
122720789,221.98126,29.49,98687.0,1.1725649
122731835,221.64041,29.49,98691.0,1.1726123
122754436,221.30219,29.49,98694.99,1.1726598
122765751,221.4713,29.49,98693.0,1.1726362
122776439,221.13043,29.49,98697.0,1.1726836
122798447,221.64041,29.49,98691.0,1.1726123
122808441,221.30219,29.49,98694.99,1.1726598
122819814,221.64041,29.49,98691.0,1.1726123
122841436,221.64041,29.49,98691.0,1.1726123
122852476,221.81215,29.49,98688.99,1.1725885
122864914,221.89671,29.49,98688.0,1.1725767
122889270,221.3841,29.5,98694.0,1.172648
122900533,221.215,29.5,98696.0,1.1726718
122912940,221.98126,29.5,98687.0,1.1725649
122936951,221.55585,29.49,98692.0,1.1726242
122948973,221.64041,29.49,98691.0,1.1726123
122961152,221.81215,29.49,98688.99,1.1725885
122984956,221.4713,29.49,98693.0,1.1726362
122996586,221.55585,29.49,98692.0,1.1726242
123009273,221.81215,29.49,98688.99,1.1725885
123030489,221.64041,29.49,98691.0,1.1726123
123040814,222.06581,29.49,98686.0,1.172553
123052585,221.3841,29.49,98694.0,1.172648
123076517,221.55585,29.49,98692.0,1.1726242
123088897,221.64041,29.49,98691.0,1.1726123
123100548,221.55585,29.49,98692.0,1.1726242
123124517,220.95868,29.49,98699.0,1.1727074
123136801,221.55585,29.49,98692.0,1.1726242
123148648,221.98126,29.49,98687.0,1.1725649
123172867,221.30219,29.5,98694.99,1.1726598
123183776,221.55585,29.5,98692.0,1.1726242
123193433,221.215,29.5,98696.0,1.1726718
123217285,221.81215,29.49,98688.99,1.1725885
123228654,221.81215,29.49,98688.99,1.1725885
123241209,221.72496,29.49,98690.0,1.1726005
123260531,221.72496,29.5,98690.0,1.1726005
123273166,222.06581,29.5,98686.0,1.172553
123284570,221.55585,29.5,98692.0,1.1726242
123304869,221.3841,29.5,98694.0,1.172648
123316629,221.89671,29.5,98688.0,1.1725767
123329409,221.13043,29.5,98697.0,1.1726836
123353474,221.98126,29.5,98687.0,1.1725649
123365355,221.72496,29.5,98690.0,1.1726005
123375554,221.72496,29.5,98690.0,1.1726005
123397508,221.30219,29.5,98694.99,1.1726598
123407819,221.4713,29.5,98693.0,1.1726362
123418523,221.215,29.5,98696.0,1.1726718
123439601,221.72496,29.5,98690.0,1.1726005
123449672,221.98126,29.5,98687.0,1.1725649
123461355,221.81215,29.5,98688.99,1.1725885
123482128,221.3841,29.51,98694.0,1.172648
123493353,221.4713,29.51,98693.0,1.1726362
123503916,221.30219,29.51,98694.99,1.1726598
123525378,221.3841,29.51,98694.0,1.172648
123535446,221.64041,29.51,98691.0,1.1726123
123546440,221.64041,29.51,98691.0,1.1726123
123567437,221.55585,29.51,98692.0,1.1726242
123578440,221.4713,29.51,98693.0,1.1726362
123589500,221.81215,29.51,98688.99,1.1725885
123610157,221.55585,29.51,98692.0,1.1726242
123621437,221.3841,29.51,98694.0,1.172648
123631437,221.3841,29.51,98694.0,1.172648
123653440,221.4713,29.519999,98693.0,1.1726362
123666067,221.04588,29.519999,98698.0,1.1726955
123677333,221.3841,29.519999,98694.0,1.172648
123698436,221.55585,29.51,98692.0,1.1726242
123709500,221.4713,29.51,98693.0,1.1726362
123719802,221.55585,29.51,98692.0,1.1726242
123741347,221.13043,29.519999,98697.0,1.1726836
123751453,221.89671,29.519999,98688.0,1.1725767
123762436,221.64041,29.519999,98691.0,1.1726123
123785597,221.64041,29.519999,98691.0,1.1726123
123797342,221.4713,29.519999,98693.0,1.1726362
123806436,221.30219,29.519999,98694.99,1.1726598
123829463,221.4713,29.519999,98693.0,1.1726362
123839790,221.89671,29.519999,98688.0,1.1725767
123850283,221.64041,29.519999,98691.0,1.1726123
123871450,221.55585,29.519999,98692.0,1.1726242
123882435,221.89671,29.519999,98688.0,1.1725767
123893439,221.55585,29.519999,98692.0,1.1726242
123917473,221.64041,29.519999,98691.0,1.1726123
123929635,221.64041,29.519999,98691.0,1.1726123
123941420,221.30219,29.519999,98694.99,1.1726598
123965417,221.215,29.519999,98696.0,1.1726718
123975437,221.72496,29.519999,98690.0,1.1726005
123986476,221.30219,29.519999,98694.99,1.1726598
124007812,221.3841,29.519999,98694.0,1.172648
124018273,221.64041,29.519999,98691.0,1.1726123
124029421,221.72496,29.519999,98690.0,1.1726005
124050439,221.72496,29.519999,98690.0,1.1726005
124062157,221.98126,29.519999,98687.0,1.1725649
124072436,221.13043,29.519999,98697.0,1.1726836
124094151,222.06581,29.519999,98686.0,1.172553
124104502,222.15038,29.519999,98685.0,1.172541
124114766,221.55585,29.519999,98692.0,1.1726242
124138840,221.72496,29.519999,98690.0,1.1726005
124150509,221.3841,29.519999,98694.0,1.172648
124162826,221.30219,29.519999,98694.99,1.1726598
124186953,221.72496,29.529999,98690.0,1.1726005
124198417,221.55585,29.529999,98692.0,1.1726242
124208499,221.64041,29.529999,98691.0,1.1726123
124230461,221.81215,29.519999,98688.99,1.1725885
124240448,221.81215,29.519999,98688.99,1.1725885
124250510,221.55585,29.519999,98692.0,1.1726242
124272446,221.215,29.529999,98696.0,1.1726718
124283641,221.04588,29.529999,98698.0,1.1726955
124294203,221.4713,29.529999,98693.0,1.1726362
124314831,221.55585,29.529999,98692.0,1.1726242
124326232,221.3841,29.529999,98694.0,1.172648
124336787,221.55585,29.529999,98692.0,1.1726242
124358156,221.30219,29.529999,98694.99,1.1726598
124368439,221.3841,29.529999,98694.0,1.172648
124379535,221.89671,29.529999,98688.0,1.1725767
124400447,221.215,29.529999,98696.0,1.1726718
124411535,221.55585,29.529999,98692.0,1.1726242
124422177,221.72496,29.529999,98690.0,1.1726005
124443076,221.89671,29.529999,98688.0,1.1725767
124454174,221.72496,29.529999,98690.0,1.1726005
124464445,221.30219,29.529999,98694.99,1.1726598
124486137,220.95868,29.529999,98699.0,1.1727074
124496436,221.30219,29.529999,98694.99,1.1726598
124507571,221.30219,29.529999,98694.99,1.1726598
124528824,221.81215,29.529999,98688.99,1.1725885
124539642,221.55585,29.529999,98692.0,1.1726242
124550486,221.55585,29.529999,98692.0,1.1726242
124571561,221.30219,29.539999,98694.99,1.1726598
124582233,221.30219,29.539999,98694.99,1.1726598
124592439,221.81215,29.539999,98688.99,1.1725885
124614447,221.215,29.539999,98696.0,1.1726718
124626945,221.215,29.539999,98696.0,1.1726718
124638143,221.98126,29.539999,98687.0,1.1725649
124659008,221.04588,29.539999,98698.0,1.1726955
124670240,222.15038,29.539999,98685.0,1.172541
124680436,221.215,29.539999,98696.0,1.1726718
124701436,221.04588,29.539999,98698.0,1.1726955
124712435,221.55585,29.539999,98692.0,1.1726242
124723616,221.98126,29.539999,98687.0,1.1725649
124743717,221.3841,29.539999,98694.0,1.172648
124755024,221.215,29.539999,98696.0,1.1726718
124766149,221.3841,29.539999,98694.0,1.172648
124785439,221.64041,29.539999,98691.0,1.1726123
124796435,221.72496,29.539999,98690.0,1.1726005
124808082,221.55585,29.539999,98692.0,1.1726242
124828436,221.64041,29.539999,98691.0,1.1726123
124839610,221.64041,29.539999,98691.0,1.1726123
124851064,222.15038,29.539999,98685.0,1.172541
124871661,221.55585,29.55,98692.0,1.1726242
124882872,221.98126,29.55,98687.0,1.1725649
124892485,221.55585,29.55,98692.0,1.1726242
124913497,221.3841,29.55,98694.0,1.172648
124924780,221.64041,29.55,98691.0,1.1726123
124935320,221.55585,29.55,98692.0,1.1726242
124955558,221.30219,29.55,98694.99,1.1726598
124968099,221.3841,29.55,98694.0,1.172648
124979093,221.30219,29.55,98694.99,1.1726598
125000431,221.13043,29.55,98697.0,1.1726836
125011536,221.215,29.55,98696.0,1.1726718
125021436,221.55585,29.55,98692.0,1.1726242
125043535,221.4713,29.55,98693.0,1.1726362
125053436,221.4713,29.55,98693.0,1.1726362
125064439,221.55585,29.55,98692.0,1.1726242
125085763,221.215,29.55,98696.0,1.1726718
125095686,221.81215,29.55,98688.99,1.1725885
125107051,221.72496,29.55,98690.0,1.1726005
125127573,221.30219,29.55,98694.99,1.1726598
125139065,221.81215,29.55,98688.99,1.1725885
125149435,221.04588,29.55,98698.0,1.1726955
125171019,221.3841,29.55,98694.0,1.172648
125182155,221.55585,29.55,98692.0,1.1726242
125191911,221.4713,29.55,98693.0,1.1726362
125212442,221.30219,29.55,98694.99,1.1726598
125223511,221.72496,29.55,98690.0,1.1726005
125235032,221.64041,29.55,98691.0,1.1726123
125256436,221.04588,29.56,98698.0,1.1726955
125267004,221.3841,29.56,98694.0,1.172648
125277436,221.30219,29.56,98694.99,1.1726598
125299784,221.3841,29.56,98694.0,1.172648
125310435,221.72496,29.56,98690.0,1.1726005
125321436,221.30219,29.56,98694.99,1.1726598
125342436,221.3841,29.56,98694.0,1.172648
125353436,221.215,29.56,98696.0,1.1726718
125363954,221.72496,29.56,98690.0,1.1726005
125384794,220.95868,29.56,98699.0,1.1727074
125395755,221.64041,29.56,98691.0,1.1726123
125408683,221.4713,29.56,98693.0,1.1726362
125432045,221.13043,29.56,98697.0,1.1726836
125442439,222.06581,29.56,98686.0,1.172553
125453747,221.30219,29.56,98694.99,1.1726598
125476079,221.72496,29.56,98690.0,1.1726005
125486447,221.89671,29.56,98688.0,1.1725767
125497751,221.4713,29.56,98693.0,1.1726362
125520709,221.13043,29.56,98697.0,1.1726836
125531736,221.3841,29.56,98694.0,1.172648
125544025,221.4713,29.56,98693.0,1.1726362
125565774,221.13043,29.56,98697.0,1.1726836
125576434,221.13043,29.56,98697.0,1.1726836
125587814,221.89671,29.56,98688.0,1.1725767
125608620,221.4713,29.56,98693.0,1.1726362
125619755,221.64041,29.56,98691.0,1.1726123
125630439,221.81215,29.56,98688.99,1.1725885
125652436,221.64041,29.56,98691.0,1.1726123
125663918,221.3841,29.56,98694.0,1.172648
125674448,221.64041,29.56,98691.0,1.1726123
125696705,221.3841,29.56,98694.0,1.172648
125707772,221.215,29.56,98696.0,1.1726718
125718446,221.30219,29.56,98694.99,1.1726598
125740439,221.64041,29.56,98691.0,1.1726123
125750485,221.3841,29.56,98694.0,1.172648
125761442,221.30219,29.56,98694.99,1.1726598
125782445,221.3841,29.57,98694.0,1.172648
125793446,221.4713,29.57,98693.0,1.1726362
125803746,221.215,29.57,98696.0,1.1726718
125825758,221.4713,29.57,98693.0,1.1726362
125835733,221.04588,29.57,98698.0,1.1726955
125846511,221.4713,29.57,98693.0,1.1726362
125868653,221.64041,29.57,98691.0,1.1726123
125880786,221.215,29.57,98696.0,1.1726718
125892602,221.64041,29.57,98691.0,1.1726123
125916601,221.30219,29.57,98694.99,1.1726598
125928866,221.30219,29.57,98694.99,1.1726598
125940642,221.4713,29.57,98693.0,1.1726362
125964498,221.30219,29.56,98694.99,1.1726598
125976746,221.64041,29.56,98691.0,1.1726123
125988679,221.55585,29.56,98692.0,1.1726242
126012534,221.3841,29.56,98694.0,1.172648
126025224,221.89671,29.56,98688.0,1.1725767
126036552,221.64041,29.56,98691.0,1.1726123
126060577,221.89671,29.56,98688.0,1.1725767
126073229,221.55585,29.56,98692.0,1.1726242
126084548,221.4713,29.56,98693.0,1.1726362
126108732,221.55585,29.56,98692.0,1.1726242
126120955,221.81215,29.56,98688.99,1.1725885
126132543,221.72496,29.56,98690.0,1.1726005
126156538,221.81215,29.56,98688.99,1.1725885
126169459,221.55585,29.56,98692.0,1.1726242
126180608,221.4713,29.56,98693.0,1.1726362
126202080,221.81215,29.56,98688.99,1.1725885
126212674,221.04588,29.56,98698.0,1.1726955
126224825,221.81215,29.56,98688.99,1.1725885
126249273,221.3841,29.56,98694.0,1.172648
126260537,221.64041,29.56,98691.0,1.1726123
126272836,220.95868,29.56,98699.0,1.1727074
126296851,221.215,29.57,98696.0,1.1726718
126308677,221.55585,29.57,98692.0,1.1726242
126320877,221.4713,29.57,98693.0,1.1726362
126344807,221.4713,29.56,98693.0,1.1726362
126356673,221.4713,29.56,98693.0,1.1726362
126369222,222.32213,29.56,98682.99,1.1725172
126390454,221.72496,29.56,98690.0,1.1726005
126403197,221.72496,29.56,98690.0,1.1726005
126413490,221.4713,29.56,98693.0,1.1726362
126437459,222.23492,29.57,98684.0,1.1725292
126447588,221.64041,29.57,98691.0,1.1726123
126458435,221.98126,29.57,98687.0,1.1725649
126479889,221.30219,29.57,98694.99,1.1726598
126490045,221.215,29.57,98696.0,1.1726718
126501411,221.4713,29.57,98693.0,1.1726362
126522446,221.89671,29.57,98688.0,1.1725767
126533447,221.4713,29.57,98693.0,1.1726362
126543449,221.4713,29.57,98693.0,1.1726362
126565409,221.215,29.58,98696.0,1.1726718
126575788,221.215,29.58,98696.0,1.1726718
126586298,221.89671,29.58,98688.0,1.1725767
126606952,221.3841,29.58,98694.0,1.172648
126617931,221.55585,29.58,98692.0,1.1726242
126627448,222.06581,29.58,98686.0,1.172553
126649600,221.72496,29.58,98690.0,1.1726005
126661349,221.4713,29.58,98693.0,1.1726362
126671523,221.72496,29.58,98690.0,1.1726005
126693363,221.04588,29.58,98698.0,1.1726955
126703437,221.3841,29.58,98694.0,1.172648
126713946,221.81215,29.58,98688.99,1.1725885
126738035,222.06581,29.58,98686.0,1.172553
126749610,221.72496,29.58,98690.0,1.1726005
126759817,221.4713,29.58,98693.0,1.1726362
126781316,221.4713,29.58,98693.0,1.1726362
126791461,221.55585,29.58,98692.0,1.1726242
126802450,221.55585,29.58,98692.0,1.1726242
126823607,221.4713,29.59,98693.0,1.1726362
126834437,221.30219,29.59,98694.99,1.1726598
126845324,221.30219,29.59,98694.99,1.1726598
126866928,221.3841,29.59,98694.0,1.172648
126877350,221.3841,29.59,98694.0,1.172648
126887580,221.98126,29.59,98687.0,1.1725649
126909468,220.87413,29.59,98700.0,1.1727192
126919437,221.55585,29.59,98692.0,1.1726242
126930485,221.3841,29.59,98694.0,1.172648
126951903,221.64041,29.59,98691.0,1.1726123
126962429,221.215,29.59,98696.0,1.1726718
126973381,221.4713,29.59,98693.0,1.1726362
126993617,221.98126,29.59,98687.0,1.1725649
127005360,221.89671,29.59,98688.0,1.1725767
127015440,221.4713,29.59,98693.0,1.1726362
127037389,221.13043,29.59,98697.0,1.1726836
127047763,221.81215,29.59,98688.99,1.1725885
127058925,221.64041,29.59,98691.0,1.1726123
127082570,221.3841,29.599998,98694.0,1.172648
127094130,221.89671,29.599998,98688.0,1.1725767
127103447,220.87413,29.599998,98700.0,1.1727192
127126249,221.64041,29.59,98691.0,1.1726123
127136514,221.81215,29.59,98688.99,1.1725885
127146464,221.13043,29.59,98697.0,1.1726836
127170396,221.215,29.59,98696.0,1.1726718
127180776,221.4713,29.59,98693.0,1.1726362
127190467,221.4713,29.59,98693.0,1.1726362
127214249,221.30219,29.59,98694.99,1.1726598
127224790,221.4713,29.59,98693.0,1.1726362
127234834,221.215,29.59,98696.0,1.1726718
127256447,221.55585,29.599998,98692.0,1.1726242
127267584,221.3841,29.599998,98694.0,1.172648
127278436,221.55585,29.599998,98692.0,1.1726242
127299514,221.30219,29.599998,98694.99,1.1726598
127310121,221.30219,29.599998,98694.99,1.1726598
127320761,221.3841,29.599998,98694.0,1.172648
127342220,221.72496,29.599998,98690.0,1.1726005
127352448,221.55585,29.599998,98692.0,1.1726242
127363590,221.4713,29.599998,98693.0,1.1726362
127386566,220.79222,29.609999,98700.99,1.172731
127398130,221.72496,29.609999,98690.0,1.1726005
127407674,221.215,29.609999,98696.0,1.1726718
127428497,221.4713,29.599998,98693.0,1.1726362
127439931,221.89671,29.599998,98688.0,1.1725767
127449431,221.81215,29.599998,98688.99,1.1725885
127470435,221.64041,29.599998,98691.0,1.1726123
127480436,221.81215,29.599998,98688.99,1.1725885
127491589,221.64041,29.599998,98691.0,1.1726123
127512446,221.215,29.609999,98696.0,1.1726718
127522979,221.72496,29.609999,98690.0,1.1726005
127534553,221.215,29.609999,98696.0,1.1726718
127558514,221.4713,29.599998,98693.0,1.1726362
127570969,221.4713,29.599998,98693.0,1.1726362
127582557,221.3841,29.599998,98694.0,1.172648
127606495,221.30219,29.599998,98694.99,1.1726598
127619828,221.4713,29.599998,98693.0,1.1726362
127630550,221.72496,29.599998,98690.0,1.1726005
127654503,221.3841,29.599998,98694.0,1.172648
127667254,221.4713,29.599998,98693.0,1.1726362
127679036,221.3841,29.599998,98694.0,1.172648
127699547,221.30219,29.599998,98694.99,1.1726598
127710991,221.04588,29.599998,98698.0,1.1726955
127721435,221.4713,29.599998,98693.0,1.1726362
127742874,221.55585,29.609999,98692.0,1.1726242
127753447,221.30219,29.609999,98694.99,1.1726598
127763700,221.4713,29.609999,98693.0,1.1726362
127784439,221.215,29.599998,98696.0,1.1726718
127795542,221.4713,29.599998,98693.0,1.1726362
127807024,221.30219,29.599998,98694.99,1.1726598
127827578,221.3841,29.609999,98694.0,1.172648
127839042,221.72496,29.609999,98690.0,1.1726005
127849450,221.98126,29.609999,98687.0,1.1725649
127871588,221.72496,29.609999,98690.0,1.1726005
127881446,221.3841,29.609999,98694.0,1.172648
127892446,221.72496,29.609999,98690.0,1.1726005
127915745,221.04588,29.609999,98698.0,1.1726955
127927006,221.81215,29.609999,98688.99,1.1725885
127938168,221.13043,29.609999,98697.0,1.1726836
127959029,221.81215,29.609999,98688.99,1.1725885
127969436,221.04588,29.609999,98698.0,1.1726955
127980439,221.4713,29.609999,98693.0,1.1726362
128001450,221.3841,29.609999,98694.0,1.172648
128012477,221.55585,29.609999,98692.0,1.1726242
128022957,221.81215,29.609999,98688.99,1.1725885
128043738,221.64041,29.609999,98691.0,1.1726123
128054915,221.64041,29.609999,98691.0,1.1726123
128065449,221.55585,29.609999,98692.0,1.1726242
128087019,221.3841,29.619999,98694.0,1.172648
128096436,221.30219,29.619999,98694.99,1.1726598
128107547,221.81215,29.619999,98688.99,1.1725885
128129757,221.30219,29.619999,98694.99,1.1726598
128139919,221.3841,29.619999,98694.0,1.172648
128150959,221.72496,29.619999,98690.0,1.1726005
128171631,221.13043,29.619999,98697.0,1.1726836
128182951,221.72496,29.619999,98690.0,1.1726005
128193446,221.98126,29.619999,98687.0,1.1725649
128215069,221.30219,29.619999,98694.99,1.1726598
128225435,221.30219,29.619999,98694.99,1.1726598
128235729,221.81215,29.619999,98688.99,1.1725885
128257436,221.72496,29.619999,98690.0,1.1726005
128268436,221.4713,29.619999,98693.0,1.1726362
128279594,221.89671,29.619999,98688.0,1.1725767
128301436,221.64041,29.619999,98691.0,1.1726123
128311837,221.55585,29.619999,98692.0,1.1726242
128322451,221.13043,29.619999,98697.0,1.1726836
128343919,221.81215,29.619999,98688.99,1.1725885
128354488,221.55585,29.619999,98692.0,1.1726242
128365435,221.98126,29.619999,98687.0,1.1725649
128386443,221.72496,29.619999,98690.0,1.1726005
128397440,221.215,29.619999,98696.0,1.1726718
128408455,221.81215,29.619999,98688.99,1.1725885
128431782,221.30219,29.63,98694.99,1.1726598
128441525,221.3841,29.63,98694.0,1.172648
128452015,221.72496,29.63,98690.0,1.1726005
128473766,221.3841,29.63,98694.0,1.172648
128484524,221.215,29.63,98696.0,1.1726718
128496063,221.72496,29.63,98690.0,1.1726005
128516436,221.30219,29.63,98694.99,1.1726598
128527884,221.72496,29.63,98690.0,1.1726005
128538447,221.55585,29.63,98692.0,1.1726242
128559808,221.13043,29.63,98697.0,1.1726836
128570449,221.215,29.63,98696.0,1.1726718
128581437,221.81215,29.63,98688.99,1.1725885
128605314,221.64041,29.63,98691.0,1.1726123
128615760,221.72496,29.63,98690.0,1.1726005
128625485,221.98126,29.63,98687.0,1.1725649
128646486,221.13043,29.63,98697.0,1.1726836
128657747,221.72496,29.63,98690.0,1.1726005
128668717,221.89671,29.63,98688.0,1.1725767
128690476,221.4713,29.63,98693.0,1.1726362
128701446,221.55585,29.63,98692.0,1.1726242
128712491,221.89671,29.63,98688.0,1.1725767
128733445,221.89671,29.63,98688.0,1.1725767
128743847,221.64041,29.63,98691.0,1.1726123
128756349,221.3841,29.63,98694.0,1.172648
128777747,220.95868,29.64,98699.0,1.1727074
128788462,221.4713,29.64,98693.0,1.1726362
128800106,220.95868,29.64,98699.0,1.1727074
128820816,221.55585,29.63,98692.0,1.1726242
128832516,221.55585,29.63,98692.0,1.1726242
128844751,222.06581,29.63,98686.0,1.172553
128864479,221.4713,29.64,98693.0,1.1726362
128876813,221.55585,29.64,98692.0,1.1726242
128888693,221.215,29.64,98696.0,1.1726718
128912480,221.55585,29.64,98692.0,1.1726242
128924842,221.215,29.64,98696.0,1.1726718
128936530,221.3841,29.64,98694.0,1.172648
128960892,221.81215,29.63,98688.99,1.1725885
128973135,221.55585,29.63,98692.0,1.1726242
128984633,221.64041,29.63,98691.0,1.1726123
129008666,221.30219,29.64,98694.99,1.1726598
129020921,221.3841,29.64,98694.0,1.172648
129032597,221.4713,29.64,98693.0,1.1726362
129056540,221.3841,29.63,98694.0,1.172648
129069170,221.81215,29.63,98688.99,1.1725885
129080538,221.72496,29.63,98690.0,1.1726005
129104592,220.87413,29.63,98700.0,1.1727192
129116952,221.81215,29.63,98688.99,1.1725885
129128520,221.72496,29.63,98690.0,1.1726005
129152578,221.55585,29.63,98692.0,1.1726242
129164913,221.4713,29.63,98693.0,1.1726362
129176583,221.55585,29.63,98692.0,1.1726242
129200678,221.4713,29.63,98693.0,1.1726362
129214003,221.98126,29.63,98687.0,1.1725649
129224605,220.95868,29.63,98699.0,1.1727074
129248614,221.72496,29.63,98690.0,1.1726005
129261151,221.30219,29.63,98694.99,1.1726598
129272549,221.72496,29.63,98690.0,1.1726005
129296555,221.64041,29.63,98691.0,1.1726123
129309144,221.4713,29.63,98693.0,1.1726362
129320723,221.3841,29.63,98694.0,1.172648
129344466,221.13043,29.64,98697.0,1.1726836
129357184,221.55585,29.64,98692.0,1.1726242
129368608,221.64041,29.64,98691.0,1.1726123
129392610,221.72496,29.63,98690.0,1.1726005
129405933,221.98126,29.63,98687.0,1.1725649
129415511,221.89671,29.63,98688.0,1.1725767
129437354,221.72496,29.63,98690.0,1.1726005
129447906,221.215,29.63,98696.0,1.1726718
129458749,221.72496,29.63,98690.0,1.1726005
129479514,221.72496,29.64,98690.0,1.1726005
129489968,221.55585,29.64,98692.0,1.1726242
129501412,221.89671,29.64,98688.0,1.1725767
129525375,221.30219,29.64,98694.99,1.1726598
129537684,221.3841,29.64,98694.0,1.172648
129549429,221.30219,29.64,98694.99,1.1726598
129573436,221.215,29.64,98696.0,1.1726718
129585618,221.72496,29.64,98690.0,1.1726005
129597382,221.72496,29.64,98690.0,1.1726005
129618292,221.72496,29.64,98690.0,1.1726005
129629515,221.72496,29.64,98690.0,1.1726005
129639774,221.4713,29.64,98693.0,1.1726362
129661365,221.13043,29.65,98697.0,1.1726836
129671440,221.81215,29.65,98688.99,1.1725885
129682440,221.4713,29.65,98693.0,1.1726362
129703562,221.13043,29.64,98697.0,1.1726836
129714435,221.89671,29.64,98688.0,1.1725767
129725435,221.64041,29.64,98691.0,1.1726123
129746073,221.4713,29.65,98693.0,1.1726362
129757486,221.3841,29.65,98694.0,1.172648
129767451,221.72496,29.65,98690.0,1.1726005
129789460,221.3841,29.65,98694.0,1.172648
129803100,221.30219,29.65,98694.99,1.1726598
129813436,221.55585,29.65,98692.0,1.1726242
129834436,221.215,29.65,98696.0,1.1726718
129845418,221.215,29.65,98696.0,1.1726718
129855784,222.06581,29.65,98686.0,1.172553
129877421,221.3841,29.65,98694.0,1.172648
129887437,221.81215,29.65,98688.99,1.1725885
129898436,221.64041,29.65,98691.0,1.1726123
129921638,221.72496,29.66,98690.0,1.1726005
129933419,221.215,29.66,98696.0,1.1726718
129943447,221.72496,29.66,98690.0,1.1726005
129965439,221.64041,29.66,98691.0,1.1726123
129975791,221.3841,29.66,98694.0,1.172648
129986835,221.4713,29.66,98693.0,1.1726362
130007522,221.30219,29.66,98694.99,1.1726598
130017627,221.215,29.66,98696.0,1.1726718
130029418,221.30219,29.66,98694.99,1.1726598
130053382,221.55585,29.66,98692.0,1.1726242
130063437,221.81215,29.66,98688.99,1.1725885
130074435,221.72496,29.66,98690.0,1.1726005
130095891,221.72496,29.66,98690.0,1.1726005
130106983,221.4713,29.66,98693.0,1.1726362
130118412,221.55585,29.66,98692.0,1.1726242
130138441,221.89671,29.66,98688.0,1.1725767
130148495,221.98126,29.66,98687.0,1.1725649
130159570,221.55585,29.66,98692.0,1.1726242
130182143,221.30219,29.66,98694.99,1.1726598
130192440,221.72496,29.66,98690.0,1.1726005
130202762,221.4713,29.66,98693.0,1.1726362
130224436,221.55585,29.67,98692.0,1.1726242
130235101,221.3841,29.67,98694.0,1.172648
130244795,221.215,29.67,98696.0,1.1726718
130266439,221.04588,29.67,98698.0,1.1726955
130278218,221.30219,29.67,98694.99,1.1726598
130288448,221.98126,29.67,98687.0,1.1725649
130310169,221.13043,29.67,98697.0,1.1726836
130319542,221.215,29.67,98696.0,1.1726718
130330437,221.89671,29.67,98688.0,1.1725767
130352759,221.72496,29.67,98690.0,1.1726005
130363039,221.3841,29.67,98694.0,1.172648
130374071,221.55585,29.67,98692.0,1.1726242
130394436,221.30219,29.67,98694.99,1.1726598
130406217,221.55585,29.67,98692.0,1.1726242
130416489,221.72496,29.67,98690.0,1.1726005
130438240,221.215,29.679998,98696.0,1.1726718
130448447,221.89671,29.679998,98688.0,1.1725767
130459021,221.3841,29.679998,98694.0,1.172648
130479591,221.215,29.67,98696.0,1.1726718
130490439,221.4713,29.67,98693.0,1.1726362
130502176,221.72496,29.67,98690.0,1.1726005
130522871,220.95868,29.679998,98699.0,1.1727074
130534098,221.30219,29.679998,98694.99,1.1726598
130544445,221.04588,29.679998,98698.0,1.1726955
130566118,221.215,29.67,98696.0,1.1726718
130576436,221.98126,29.67,98687.0,1.1725649
130587559,221.72496,29.67,98690.0,1.1726005
130608872,221.215,29.679998,98696.0,1.1726718
130619094,221.81215,29.679998,98688.99,1.1725885
130630118,221.72496,29.679998,98690.0,1.1726005
130651584,221.3841,29.679998,98694.0,1.172648
130662436,221.72496,29.679998,98690.0,1.1726005
130672436,220.79222,29.679998,98700.99,1.172731
130694968,221.55585,29.679998,98692.0,1.1726242
130705441,221.30219,29.679998,98694.99,1.1726598
130716435,221.98126,29.679998,98687.0,1.1725649
130739686,221.81215,29.679998,98688.99,1.1725885
130751117,221.4713,29.679998,98693.0,1.1726362
130761436,221.3841,29.679998,98694.0,1.172648
130783534,221.3841,29.679998,98694.0,1.172648
130793761,221.215,29.679998,98696.0,1.1726718
130804799,221.3841,29.679998,98694.0,1.172648
130825436,221.4713,29.679998,98693.0,1.1726362
130835757,221.64041,29.679998,98691.0,1.1726123
130847033,221.30219,29.679998,98694.99,1.1726598
130867577,221.55585,29.679998,98692.0,1.1726242
130879047,221.64041,29.679998,98691.0,1.1726123
130889761,221.3841,29.679998,98694.0,1.172648
130910970,221.215,29.679998,98696.0,1.1726718
130921435,221.30219,29.679998,98694.99,1.1726598
130932436,221.81215,29.679998,98688.99,1.1725885
130953436,221.55585,29.679998,98692.0,1.1726242
130964435,221.98126,29.679998,98687.0,1.1725649
130974949,221.98126,29.679998,98687.0,1.1725649
130995770,221.3841,29.689999,98694.0,1.172648
