timestamp,error_count,pressure,temperature,device_id
109422837,0,986.51996,31.96,3998474
109434151,0,986.44995,31.96,3998474
109455620,0,986.5,31.96,3998474
109466162,0,986.49,31.96,3998474
110267021,0,986.51996,32.0,3998474
110277748,0,986.47,32.0,3998474
110287974,0,986.48,32.0,3998474
110309436,0,986.47,32.01,3998474
110320436,0,986.48,32.01,3998474
110331510,0,986.50995,32.01,3998474
110352439,0,986.44995,32.0,3998474
110363595,0,986.45996,32.0,3998474
110373763,0,986.47,32.0,3998474
110503775,0,986.50995,32.01,3998474
110537747,0,986.49,32.01,3998474
110548478,0,986.45996,32.01,3998474
110570436,0,986.47,32.01,3998474
110581750,0,986.44995,32.01,3998474
110592439,0,986.44,32.01,3998474
110615875,0,986.5,32.01,3998474
110628037,0,986.44995,32.01,3998474
110637457,0,986.48,32.01,3998474
110660047,0,986.49,32.01,3998474
110670436,0,986.48,32.01,3998474
110681436,0,986.42,32.01,3998474
110703801,0,986.52997,32.01,3998474
110714505,0,986.49,32.01,3998474
110725441,0,986.50995,32.01,3998474
110746454,0,986.44995,32.02,3998474
110756485,0,986.45996,32.02,3998474
110767793,0,986.51996,32.02,3998474
110799839,0,986.48,32.02,3998474
110810447,0,986.45996,32.02,3998474
110831702,0,986.48,32.03,3998474
110842495,0,986.50995,32.03,3998474
110852508,0,986.44995,32.03,3998474
110875942,0,986.45996,32.03,3998474
110886446,0,986.50995,32.03,3998474
111112571,0,986.47,32.03,3998474
111125241,0,986.49,32.03,3998474
111160533,0,986.45996,32.03,3998474
111173243,0,986.49,32.03,3998474
111196957,0,986.47,32.03,3998474
111208692,0,986.48,32.03,3998474
111220934,0,986.44995,32.03,3998474
111244924,0,986.48,32.03,3998474
111256630,0,986.47,32.03,3998474
111269222,0,986.44995,32.03,3998474
111290445,0,986.5,32.03,3998474
111300875,0,986.47,32.03,3998474
111312593,0,986.47,32.03,3998474
111336575,0,986.54,32.04,3998474
111349130,0,986.47,32.04,3998474
111360767,0,986.50995,32.04,3998474
111384570,0,986.52997,32.04,3998474
111396812,0,986.45996,32.04,3998474
111408829,0,986.49,32.04,3998474
111432583,0,986.49,32.03,3998474
111444758,0,986.43,32.03,3998474
111588868,0,986.47,32.04,3998474
111599447,0,986.5,32.04,3998474
111621432,0,986.44,32.05,3998474
111631863,0,986.5,32.05,3998474
111642598,0,986.44995,32.05,3998474
111663535,0,986.52997,32.05,3998474
111673569,0,986.5,32.05,3998474
111685307,0,986.38995,32.05,3998474
111706435,0,986.43,32.05,3998474
111717391,0,986.47,32.05,3998474
111727752,0,986.48,32.05,3998474
111749370,0,986.49,32.059998,3998474
111882333,0,986.50995,32.059998,3998474
111893273,0,986.50995,32.059998,3998474
112328440,0,986.55,32.09,3998474
112339190,0,986.48,32.09,3998474
112362878,0,986.47,32.09,3998474
112374480,0,986.49,32.09,3998474
112387053,0,986.44995,32.09,3998474
112410820,0,986.50995,32.09,3998474
112422466,0,986.49,32.09,3998474
112434832,0,986.44995,32.09,3998474
112458923,0,986.49,32.09,3998474
112470728,0,986.49,32.09,3998474
112482988,0,986.48,32.09,3998474
112506932,0,986.47,32.09,3998474
112518778,0,986.44995,32.09,3998474
112776787,0,986.44995,32.11,3998474
112787133,0,986.48,32.11,3998474
112798184,0,986.48,32.11,3998474
112819595,0,986.44995,32.11,3998474
112830949,0,986.47,32.11,3998474
112841439,0,986.43,32.11,3998474
112862942,0,986.5,32.11,3998474
112873447,0,986.48,32.11,3998474
112884436,0,986.51996,32.11,3998474
112907676,0,986.48,32.12,3998474
112919131,0,986.49,32.12,3998474
112928499,0,986.47,32.12,3998474
112949503,0,986.47,32.12,3998474
112960773,0,986.50995,32.12,3998474
112971549,0,986.50995,32.12,3998474
112993449,0,986.45996,32.12,3998474
113004363,0,986.49,32.12,3998474
113013467,0,986.49,32.12,3998474
113035592,0,986.42,32.12,3998474
113046967,0,986.47,32.12,3998474
113057447,0,986.44,32.12,3998474
113079119,0,986.43,32.13,3998474
113089436,0,986.49,32.13,3998474
113100496,0,986.42,32.13,3998474
113121435,0,986.5,32.13,3998474
113132436,0,986.52997,32.13,3998474
113143589,0,986.45996,32.13,3998474
113165747,0,986.50995,32.13,3998474
113176436,0,986.47,32.13,3998474
113187951,0,986.45996,32.13,3998474
113209764,0,986.51996,32.14,3998474
113219678,0,986.49,32.14,3998474
113231039,0,986.50995,32.14,3998474
113252439,0,986.5,32.13,3998474
113263029,0,986.49,32.13,3998474
113273488,0,986.54,32.13,3998474
113294981,0,986.49,32.14,3998474
113305772,0,986.5,32.14,3998474
113315688,0,986.49,32.14,3998474
113337453,0,986.43,32.14,3998474
113348447,0,986.43,32.14,3998474
113359582,0,986.45996,32.14,3998474
113380437,0,986.49,32.14,3998474
113391006,0,986.44995,32.14,3998474
113403311,0,986.44995,32.14,3998474
113423577,0,986.48,32.14,3998474
113435657,0,986.47,32.14,3998474
113446874,0,986.5,32.14,3998474
113466436,0,986.56,32.149998,3998474
113477445,0,986.48,32.149998,3998474
113488440,0,986.48,32.149998,3998474
113510485,0,986.42,32.149998,3998474
113521774,0,986.48,32.149998,3998474
113531870,0,986.47,32.149998,3998474
113555948,0,986.47,32.149998,3998474
113568593,0,986.50995,32.149998,3998474
113579774,0,986.48,32.149998,3998474
113601558,0,986.50995,32.149998,3998474
113611835,0,986.48,32.149998,3998474
113622436,0,986.47,32.149998,3998474
113644440,0,986.39996,32.149998,3998474
113654487,0,986.5,32.149998,3998474
113665435,0,986.48,32.149998,3998474
113688077,0,986.49,32.16,3998474
113697570,0,986.49,32.16,3998474
113708448,0,986.48,32.16,3998474
113729436,0,986.45996,32.16,3998474
113739844,0,986.47,32.16,3998474
113750465,0,986.5,32.16,3998474
113771689,0,986.49,32.16,3998474
113784065,0,986.49,32.16,3998474
113793712,0,986.44995,32.16,3998474
113814449,0,986.51996,32.16,3998474
113825456,0,986.49,32.16,3998474
113836436,0,986.47,32.16,3998474
113856440,0,986.48,32.17,3998474
113867809,0,986.44995,32.17,3998474
113880436,0,986.48,32.17,3998474
113904459,0,986.47,32.17,3998474
113915773,0,986.44995,32.17,3998474
113928433,0,986.49,32.17,3998474
113953320,0,986.48,32.17,3998474
113964598,0,986.47,32.17,3998474
113977473,0,986.52997,32.17,3998474
114001250,0,986.47,32.16,3998474
114011369,0,986.45996,32.16,3998474
114020541,0,986.43,32.16,3998474
114040880,0,986.48,32.17,3998474
114052627,0,986.5,32.17,3998474
114064843,0,986.45996,32.17,3998474
114088852,0,986.51996,32.17,3998474
114100521,0,986.48,32.17,3998474
114110446,0,986.50995,32.17,3998474
114132631,0,986.5,32.17,3998474
114145583,0,986.47,32.17,3998474
114156639,0,986.45996,32.17,3998474
114180956,0,986.45996,32.17,3998474
114193406,0,986.49,32.17,3998474
114204603,0,986.5,32.17,3998474
114228596,0,986.47,32.18,3998474
114241304,0,986.49,32.18,3998474
114250782,0,986.44995,32.18,3998474
114273384,0,986.44,32.17,3998474
114284634,0,986.50995,32.17,3998474
114297444,0,986.48,32.17,3998474
114321294,0,986.49,32.17,3998474
114332562,0,986.50995,32.17,3998474
114345187,0,986.45996,32.17,3998474
114369320,0,986.52997,32.18,3998474
114380608,0,986.45996,32.18,3998474
114393147,0,986.5,32.18,3998474
114417251,0,986.48,32.17,3998474
114428707,0,986.44995,32.17,3998474
114441200,0,986.44995,32.17,3998474
114464948,0,986.44995,32.17,3998474
114476560,0,986.5,32.17,3998474
114486469,0,986.45996,32.17,3998474
114508654,0,986.47,32.18,3998474
114521206,0,986.45996,32.18,3998474
114532546,0,986.43,32.18,3998474
114553614,0,986.49,32.18,3998474
114565368,0,986.44995,32.18,3998474
114575619,0,986.44995,32.18,3998474
114597432,0,986.49,32.18,3998474
114607578,0,986.44995,32.18,3998474
114618165,0,986.38,32.18,3998474
114642170,0,986.45996,32.19,3998474
114653456,0,986.50995,32.19,3998474
114663906,0,986.41,32.19,3998474
114685465,0,986.48,32.19,3998474
114695530,0,986.45996,32.19,3998474
114706051,0,986.44995,32.19,3998474
114727471,0,986.51996,32.19,3998474
114738467,0,986.45996,32.19,3998474
114749506,0,986.41,32.19,3998474
114770892,0,986.49,32.2,3998474
114781467,0,986.50995,32.2,3998474
114794349,0,986.47,32.2,3998474
114815541,0,986.44,32.2,3998474
114825661,0,986.47,32.2,3998474
114837408,0,986.48,32.2,3998474
114858055,0,986.45996,32.2,3998474
114869551,0,986.45996,32.2,3998474
114879886,0,986.44,32.2,3998474
114901408,0,986.44,32.21,3998474
114911469,0,986.45996,32.21,3998474
114922474,0,986.44995,32.21,3998474
114943471,0,986.49,32.21,3998474
114954563,0,986.49,32.21,3998474
114965392,0,986.45996,32.21,3998474
114986114,0,986.51996,32.21,3998474
114997528,0,986.45996,32.21,3998474
115007531,0,986.49,32.21,3998474
115029434,0,986.47,32.21,3998474
115041963,0,986.48,32.21,3998474
115053386,0,986.48,32.21,3998474
115074140,0,986.49,32.219997,3998474
115085423,0,986.49,32.219997,3998474
115095790,0,986.45996,32.219997,3998474
115117404,0,986.45996,32.219997,3998474
115127564,0,986.54,32.219997,3998474
115137672,0,986.43,32.219997,3998474
115159471,0,986.43,32.219997,3998474
115170463,0,986.50995,32.219997,3998474
115182223,0,986.43,32.219997,3998474
115202835,0,986.49,32.219997,3998474
115214197,0,986.44995,32.219997,3998474
115224486,0,986.47,32.219997,3998474
115246225,0,986.47,32.23,3998474
115256817,0,986.45996,32.23,3998474
115266968,0,986.48,32.23,3998474
115288520,0,986.50995,32.23,3998474
115299102,0,986.45996,32.23,3998474
115310275,0,986.44995,32.23,3998474
115330551,0,986.44,32.23,3998474
115342232,0,986.49,32.23,3998474
115352787,0,986.48,32.23,3998474
115374203,0,986.49,32.23,3998474
115384476,0,986.44995,32.23,3998474
115394486,0,986.44995,32.23,3998474
115415620,0,986.47,32.239998,3998474
115426980,0,986.52997,32.239998,3998474
115438265,0,986.49,32.239998,3998474
115459064,0,986.49,32.239998,3998474
115470207,0,986.48,32.239998,3998474
115480499,0,986.49,32.239998,3998474
115502193,0,986.48,32.239998,3998474
115512479,0,986.45996,32.239998,3998474
115523144,0,986.51996,32.239998,3998474
115544836,0,986.45996,32.239998,3998474
115555570,0,986.44,32.239998,3998474
115566511,0,986.5,32.239998,3998474
115590216,0,986.48,32.239998,3998474
115600475,0,986.44,32.239998,3998474
115611814,0,986.50995,32.239998,3998474
115632475,0,986.50995,32.25,3998474
115643573,0,986.45996,32.25,3998474
115654205,0,986.5,32.25,3998474
115675546,0,986.5,32.25,3998474
115686991,0,986.48,32.25,3998474
115696521,0,986.50995,32.25,3998474
115719076,0,986.48,32.25,3998474
115729511,0,986.49,32.25,3998474
115740470,0,986.43,32.25,3998474
115761470,0,986.48,32.25,3998474
115772469,0,986.5,32.25,3998474
115783615,0,986.51996,32.25,3998474
115807025,0,986.5,32.25,3998474
115816489,0,986.47,32.25,3998474
115827907,0,986.47,32.25,3998474
115850159,0,986.51996,32.26,3998474
115859649,0,986.49,32.26,3998474
115871054,0,986.48,32.26,3998474
115891612,0,986.50995,32.26,3998474
115902984,0,986.49,32.26,3998474
115913481,0,986.47,32.26,3998474
115934937,0,986.47,32.26,3998474
115945477,0,986.48,32.26,3998474
115956471,0,986.44,32.26,3998474
115977486,0,986.49,32.26,3998474
115987800,0,986.5,32.26,3998474
115999163,0,986.48,32.26,3998474
116021481,0,986.51996,32.27,3998474
116032790,0,986.50995,32.27,3998474
116043602,0,986.54,32.27,3998474
116064681,0,986.45996,32.27,3998474
116075671,0,986.47,32.27,3998474
116087041,0,986.5,32.27,3998474
116107830,0,986.5,32.27,3998474
116119047,0,986.44995,32.27,3998474
116129475,0,986.51996,32.27,3998474
116151580,0,986.5,32.27,3998474
116161475,0,986.49,32.27,3998474
116172480,0,986.49,32.27,3998474
116194136,0,986.47,32.27,3998474
116203772,0,986.48,32.27,3998474
116215110,0,986.45996,32.27,3998474
116236528,0,986.48,32.28,3998474
116247576,0,986.47,32.28,3998474
116257487,0,986.52997,32.28,3998474
116279896,0,986.42,32.28,3998474
116290476,0,986.50995,32.28,3998474
116300564,0,986.47,32.28,3998474
116321611,0,986.44,32.28,3998474
116332782,0,986.44,32.28,3998474
116342573,0,986.45996,32.28,3998474
116364066,0,986.52997,32.28,3998474
116375810,0,986.44995,32.28,3998474
116386480,0,986.45996,32.28,3998474
116407829,0,986.48,32.29,3998474
116418465,0,986.45996,32.29,3998474
116429511,0,986.5,32.29,3998474
116452319,0,986.44995,32.29,3998474
116462467,0,986.44995,32.29,3998474
116473469,0,986.47,32.29,3998474
116494470,0,986.48,32.29,3998474
116505465,0,986.42,32.29,3998474
116516469,0,986.45996,32.29,3998474
116537485,0,986.47,32.29,3998474
116548485,0,986.47,32.29,3998474
116559883,0,986.42,32.29,3998474
116580475,0,986.5,32.29,3998474
116591884,0,986.47,32.29,3998474
116602470,0,986.43,32.29,3998474
116623778,0,986.47,32.29,3998474
116634514,0,986.47,32.29,3998474
116645470,0,986.48,32.29,3998474
116666481,0,986.45996,32.3,3998474
116677466,0,986.45996,32.3,3998474
116688470,0,986.44995,32.3,3998474
116710523,0,986.54,32.3,3998474
116721476,0,986.43,32.3,3998474
116732472,0,986.50995,32.3,3998474
116754493,0,986.5,32.3,3998474
116765464,0,986.49,32.3,3998474
116776470,0,986.50995,32.3,3998474
116798524,0,986.54,32.309998,3998474
116809465,0,986.49,32.309998,3998474
116820434,0,986.49,32.309998,3998474
116841470,0,986.45996,32.3,3998474
116852456,0,986.5,32.3,3998474
116863808,0,986.49,32.3,3998474
116884857,0,986.5,32.309998,3998474
116896886,0,986.42,32.309998,3998474
116909287,0,986.5,32.309998,3998474
116933176,0,986.48,32.309998,3998474
116944889,0,986.50995,32.309998,3998474
116957662,0,986.48,32.309998,3998474
116981397,0,986.47,32.309998,3998474
116992966,0,986.5,32.309998,3998474
117005209,0,986.48,32.309998,3998474
117029324,0,986.44,32.309998,3998474
117041181,0,986.48,32.309998,3998474
117053005,0,986.49,32.309998,3998474
117076823,0,986.43,32.309998,3998474
117089196,0,986.42,32.309998,3998474
117101291,0,986.48,32.309998,3998474
117125233,0,986.48,32.309998,3998474
117136952,0,986.49,32.309998,3998474
117149252,0,986.5,32.309998,3998474
117172872,0,986.47,32.309998,3998474
117184898,0,986.49,32.309998,3998474
117197162,0,986.45996,32.309998,3998474
117220899,0,986.5,32.309998,3998474
117232941,0,986.47,32.309998,3998474
117244934,0,986.49,32.309998,3998474
117269292,0,986.45996,32.309998,3998474
117281274,0,986.49,32.309998,3998474
117293226,0,986.45996,32.309998,3998474
117317137,0,986.47,32.309998,3998474
117329184,0,986.5,32.309998,3998474
117341310,0,986.48,32.309998,3998474
117364800,0,986.47,32.309998,3998474
117376943,0,986.48,32.309998,3998474
117389381,0,986.48,32.309998,3998474
117413206,0,986.45996,32.309998,3998474
117424949,0,986.5,32.309998,3998474
117436821,0,986.47,32.309998,3998474
117461387,0,986.52997,32.32,3998474
117472906,0,986.47,32.32,3998474
117483582,0,986.48,32.32,3998474
117503604,0,986.47,32.32,3998474
117513653,0,986.5,32.32,3998474
117525349,0,986.39996,32.32,3998474
117546470,0,986.49,32.329998,3998474
117557777,0,986.49,32.329998,3998474
117567992,0,986.49,32.329998,3998474
117589459,0,986.47,32.32,3998474
117599476,0,986.47,32.32,3998474
117610542,0,986.44,32.32,3998474
117631570,0,986.48,32.329998,3998474
117642478,0,986.45996,32.329998,3998474
117653472,0,986.49,32.329998,3998474
117673969,0,986.44995,32.34,3998474
117685418,0,986.5,32.34,3998474
117695562,0,986.5,32.34,3998474
117717511,0,986.5,32.34,3998474
117727585,0,986.50995,32.34,3998474
117738473,0,986.41,32.34,3998474
117759900,0,986.47,32.35,3998474
117770310,0,986.47,32.35,3998474
117781350,0,986.45996,32.35,3998474
117801669,0,986.50995,32.35,3998474
117813396,0,986.45996,32.35,3998474
117823470,0,986.44,32.35,3998474
117845408,0,986.50995,32.35,3998474
117855807,0,986.42,32.35,3998474
117866611,0,986.49,32.35,3998474
117887587,0,986.49,32.35,3998474
117897970,0,986.5,32.35,3998474
117909435,0,986.44,32.35,3998474
117933408,0,986.48,32.36,3998474
117943555,0,986.39996,32.36,3998474
117953994,0,986.48,32.36,3998474
117974471,0,986.51996,32.36,3998474
117986101,0,986.54,32.36,3998474
117997437,0,986.43,32.36,3998474
118017671,0,986.44995,32.36,3998474
118029499,0,986.42,32.36,3998474
118039558,0,986.49,32.36,3998474
118062197,0,986.5,32.36,3998474
118072464,0,986.42,32.36,3998474
118082797,0,986.47,32.36,3998474
118106891,0,986.52997,32.37,3998474
118118478,0,986.50995,32.37,3998474
118130811,0,986.48,32.37,3998474
118154750,0,986.47,32.36,3998474
118166515,0,986.43,32.36,3998474
118179111,0,986.48,32.36,3998474
118202807,0,986.47,32.36,3998474
118214437,0,986.43,32.36,3998474
118224480,0,986.50995,32.36,3998474
118246480,0,986.50995,32.36,3998474
118256465,0,986.45996,32.36,3998474
118266498,0,986.48,32.36,3998474
118288504,0,986.50995,32.37,3998474
118298861,0,986.49,32.37,3998474
118310247,0,986.50995,32.37,3998474
118330479,0,986.47,32.37,3998474
118342224,0,986.44995,32.37,3998474
118352792,0,986.51996,32.37,3998474
118374102,0,986.47,32.37,3998474
118384465,0,986.48,32.37,3998474
118394811,0,986.51996,32.37,3998474
118416524,0,986.50995,32.38,3998474
118426991,0,986.47,32.38,3998474
118438305,0,986.39996,32.38,3998474
118459036,0,986.44995,32.38,3998474
118470218,0,986.5,32.38,3998474
118480485,0,986.52997,32.38,3998474
118502172,0,986.43,32.38,3998474
118512465,0,986.44995,32.38,3998474
118523609,0,986.44,32.38,3998474
118544818,0,986.50995,32.38,3998474
118555016,0,986.44995,32.38,3998474
118566220,0,986.44,32.38,3998474
118586785,0,986.50995,32.39,3998474
118598192,0,986.48,32.39,3998474
118608596,0,986.50995,32.39,3998474
118630194,0,986.50995,32.399998,3998474
118640465,0,986.47,32.399998,3998474
118650900,0,986.48,32.399998,3998474
118671674,0,986.42,32.39,3998474
118682978,0,986.51996,32.39,3998474
118693485,0,986.45996,32.39,3998474
118715022,0,986.41,32.39,3998474
118726217,0,986.45996,32.39,3998474
118735644,0,986.39996,32.39,3998474
118756481,0,986.47,32.399998,3998474
118767660,0,986.45996,32.399998,3998474
118779064,0,986.47,32.399998,3998474
118799599,0,986.50995,32.399998,3998474
118811090,0,986.43,32.399998,3998474
118821469,0,986.48,32.399998,3998474
118843616,0,986.45996,32.399998,3998474
118853475,0,986.39996,32.399998,3998474
118864479,0,986.43,32.399998,3998474
118886126,0,986.47,32.41,3998474
118896394,0,986.47,32.41,3998474
118907024,0,986.47,32.41,3998474
118928484,0,986.55,32.41,3998474
118939173,0,986.44,32.41,3998474
118949481,0,986.44,32.41,3998474
118971029,0,986.49,32.41,3998474
118982216,0,986.54,32.41,3998474
118991768,0,986.45996,32.41,3998474
119013511,0,986.47,32.41,3998474
119024465,0,986.47,32.41,3998474
119035555,0,986.49,32.41,3998474
119057470,0,986.48,32.42,3998474
119068465,0,986.47,32.42,3998474
119079584,0,986.39996,32.42,3998474
119101499,0,986.54,32.42,3998474
119111660,0,986.5,32.42,3998474
119123077,0,986.47,32.42,3998474
119143815,0,986.49,32.41,3998474
119155018,0,986.45996,32.41,3998474
119167552,0,986.42,32.41,3998474
119190244,0,986.44995,32.42,3998474
119199685,0,986.45996,32.42,3998474
119211089,0,986.48,32.42,3998474
119232484,0,986.49,32.42,3998474
119243551,0,986.43,32.42,3998474
119253469,0,986.45996,32.42,3998474
119274954,0,986.49,32.42,3998474
119286184,0,986.49,32.42,3998474
119296469,0,986.51996,32.42,3998474
119318473,0,986.45996,32.42,3998474
119329958,0,986.45996,32.42,3998474
119340481,0,986.39996,32.42,3998474
119363745,0,986.5,32.43,3998474
119376113,0,986.43,32.43,3998474
119386474,0,986.44995,32.43,3998474
119408495,0,986.44,32.42,3998474
119419793,0,986.47,32.42,3998474
119429517,0,986.41,32.42,3998474
119451705,0,986.54,32.43,3998474
119462506,0,986.45996,32.43,3998474
119473470,0,986.49,32.43,3998474
119494519,0,986.47,32.43,3998474
119505465,0,986.51996,32.43,3998474
119515852,0,986.42,32.43,3998474
119537469,0,986.44995,32.44,3998474
119548469,0,986.45996,32.44,3998474
119560050,0,986.44995,32.44,3998474
119581833,0,986.49,32.44,3998474
119592487,0,986.50995,32.44,3998474
119604139,0,986.51996,32.44,3998474
119625969,0,986.44995,32.44,3998474
119636468,0,986.44995,32.44,3998474
119649650,0,986.44,32.44,3998474
119670470,0,986.49,32.44,3998474
119681505,0,986.49,32.44,3998474
119691738,0,986.45996,32.44,3998474
119713500,0,986.49,32.44,3998474
119723811,0,986.44995,32.44,3998474
119734484,0,986.44995,32.44,3998474
119756470,0,986.51996,32.45,3998474
119768103,0,986.48,32.45,3998474
119778470,0,986.44995,32.45,3998474
119800471,0,986.41,32.44,3998474
119811836,0,986.44,32.44,3998474
119822533,0,986.44,32.44,3998474
119843850,0,986.47,32.45,3998474
119854478,0,986.47,32.45,3998474
119865492,0,986.43,32.45,3998474
119889176,0,986.5,32.45,3998474
119900636,0,986.48,32.45,3998474
119913380,0,986.49,32.45,3998474
119937605,0,986.45996,32.45,3998474
119948887,0,986.5,32.45,3998474
119961421,0,986.51996,32.45,3998474
119985381,0,986.44,32.44,3998474
119996670,0,986.44,32.44,3998474
120008878,0,986.44,32.44,3998474
120028702,0,986.44,32.45,3998474
120041438,0,986.43,32.45,3998474
120052604,0,986.51996,32.45,3998474
120076578,0,986.5,32.45,3998474
120089635,0,986.47,32.45,3998474
120099882,0,986.45996,32.45,3998474
120121365,0,986.5,32.46,3998474
120132630,0,986.52997,32.46,3998474
120142512,0,986.45996,32.46,3998474
120164893,0,986.47,32.46,3998474
120176926,0,986.44995,32.46,3998474
120188669,0,986.48,32.46,3998474
120210935,0,986.48,32.46,3998474
120220648,0,986.48,32.46,3998474
120233152,0,986.44995,32.46,3998474
120252720,0,986.52997,32.46,3998474
120265138,0,986.49,32.46,3998474
120276593,0,986.44,32.46,3998474
120300687,0,986.52997,32.469997,3998474
120313247,0,986.55,32.469997,3998474
120323806,0,986.44,32.469997,3998474
120345189,0,986.47,32.469997,3998474
120356560,0,986.5,32.469997,3998474
120369165,0,986.45996,32.469997,3998474
120392965,0,986.50995,32.469997,3998474
120404624,0,986.47,32.469997,3998474
120416946,0,986.48,32.469997,3998474
120437523,0,986.47,32.469997,3998474
120449645,0,986.45996,32.469997,3998474
120461328,0,986.48,32.469997,3998474
120482158,0,986.45996,32.469997,3998474
120493368,0,986.45996,32.469997,3998474
120503672,0,986.44,32.469997,3998474
120525426,0,986.42,32.469997,3998474
120535895,0,986.44,32.469997,3998474
120545950,0,986.50995,32.469997,3998474
120567563,0,986.5,32.48,3998474
120578468,0,986.39996,32.48,3998474
120589480,0,986.44995,32.48,3998474
120613474,0,986.52997,32.48,3998474
120623607,0,986.47,32.48,3998474
120634475,0,986.47,32.48,3998474
120655790,0,986.54,32.489998,3998474
120666077,0,986.5,32.489998,3998474
120677383,0,986.5,32.489998,3998474
120697607,0,986.48,32.489998,3998474
120709442,0,986.49,32.489998,3998474
120719471,0,986.44995,32.489998,3998474
120741455,0,986.51996,32.489998,3998474
120751893,0,986.44995,32.489998,3998474
120762207,0,986.49,32.489998,3998474
120783576,0,986.48,32.5,3998474
120794492,0,986.49,32.5,3998474
120805473,0,986.44,32.5,3998474
120829421,0,986.5,32.5,3998474
120839465,0,986.48,32.5,3998474
120850475,0,986.48,32.5,3998474
120871840,0,986.51996,32.5,3998474
120882188,0,986.44995,32.5,3998474
120893354,0,986.47,32.5,3998474
120914470,0,986.5,32.5,3998474
120925470,0,986.45996,32.5,3998474
120935580,0,986.44,32.5,3998474
120957529,0,986.50995,32.51,3998474
120970144,0,986.45996,32.51,3998474
120981515,0,986.43,32.51,3998474
121005407,0,986.49,32.5,3998474
121015580,0,986.48,32.5,3998474
121026571,0,986.47,32.5,3998474
121047616,0,986.44995,32.5,3998474
121058509,0,986.44995,32.5,3998474
121070232,0,986.43,32.5,3998474
121091472,0,986.49,32.51,3998474
121102291,0,986.44,32.51,3998474
121112812,0,986.44995,32.51,3998474
121134262,0,986.43,32.51,3998474
121144476,0,986.50995,32.51,3998474
121154492,0,986.45996,32.51,3998474
121176476,0,986.5,32.52,3998474
121186570,0,986.47,32.52,3998474
121198187,0,986.48,32.52,3998474
121218890,0,986.44995,32.52,3998474
121230261,0,986.49,32.52,3998474
121240482,0,986.50995,32.52,3998474
121260483,0,986.44995,32.52,3998474
121270803,0,986.43,32.52,3998474
121282473,0,986.49,32.52,3998474
121306401,0,986.41,32.52,3998474
121316782,0,986.47,32.52,3998474
121327544,0,986.47,32.52,3998474
121350507,0,986.47,32.53,3998474
121363131,0,986.51996,32.53,3998474
121374192,0,986.48,32.53,3998474
121394938,0,986.52997,32.53,3998474
121406198,0,986.47,32.53,3998474
121416470,0,986.49,32.53,3998474
121438520,0,986.48,32.53,3998474
121448464,0,986.47,32.53,3998474
121459651,0,986.47,32.53,3998474
121480834,0,986.47,32.53,3998474
121491205,0,986.45996,32.53,3998474
121502299,0,986.49,32.53,3998474
121522546,0,986.44,32.54,3998474
121534227,0,986.47,32.54,3998474
121543615,0,986.52997,32.54,3998474
121564529,0,986.47,32.54,3998474
121575916,0,986.44995,32.54,3998474
121587107,0,986.49,32.54,3998474
121608473,0,986.47,32.53,3998474
121618778,0,986.48,32.53,3998474
121628470,0,986.42,32.53,3998474
121651359,0,986.45996,32.54,3998474
121662190,0,986.50995,32.54,3998474
121671564,0,986.48,32.54,3998474
121693483,0,986.47,32.54,3998474
121703670,0,986.50995,32.54,3998474
121715098,0,986.45996,32.54,3998474
121736473,0,986.45996,32.55,3998474
121747052,0,986.49,32.55,3998474
121758150,0,986.52997,32.55,3998474
121778986,0,986.48,32.55,3998474
121788467,0,986.48,32.55,3998474
121800067,0,986.50995,32.55,3998474
121821470,0,986.48,32.55,3998474
121832468,0,986.50995,32.55,3998474
121842945,0,986.45996,32.55,3998474
121864516,0,986.51996,32.55,3998474
121875574,0,986.45996,32.55,3998474
121887647,0,986.49,32.55,3998474
121909486,0,986.5,32.559998,3998474
121920476,0,986.48,32.559998,3998474
121931033,0,986.47,32.559998,3998474
121951743,0,986.47,32.559998,3998474
121963055,0,986.45996,32.559998,3998474
121973480,0,986.47,32.559998,3998474
121994945,0,986.45996,32.559998,3998474
122005465,0,986.49,32.559998,3998474
122016519,0,986.52997,32.559998,3998474
122038168,0,986.51996,32.559998,3998474
122047965,0,986.45996,32.559998,3998474
122059102,0,986.44995,32.559998,3998474
122079617,0,986.5,32.57,3998474
122089465,0,986.47,32.57,3998474
122100473,0,986.5,32.57,3998474
122121496,0,986.49,32.57,3998474
122132475,0,986.47,32.57,3998474
122143848,0,986.45996,32.57,3998474
122164567,0,986.50995,32.57,3998474
122175646,0,986.50995,32.57,3998474
122185528,0,986.49,32.57,3998474
122206520,0,986.5,32.57,3998474
122216528,0,986.51996,32.57,3998474
122227900,0,986.47,32.57,3998474
122248522,0,986.48,32.57,3998474
122259845,0,986.54,32.57,3998474
122270473,0,986.5,32.57,3998474
122291904,0,986.50995,32.57,3998474
122302521,0,986.44995,32.57,3998474
122313469,0,986.45996,32.57,3998474
122336043,0,986.45996,32.579998,3998474
122346470,0,986.52997,32.579998,3998474
122357837,0,986.49,32.579998,3998474
122380131,0,986.45996,32.579998,3998474
122390471,0,986.5,32.579998,3998474
122401199,0,986.50995,32.579998,3998474
122422470,0,986.48,32.579998,3998474
122433465,0,986.54,32.579998,3998474
122443770,0,986.5,32.579998,3998474
122465470,0,986.51996,32.579998,3998474
122475952,0,986.44,32.579998,3998474
122486474,0,986.44995,32.579998,3998474
122507914,0,986.48,32.579998,3998474
122520119,0,986.47,32.579998,3998474
122530470,0,986.49,32.579998,3998474
122552474,0,986.5,32.59,3998474
122564378,0,986.44995,32.59,3998474
122574485,0,986.45996,32.59,3998474
122596470,0,986.45996,32.59,3998474
122608685,0,986.51996,32.59,3998474
122619868,0,986.44995,32.59,3998474
122642514,0,986.51996,32.59,3998474
122653830,0,986.48,32.59,3998474
122664476,0,986.48,32.59,3998474
122686501,0,986.45996,32.59,3998474
122697827,0,986.45996,32.59,3998474
122708469,0,986.44995,32.59,3998474
122731869,0,986.44,32.59,3998474
122744414,0,986.50995,32.59,3998474
122754470,0,986.5,32.59,3998474
122776472,0,986.48,32.59,3998474
122788139,0,986.44,32.59,3998474
122798481,0,986.43,32.59,3998474
122819848,0,986.50995,32.6,3998474
122830478,0,986.44995,32.6,3998474
122841469,0,986.44995,32.6,3998474
122864948,0,986.5,32.6,3998474
122876505,0,986.5,32.6,3998474
122889308,0,986.44995,32.6,3998474
122913181,0,986.48,32.6,3998474
122924557,0,986.52997,32.6,3998474
122936989,0,986.44995,32.6,3998474
122961186,0,986.45996,32.6,3998474
122972628,0,986.48,32.6,3998474
122985138,0,986.43,32.6,3998474
123009307,0,986.48,32.59,3998474
123020688,0,986.43,32.59,3998474
123030523,0,986.47,32.59,3998474
123052619,0,986.52997,32.6,3998474
123065205,0,986.43,32.6,3998474
123076551,0,986.47,32.6,3998474
123100583,0,986.44995,32.6,3998474
123113199,0,986.45996,32.6,3998474
123124551,0,986.52997,32.6,3998474
123148682,0,986.47,32.6,3998474
123160815,0,986.50995,32.6,3998474
123172948,0,986.49,32.6,3998474
123193468,0,986.47,32.6,3998474
123204525,0,986.43,32.6,3998474
123217319,0,986.44995,32.6,3998474
123241253,0,986.44,32.61,3998474
123250814,0,986.5,32.61,3998474
123260608,0,986.43,32.61,3998474
123284606,0,986.49,32.61,3998474
123294555,0,986.47,32.61,3998474
123304933,0,986.50995,32.61,3998474
123329448,0,986.5,32.61,3998474
123340568,0,986.45996,32.61,3998474
123353540,0,986.48,32.61,3998474
123375601,0,986.44995,32.61,3998474
123386477,0,986.47,32.61,3998474
123397542,0,986.5,32.61,3998474
123418870,0,986.49,32.61,3998474
123429417,0,986.49,32.61,3998474
123439635,0,986.45996,32.61,3998474
123461388,0,986.44995,32.62,3998474
123471576,0,986.49,32.62,3998474
123482161,0,986.43,32.62,3998474
123503950,0,986.49,32.63,3998474
123515042,0,986.44,32.63,3998474
123525412,0,986.54,32.63,3998474
123546474,0,986.50995,32.63,3998474
123557496,0,986.42,32.63,3998474
123567471,0,986.51996,32.63,3998474
123589534,0,986.48,32.63,3998474
123599806,0,986.49,32.63,3998474
123610224,0,986.43,32.63,3998474
123631471,0,986.5,32.64,3998474
123642468,0,986.50995,32.64,3998474
123653474,0,986.51996,32.64,3998474
123677367,0,986.44,32.64,3998474
123687574,0,986.52997,32.64,3998474
123698475,0,986.47,32.64,3998474
123719837,0,986.48,32.64,3998474
123730454,0,986.49,32.64,3998474
123741382,0,986.5,32.64,3998474
123762470,0,986.44,32.64,3998474
123773468,0,986.5,32.64,3998474
123785631,0,986.47,32.64,3998474
123806475,0,986.50995,32.64,3998474
123817724,0,986.47,32.64,3998474
123829497,0,986.56,32.64,3998474
123850318,0,986.52997,32.649998,3998474
123861431,0,986.54,32.649998,3998474
123871557,0,986.52997,32.649998,3998474
123893473,0,986.45996,32.649998,3998474
123905665,0,986.45996,32.649998,3998474
123917507,0,986.47,32.649998,3998474
123941457,0,986.45996,32.649998,3998474
123953774,0,986.45996,32.649998,3998474
123965494,0,986.49,32.649998,3998474
123986510,0,986.48,32.649998,3998474
123997438,0,986.47,32.649998,3998474
124007850,0,986.50995,32.649998,3998474
124029460,0,986.50995,32.649998,3998474
124039471,0,986.45996,32.649998,3998474
124050473,0,986.42,32.649998,3998474
124072469,0,986.43,32.649998,3998474
124083629,0,986.44995,32.649998,3998474
124094185,0,986.48,32.649998,3998474
124114800,0,986.44995,32.66,3998474
124126761,0,986.44,32.66,3998474
124138874,0,986.43,32.66,3998474
124162906,0,986.5,32.66,3998474
124174508,0,986.5,32.66,3998474
124187029,0,986.51996,32.66,3998474
124208592,0,986.5,32.66,3998474
124219962,0,986.48,32.66,3998474
124230495,0,986.44,32.66,3998474
124250544,0,986.45996,32.67,3998474
124262120,0,986.48,32.67,3998474
124272480,0,986.42,32.67,3998474
124294237,0,986.50995,32.67,3998474
124304506,0,986.56,32.67,3998474
124314864,0,986.44995,32.67,3998474
124336821,0,986.49,32.67,3998474
124347089,0,986.50995,32.67,3998474
124358235,0,986.5,32.67,3998474
124379611,0,986.50995,32.67,3998474
124390479,0,986.44995,32.67,3998474
124400481,0,986.43,32.67,3998474
124422252,0,986.5,32.68,3998474
124432869,0,986.47,32.68,3998474
124443117,0,986.44,32.68,3998474
124464479,0,986.52997,32.68,3998474
124474519,0,986.5,32.68,3998474
124486171,0,986.52997,32.68,3998474
124507605,0,986.48,32.68,3998474
124518193,0,986.44995,32.68,3998474
124528858,0,986.51996,32.68,3998474
124550521,0,986.55,32.69,3998474
124560555,0,986.48,32.69,3998474
124571595,0,986.44995,32.69,3998474
124592473,0,986.51996,32.69,3998474
124603942,0,986.44995,32.69,3998474
124614481,0,986.42,32.69,3998474
124638177,0,986.43,32.69,3998474
124648821,0,986.48,32.69,3998474
124659042,0,986.5,32.69,3998474
124680470,0,986.5,32.69,3998474
124691157,0,986.49,32.69,3998474
124701470,0,986.45996,32.69,3998474
124723651,0,986.5,32.69,3998474
124733520,0,986.5,32.69,3998474
124743755,0,986.48,32.69,3998474
124766182,0,986.44995,32.69,3998474
124776153,0,986.48,32.69,3998474
124785473,0,986.45996,32.69,3998474
124808123,0,986.44995,32.7,3998474
124817465,0,986.44,32.7,3998474
124828470,0,986.45996,32.7,3998474
124851105,0,986.5,32.7,3998474
124861505,0,986.49,32.7,3998474
124871695,0,986.44,32.7,3998474
124892519,0,986.45996,32.71,3998474
124903583,0,986.49,32.71,3998474
124913531,0,986.45996,32.71,3998474
124935354,0,986.5,32.71,3998474
124946223,0,986.47,32.71,3998474
124955596,0,986.48,32.71,3998474
124979127,0,986.50995,32.7,3998474
124991220,0,986.5,32.7,3998474
125000465,0,986.42,32.7,3998474
125021469,0,986.45996,32.71,3998474
125032465,0,986.49,32.71,3998474
125043569,0,986.44,32.71,3998474
125064472,0,986.47,32.71,3998474
125075018,0,986.5,32.71,3998474
125086222,0,986.45996,32.71,3998474
125107095,0,986.48,32.719997,3998474
125117502,0,986.44995,32.719997,3998474
125127607,0,986.5,32.719997,3998474
125149475,0,986.54,32.719997,3998474
125160465,0,986.50995,32.719997,3998474
125171096,0,986.43,32.719997,3998474
125191945,0,986.48,32.719997,3998474
125203022,0,986.48,32.719997,3998474
125212476,0,986.47,32.719997,3998474
125235066,0,986.45996,32.719997,3998474
125245558,0,986.44,32.719997,3998474
125256470,0,986.44995,32.719997,3998474
125277470,0,986.5,32.719997,3998474
125288619,0,986.45996,32.719997,3998474
125299818,0,986.5,32.719997,3998474
125321470,0,986.5,32.719997,3998474
125331754,0,986.44,32.719997,3998474
125342470,0,986.44,32.719997,3998474
125363987,0,986.49,32.73,3998474
125374465,0,986.47,32.73,3998474
125384874,0,986.5,32.73,3998474
125408717,0,986.48,32.73,3998474
125419811,0,986.5,32.73,3998474
125432080,0,986.39996,32.73,3998474
125453831,0,986.48,32.73,3998474
125464483,0,986.48,32.73,3998474
125476120,0,986.49,32.73,3998474
125497940,0,986.44995,32.73,3998474
125508465,0,986.48,32.73,3998474
125520743,0,986.5,32.73,3998474
125544059,0,986.52997,32.73,3998474
125554526,0,986.5,32.73,3998474
125565937,0,986.48,32.73,3998474
125587848,0,986.5,32.73,3998474
125597514,0,986.48,32.73,3998474
125608684,0,986.49,32.73,3998474
125630474,0,986.48,32.739998,3998474
125641464,0,986.47,32.739998,3998474
125652470,0,986.47,32.739998,3998474
125674483,0,986.50995,32.739998,3998474
125685468,0,986.45996,32.739998,3998474
125696739,0,986.49,32.739998,3998474
125718480,0,986.49,32.739998,3998474
125729525,0,986.5,32.739998,3998474
125740473,0,986.45996,32.739998,3998474
125761476,0,986.49,32.739998,3998474
125771789,0,986.47,32.739998,3998474
125782479,0,986.48,32.739998,3998474
125803780,0,986.48,32.75,3998474
125816034,0,986.47,32.75,3998474
125825842,0,986.43,32.75,3998474
125846545,0,986.47,32.739998,3998474
125857507,0,986.43,32.739998,3998474
125868686,0,986.43,32.739998,3998474
125892636,0,986.49,32.75,3998474
125904829,0,986.44995,32.75,3998474
125916635,0,986.49,32.75,3998474
125940677,0,986.47,32.75,3998474
125952791,0,986.48,32.75,3998474
125964531,0,986.47,32.75,3998474
125988723,0,986.50995,32.75,3998474
126001967,0,986.48,32.75,3998474
126012567,0,986.48,32.75,3998474
126036586,0,986.48,32.75,3998474
126049436,0,986.47,32.75,3998474
126060611,0,986.50995,32.75,3998474
126084583,0,986.54,32.75,3998474
126097297,0,986.50995,32.75,3998474
126108766,0,986.45996,32.75,3998474
126132577,0,986.41,32.75,3998474
126144956,0,986.48,32.75,3998474
126156572,0,986.44,32.75,3998474
126180685,0,986.45996,32.75,3998474
126190516,0,986.5,32.75,3998474
126202148,0,986.48,32.75,3998474
126224859,0,986.45996,32.76,3998474
126236643,0,986.50995,32.76,3998474
126249350,0,986.47,32.76,3998474
126272901,0,986.44,32.75,3998474
126284638,0,986.47,32.75,3998474
126296885,0,986.44,32.75,3998474
126320912,0,986.47,32.75,3998474
126332732,0,986.54,32.75,3998474
126344841,0,986.49,32.75,3998474
126369255,0,986.47,32.76,3998474
126380703,0,986.43,32.76,3998474
126390489,0,986.49,32.76,3998474
126413524,0,986.45996,32.76,3998474
126425660,0,986.44995,32.76,3998474
126437493,0,986.43,32.76,3998474
126458474,0,986.48,32.76,3998474
126469420,0,986.5,32.76,3998474
126479923,0,986.48,32.76,3998474
126501450,0,986.49,32.77,3998474
126511577,0,986.49,32.77,3998474
126522485,0,986.43,32.77,3998474
126543564,0,986.47,32.77,3998474
126554482,0,986.45996,32.77,3998474
126565450,0,986.49,32.77,3998474
126586332,0,986.45996,32.78,3998474
126597328,0,986.49,32.78,3998474
126606986,0,986.5,32.78,3998474
126627602,0,986.45996,32.78,3998474
126638473,0,986.5,32.78,3998474
126649634,0,986.5,32.78,3998474
126671556,0,986.44,32.79,3998474
126682230,0,986.47,32.79,3998474
126693431,0,986.43,32.79,3998474
126713979,0,986.48,32.79,3998474
126725489,0,986.49,32.79,3998474
126738069,0,986.51996,32.79,3998474
126759851,0,986.49,32.78,3998474
126769756,0,986.39996,32.78,3998474
126781350,0,986.5,32.78,3998474
126802485,0,986.55,32.79,3998474
126813479,0,986.50995,32.79,3998474
126823641,0,986.45996,32.79,3998474
126845358,0,986.49,32.8,3998474
126855794,0,986.5,32.8,3998474
126867012,0,986.47,32.8,3998474
126887658,0,986.45996,32.8,3998474
126898470,0,986.45996,32.8,3998474
126909501,0,986.5,32.8,3998474
126930520,0,986.44995,32.8,3998474
126941454,0,986.50995,32.8,3998474
126951937,0,986.42,32.8,3998474
126973415,0,986.49,32.8,3998474
126983466,0,986.48,32.8,3998474
126993651,0,986.42,32.8,3998474
127015556,0,986.50995,32.809998,3998474
127026470,0,986.47,32.809998,3998474
127037423,0,986.48,32.809998,3998474
127058959,0,986.5,32.8,3998474
127070558,0,986.42,32.8,3998474
127082751,0,986.43,32.8,3998474
127103562,0,986.49,32.809998,3998474
127114520,0,986.49,32.809998,3998474
127126283,0,986.47,32.809998,3998474
127146499,0,986.50995,32.809998,3998474
127158828,0,986.52997,32.809998,3998474
127170433,0,986.49,32.809998,3998474
127190502,0,986.50995,32.82,3998474
127203024,0,986.49,32.82,3998474
127214283,0,986.44995,32.82,3998474
127234868,0,986.48,32.82,3998474
127246239,0,986.49,32.82,3998474
127256480,0,986.47,32.82,3998474
127278470,0,986.47,32.82,3998474
127288464,0,986.50995,32.82,3998474
127299548,0,986.51996,32.82,3998474
127320795,0,986.50995,32.82,3998474
127330848,0,986.44,32.82,3998474
127342300,0,986.44995,32.82,3998474
127363624,0,986.48,32.82,3998474
127374477,0,986.44995,32.82,3998474
127386747,0,986.43,32.82,3998474
127407708,0,986.43,32.82,3998474
127418468,0,986.44995,32.82,3998474
127428590,0,986.5,32.82,3998474
127449465,0,986.48,32.829998,3998474
127460511,0,986.41,32.829998,3998474
127470510,0,986.44995,32.829998,3998474
127491623,0,986.50995,32.829998,3998474
127502203,0,986.44,32.829998,3998474
127512479,0,986.47,32.829998,3998474
127534732,0,986.49,32.829998,3998474
127547064,0,986.48,32.829998,3998474
127558788,0,986.51996,32.829998,3998474
127582817,0,986.42,32.829998,3998474
127595014,0,986.45996,32.829998,3998474
127606529,0,986.47,32.829998,3998474
127630750,0,986.5,32.829998,3998474
127642971,0,986.45996,32.829998,3998474
127654538,0,986.49,32.829998,3998474
127679073,0,986.52997,32.829998,3998474
127689476,0,986.45996,32.829998,3998474
127699580,0,986.45996,32.829998,3998474
127721503,0,986.45996,32.829998,3998474
127732465,0,986.47,32.829998,3998474
127742950,0,986.48,32.829998,3998474
127763734,0,986.47,32.84,3998474
127775042,0,986.52997,32.84,3998474
127784473,0,986.50995,32.84,3998474
127807058,0,986.45996,32.84,3998474
127818176,0,986.5,32.84,3998474
127827612,0,986.49,32.84,3998474
127849526,0,986.48,32.84,3998474
127860476,0,986.45996,32.84,3998474
127871672,0,986.51996,32.84,3998474
127892509,0,986.45996,32.84,3998474
127903572,0,986.47,32.84,3998474
127915778,0,986.48,32.84,3998474
127938212,0,986.50995,32.85,3998474
127948021,0,986.51996,32.85,3998474
127959064,0,986.44,32.85,3998474
127980473,0,986.49,32.85,3998474
127991560,0,986.47,32.85,3998474
128001493,0,986.49,32.85,3998474
128022992,0,986.49,32.85,3998474
128034180,0,986.49,32.85,3998474
128043772,0,986.47,32.85,3998474
128065483,0,986.54,32.86,3998474
128075579,0,986.45996,32.86,3998474
128087053,0,986.49,32.86,3998474
128107611,0,986.42,32.86,3998474
128119031,0,986.44,32.86,3998474
128130172,0,986.45996,32.86,3998474
128150993,0,986.44,32.86,3998474
128161465,0,986.42,32.86,3998474
128171664,0,986.48,32.86,3998474
128193481,0,986.45996,32.86,3998474
128204469,0,986.47,32.86,3998474
128215110,0,986.47,32.86,3998474
128235763,0,986.50995,32.86,3998474
128247029,0,986.47,32.86,3998474
128257470,0,986.48,32.86,3998474
128279627,0,986.56,32.87,3998474
128290465,0,986.48,32.87,3998474
128301470,0,986.41,32.87,3998474
128322489,0,986.45996,32.87,3998474
128332532,0,986.45996,32.87,3998474
128343998,0,986.45996,32.87,3998474
128365469,0,986.52997,32.87,3998474
128375792,0,986.47,32.87,3998474
128386477,0,986.48,32.87,3998474
128408488,0,986.52997,32.87,3998474
128420634,0,986.48,32.87,3998474
128431816,0,986.45996,32.87,3998474
128452049,0,986.47,32.87,3998474
128462533,0,986.47,32.87,3998474
128473901,0,986.44,32.87,3998474
128496103,0,986.48,32.87,3998474
128506465,0,986.48,32.87,3998474
128516470,0,986.43,32.87,3998474
128538482,0,986.43,32.88,3998474
128549480,0,986.51996,32.88,3998474
128559842,0,986.44995,32.88,3998474
128581472,0,986.49,32.88,3998474
128592465,0,986.44995,32.88,3998474
128605348,0,986.47,32.88,3998474
128625519,0,986.49,32.88,3998474
128636141,0,986.5,32.88,3998474
128646520,0,986.41,32.88,3998474
128668802,0,986.47,32.89,3998474
128679830,0,986.47,32.89,3998474
128690510,0,986.48,32.89,3998474
128712617,0,986.5,32.89,3998474
128722508,0,986.51996,32.89,3998474
128733479,0,986.5,32.89,3998474
128756383,0,986.50995,32.89,3998474
128766465,0,986.49,32.89,3998474
128777831,0,986.50995,32.89,3998474
128800141,0,986.5,32.89,3998474
128809832,0,986.45996,32.89,3998474
128820850,0,986.47,32.89,3998474
128844785,0,986.44995,32.89,3998474
128854514,0,986.47,32.89,3998474
128864513,0,986.48,32.89,3998474
128888728,0,986.48,32.89,3998474
128900849,0,986.50995,32.89,3998474
128912513,0,986.45996,32.89,3998474
128936564,0,986.50995,32.89,3998474
128948861,0,986.51996,32.89,3998474
128960928,0,986.42,32.89,3998474
128984668,0,986.45996,32.89,3998474
128996816,0,986.51996,32.89,3998474
129008700,0,986.48,32.89,3998474
129032630,0,986.45996,32.89,3998474
129044980,0,986.44,32.89,3998474
129056574,0,986.44995,32.89,3998474
129080572,0,986.52997,32.89,3998474
129092959,0,986.47,32.89,3998474
129104626,0,986.44995,32.89,3998474
129128642,0,986.48,32.89,3998474
129141315,0,986.43,32.89,3998474
129152612,0,986.48,32.89,3998474
129176646,0,986.51996,32.899998,3998474
129188971,0,986.48,32.899998,3998474
129200711,0,986.5,32.899998,3998474
129224639,0,986.47,32.899998,3998474
129236964,0,986.49,32.899998,3998474
129248732,0,986.44995,32.899998,3998474
129272584,0,986.49,32.89,3998474
129284971,0,986.45996,32.89,3998474
129296632,0,986.43,32.89,3998474
129320757,0,986.49,32.899998,3998474
129332891,0,986.45996,32.899998,3998474
129344545,0,986.5,32.899998,3998474
129368641,0,986.47,32.899998,3998474
129381241,0,986.50995,32.899998,3998474
129392644,0,986.44,32.899998,3998474
129415545,0,986.5,32.899998,3998474
129426180,0,986.49,32.899998,3998474
129437389,0,986.44995,32.899998,3998474
129458782,0,986.42,32.91,3998474
129469498,0,986.48,32.91,3998474
129479551,0,986.44995,32.91,3998474
129501454,0,986.5,32.92,3998474
129513626,0,986.47,32.92,3998474
129525441,0,986.44,32.92,3998474
129549463,0,986.44995,32.92,3998474
129561599,0,986.45996,32.92,3998474
129573470,0,986.45996,32.92,3998474
129597415,0,986.45996,32.92,3998474
129607566,0,986.44995,32.92,3998474
129618325,0,986.42,32.92,3998474
129639839,0,986.45996,32.91,3998474
129650277,0,986.47,32.91,3998474
129661399,0,986.44995,32.91,3998474
129682475,0,986.49,32.92,3998474
129693494,0,986.44995,32.92,3998474
129703596,0,986.50995,32.92,3998474
129725469,0,986.52997,32.92,3998474
129735807,0,986.49,32.92,3998474
129746114,0,986.45996,32.92,3998474
129767563,0,986.44995,32.94,3998474
129777746,0,986.5,32.94,3998474
129789495,0,986.45996,32.94,3998474
129813469,0,986.5,32.94,3998474
129823578,0,986.5,32.94,3998474
129834475,0,986.47,32.94,3998474
129855818,0,986.49,32.93,3998474
129866309,0,986.45996,32.93,3998474
129877462,0,986.43,32.93,3998474
129898475,0,986.49,32.94,3998474
129909471,0,986.49,32.94,3998474
129921671,0,986.44995,32.94,3998474
129943555,0,986.51996,32.94,3998474
129954465,0,986.45996,32.94,3998474
129965473,0,986.44995,32.94,3998474
129986869,0,986.54,32.95,3998474
129997434,0,986.49,32.95,3998474
130007559,0,986.48,32.95,3998474
130029454,0,986.42,32.95,3998474
130041705,0,986.45996,32.95,3998474
130053416,0,986.45996,32.95,3998474
130074470,0,986.55,32.95,3998474
130085385,0,986.50995,32.95,3998474
130095924,0,986.49,32.95,3998474
130118490,0,986.48,32.95,3998474
130128517,0,986.49,32.95,3998474
130138476,0,986.51996,32.95,3998474
130159604,0,986.48,32.95,3998474
130170467,0,986.43,32.95,3998474
130182180,0,986.43,32.95,3998474
130202796,0,986.47,32.96,3998474
130214187,0,986.5,32.96,3998474
130224469,0,986.47,32.96,3998474
130244829,0,986.44995,32.96,3998474
130255646,0,986.47,32.96,3998474
130266473,0,986.47,32.96,3998474
130288482,0,986.44995,32.96,3998474
130299305,0,986.5,32.96,3998474
130310202,0,986.48,32.96,3998474
130330471,0,986.47,32.96,3998474
130342272,0,986.45996,32.96,3998474
130352793,0,986.50995,32.96,3998474
130374111,0,986.5,32.969997,3998474
130383606,0,986.48,32.969997,3998474
130394470,0,986.5,32.969997,3998474
130416523,0,986.47,32.969997,3998474
130426467,0,986.44995,32.969997,3998474
130438273,0,986.5,32.969997,3998474
130459055,0,986.44,32.969997,3998474
130470135,0,986.50995,32.969997,3998474
130479624,0,986.41,32.969997,3998474
130502210,0,986.48,32.969997,3998474
130512795,0,986.49,32.969997,3998474
130522905,0,986.45996,32.969997,3998474
130544483,0,986.44995,32.98,3998474
130555564,0,986.43,32.98,3998474
130566151,0,986.48,32.98,3998474
130587593,0,986.51996,32.98,3998474
130598249,0,986.44,32.98,3998474
130608906,0,986.45996,32.98,3998474
130630152,0,986.50995,32.98,3998474
130640468,0,986.49,32.98,3998474
130651622,0,986.48,32.98,3998474
130672470,0,986.51996,32.98,3998474
130683565,0,986.47,32.98,3998474
130695002,0,986.47,32.98,3998474
130716469,0,986.39996,32.989998,3998474
130727678,0,986.45996,32.989998,3998474
130739720,0,986.5,32.989998,3998474
130761470,0,986.50995,32.989998,3998474
130772807,0,986.5,32.989998,3998474
130783568,0,986.54,32.989998,3998474
130804833,0,986.49,32.989998,3998474
130814976,0,986.47,32.989998,3998474
130825470,0,986.48,32.989998,3998474
130847067,0,986.50995,32.989998,3998474
130856464,0,986.48,32.989998,3998474
130867611,0,986.43,32.989998,3998474
130890148,0,986.45996,32.989998,3998474
130900054,0,986.47,32.989998,3998474
130911004,0,986.45996,32.989998,3998474
130932470,0,986.48,33.0,3998474
130943560,0,986.47,33.0,3998474
130953470,0,986.43,33.0,3998474
130974984,0,986.54,33.0,3998474
130986246,0,986.47,33.0,3998474
130995805,0,986.43,33.0,3998474
131017496,0,986.45996,33.0,3998474
131028476,0,986.44995,33.0,3998474
131039571,0,986.48,33.0,3998474
131060473,0,986.48,33.0,3998474
131071078,0,986.5,33.0,3998474
131082165,0,986.45996,33.0,3998474
131102987,0,986.47,33.01,3998474
131112464,0,986.47,33.01,3998474
131123609,0,986.44995,33.01,3998474
131144473,0,986.51996,33.0,3998474
131155566,0,986.49,33.0,3998474
131167057,0,986.48,33.0,3998474
131187696,0,986.47,33.01,3998474
131199094,0,986.48,33.01,3998474
131209535,0,986.45996,33.01,3998474
131230520,0,986.55,33.01,3998474
131241932,0,986.41,33.01,3998474
131252069,0,986.48,33.01,3998474
131273617,0,986.43,33.01,3998474
131284543,0,986.47,33.01,3998474
131295851,0,986.45996,33.01,3998474
131317470,0,986.47,33.02,3998474
131328464,0,986.50995,33.02,3998474
131338469,0,986.44,33.02,3998474
131360469,0,986.48,33.02,3998474
131372482,0,986.48,33.02,3998474
131382470,0,986.47,33.02,3998474
131404495,0,986.45996,33.02,3998474
131415754,0,986.47,33.02,3998474
131426491,0,986.49,33.02,3998474
131448479,0,986.47,33.02,3998474
131458478,0,986.50995,33.02,3998474
131469469,0,986.50995,33.02,3998474
131492364,0,986.56,33.02,3998474
131502465,0,986.45996,33.02,3998474
131514003,0,986.45996,33.02,3998474
131534470,0,986.48,33.02,3998474
131545465,0,986.47,33.02,3998474
131556503,0,986.47,33.02,3998474
131578952,0,986.52997,33.03,3998474
131589468,0,986.48,33.03,3998474
131600474,0,986.48,33.03,3998474
131623787,0,986.48,33.03,3998474
131634465,0,986.52997,33.03,3998474
131645470,0,986.43,33.03,3998474
131668704,0,986.45996,33.03,3998474
131679883,0,986.45996,33.03,3998474
131690519,0,986.5,33.03,3998474
131712470,0,986.43,33.02,3998474
131723989,0,986.44995,33.02,3998474
131734481,0,986.48,33.02,3998474
131756969,0,986.42,33.03,3998474
131767791,0,986.48,33.03,3998474
131777515,0,986.47,33.03,3998474
131799842,0,986.45996,33.03,3998474
131810465,0,986.45996,33.03,3998474
131821481,0,986.49,33.03,3998474
131844445,0,986.49,33.04,3998474
131855789,0,986.44995,33.04,3998474
131866470,0,986.49,33.04,3998474
131889441,0,986.44995,33.04,3998474
131900889,0,986.5,33.04,3998474
131913651,0,986.48,33.04,3998474
131937401,0,986.51996,33.04,3998474
131948900,0,986.48,33.04,3998474
131961257,0,986.5,33.04,3998474
131984898,0,986.47,33.04,3998474
131996969,0,986.44,33.04,3998474
132008879,0,986.51996,33.04,3998474
132032828,0,986.45996,33.04,3998474
132045194,0,986.49,33.04,3998474
132056859,0,986.5,33.04,3998474
132081192,0,986.48,33.04,3998474
132092924,0,986.50995,33.04,3998474
132104905,0,986.43,33.04,3998474
132129264,0,986.49,33.04,3998474
132140913,0,986.48,33.04,3998474
132152829,0,986.49,33.04,3998474
132177429,0,986.5,33.04,3998474
132189230,0,986.5,33.04,3998474
132201250,0,986.44995,33.04,3998474
132224839,0,986.45996,33.04,3998474
132237176,0,986.44995,33.04,3998474
132249277,0,986.49,33.04,3998474
132268704,0,986.42,33.04,3998474
132281301,0,986.42,33.04,3998474
132290775,0,986.44995,33.04,3998474
132313287,0,986.5,33.05,3998474
132324676,0,986.45996,33.05,3998474
132334519,0,986.48,33.05,3998474
132356599,0,986.47,33.059998,3998474
132369400,0,986.44,33.059998,3998474
132380609,0,986.44995,33.059998,3998474
132404567,0,986.50995,33.05,3998474
132417323,0,986.48,33.05,3998474
132428712,0,986.47,33.05,3998474
132452546,0,986.45996,33.05,3998474
132464892,0,986.42,33.05,3998474
132476671,0,986.44995,33.05,3998474
132500602,0,986.47,33.059998,3998474
132511584,0,986.45996,33.059998,3998474
132522487,0,986.44,33.059998,3998474
132543911,0,986.45996,33.059998,3998474
132554552,0,986.47,33.059998,3998474
132565472,0,986.49,33.059998,3998474
132586475,0,986.49,33.059998,3998474
132597458,0,986.48,33.059998,3998474
132609768,0,986.45996,33.059998,3998474
132631596,0,986.41,33.07,3998474
132642175,0,986.47,33.07,3998474
132653361,0,986.42,33.07,3998474
132674102,0,986.47,33.07,3998474
132685374,0,986.47,33.07,3998474
132695470,0,986.44995,33.07,3998474
132717473,0,986.48,33.07,3998474
132727610,0,986.48,33.07,3998474
132738490,0,986.45996,33.07,3998474
132759916,0,986.49,33.07,3998474
132770504,0,986.52997,33.07,3998474
132781453,0,986.41,33.07,3998474
132801626,0,986.45996,33.079998,3998474
132813396,0,986.44995,33.079998,3998474
132823471,0,986.5,33.079998,3998474
132845491,0,986.42,33.079998,3998474
132857576,0,986.49,33.079998,3998474
132869491,0,986.45996,33.079998,3998474
132893396,0,986.45996,33.079998,3998474
132903465,0,986.47,33.079998,3998474
132914049,0,986.48,33.079998,3998474
132935471,0,986.51996,33.079998,3998474
132945565,0,986.48,33.079998,3998474
132955471,0,986.48,33.079998,3998474
132977927,0,986.45996,33.079998,3998474
132989435,0,986.51996,33.079998,3998474
133001957,0,986.47,33.079998,3998474
133023471,0,986.51996,33.09,3998474
133034044,0,986.47,33.09,3998474
133045389,0,986.45996,33.09,3998474
133066470,0,986.48,33.09,3998474
133077468,0,986.44995,33.09,3998474
133087829,0,986.43,33.09,3998474
133109434,0,986.44,33.09,3998474
133119622,0,986.48,33.09,3998474
133130506,0,986.47,33.09,3998474
133152469,0,986.47,33.1,3998474
133162470,0,986.44,33.1,3998474
133174341,0,986.52997,33.1,3998474
133194993,0,986.51996,33.1,3998474
133206137,0,986.5,33.1,3998474
133216474,0,986.44,33.1,3998474
133238257,0,986.44995,33.1,3998474
133248789,0,986.5,33.1,3998474
133258981,0,986.47,33.1,3998474
133279592,0,986.47,33.1,3998474
133290962,0,986.48,33.1,3998474
133300472,0,986.43,33.1,3998474
133322726,0,986.49,33.11,3998474
133334160,0,986.50995,33.11,3998474
133344469,0,986.49,33.11,3998474
133366758,0,986.5,33.11,3998474
133378967,0,986.47,33.11,3998474
133390770,0,986.41,33.11,3998474
133414505,0,986.47,33.11,3998474
133426798,0,986.49,33.11,3998474
133438832,0,986.45996,33.11,3998474
133462769,0,986.52997,33.11,3998474
133474779,0,986.45996,33.11,3998474
133486731,0,986.48,33.11,3998474
133510548,0,986.50995,33.11,3998474
133522785,0,986.45996,33.11,3998474
133534514,0,986.47,33.11,3998474
133558517,0,986.48,33.11,3998474
133571177,0,986.49,33.11,3998474
133582505,0,986.45996,33.11,3998474
133606567,0,986.48,33.11,3998474
133619107,0,986.5,33.11,3998474
133630790,0,986.45996,33.11,3998474
133652840,0,986.47,33.11,3998474
133662461,0,986.49,33.11,3998474
133674390,0,986.49,33.11,3998474
133694966,0,986.49,33.11,3998474
133705465,0,986.48,33.11,3998474
133715731,0,986.43,33.11,3998474
133736469,0,986.45996,33.12,3998474
133747598,0,986.5,33.12,3998474
133759120,0,986.45996,33.12,3998474
133779604,0,986.44995,33.12,3998474
133791012,0,986.48,33.12,3998474
133801480,0,986.51996,33.12,3998474
133821479,0,986.49,33.12,3998474
133832468,0,986.43,33.12,3998474
133843766,0,986.44995,33.12,3998474
133866234,0,986.47,33.13,3998474
133875811,0,986.48,33.13,3998474
133887014,0,986.44,33.13,3998474
133908473,0,986.49,33.13,3998474
133919643,0,986.45996,33.13,3998474
133929472,0,986.37,33.13,3998474
133951029,0,986.45996,33.13,3998474
133963244,0,986.42,33.13,3998474
133972628,0,986.49,33.13,3998474
133995634,0,986.45996,33.13,3998474
134006993,0,986.47,33.13,3998474
134017488,0,986.48,33.13,3998474
134039588,0,986.45996,33.14,3998474
134049474,0,986.47,33.14,3998474
134060492,0,986.47,33.14,3998474
134082143,0,986.44995,33.14,3998474
134091802,0,986.43,33.14,3998474
134102955,0,986.48,33.14,3998474
134124485,0,986.49,33.149998,3998474
134134976,0,986.44,33.149998,3998474
134145470,0,986.50995,33.149998,3998474
134166988,0,986.43,33.14,3998474
134178165,0,986.44995,33.14,3998474
134187882,0,986.45996,33.14,3998474
134209520,0,986.51996,33.149998,3998474
134220474,0,986.49,33.149998,3998474
134231053,0,986.49,33.149998,3998474
134251661,0,986.43,33.149998,3998474
134263041,0,986.47,33.149998,3998474
134274112,0,986.52997,33.149998,3998474
134295024,0,986.49,33.16,3998474
134305468,0,986.44995,33.16,3998474
134316470,0,986.45996,33.16,3998474
134337470,0,986.44,33.16,3998474
134348465,0,986.44995,33.16,3998474
134359890,0,986.49,33.16,3998474
134381498,0,986.48,33.16,3998474
134392468,0,986.49,33.16,3998474
134405403,0,986.49,33.16,3998474
134426475,0,986.44,33.16,3998474
134437494,0,986.48,33.16,3998474
134448472,0,986.43,33.16,3998474
134470484,0,986.44,33.16,3998474
134481932,0,986.5,33.16,3998474
134492482,0,986.44,33.16,3998474
134514482,0,986.51996,33.17,3998474
134525863,0,986.44995,33.17,3998474
134536469,0,986.51996,33.17,3998474
134559855,0,986.45996,33.17,3998474
134572053,0,986.45996,33.17,3998474
134582470,0,986.45996,33.17,3998474
134605176,0,986.50995,33.17,3998474
134616431,0,986.50995,33.17,3998474
134626481,0,986.47,33.17,3998474
134648469,0,986.50995,33.16,3998474
134660834,0,986.45996,33.16,3998474
134671814,0,986.44,33.16,3998474
134694470,0,986.44995,33.17,3998474
134705826,0,986.44995,33.17,3998474
134716494,0,986.45996,33.17,3998474
134738557,0,986.47,33.17,3998474
134749825,0,986.5,33.17,3998474
134760470,0,986.44,33.17,3998474
134783913,0,986.50995,33.17,3998474
134796072,0,986.49,33.17,3998474
134806131,0,986.44995,33.17,3998474
134828369,0,986.5,33.17,3998474
134838465,0,986.48,33.17,3998474
134849478,0,986.44995,33.17,3998474
134871865,0,986.50995,33.18,3998474
134882480,0,986.48,33.18,3998474
134893469,0,986.43,33.18,3998474
134916173,0,986.42,33.17,3998474
134926476,0,986.44,33.17,3998474
134937002,0,986.42,33.17,3998474
134961137,0,986.44995,33.18,3998474
134972671,0,986.50995,33.18,3998474
134984930,0,986.47,33.18,3998474
135009953,0,986.44,33.18,3998474
135020626,0,986.44995,33.18,3998474
135030530,0,986.44,33.18,3998474
135050899,0,986.5,33.18,3998474
135060718,0,986.44995,33.18,3998474
135072947,0,986.43,33.18,3998474
135092612,0,986.48,33.19,3998474
135105171,0,986.50995,33.19,3998474
135116575,0,986.51996,33.19,3998474
135140635,0,986.51996,33.19,3998474
135152807,0,986.45996,33.19,3998474
135164530,0,986.51996,33.19,3998474
135185276,0,986.5,33.19,3998474
135195856,0,986.44995,33.19,3998474
135206470,0,986.49,33.19,3998474
135228632,0,986.48,33.19,3998474
135241204,0,986.49,33.19,3998474
135252565,0,986.48,33.19,3998474
135276619,0,986.47,33.19,3998474
135289299,0,986.44,33.19,3998474
135300648,0,986.42,33.19,3998474
135324645,0,986.42,33.19,3998474
135337387,0,986.47,33.19,3998474
135348781,0,986.47,33.19,3998474
135372538,0,986.48,33.19,3998474
135385327,0,986.47,33.19,3998474
135395116,0,986.49,33.19,3998474
135417543,0,986.45996,33.2,3998474
135428666,0,986.48,33.2,3998474
135438776,0,986.43,33.2,3998474
135460681,0,986.49,33.2,3998474
135472723,0,986.48,33.2,3998474
135484629,0,986.49,33.2,3998474
135506485,0,986.49,33.2,3998474
135517433,0,986.48,33.2,3998474
135527902,0,986.49,33.2,3998474
135549495,0,986.44,33.2,3998474
135559466,0,986.48,33.2,3998474
135570474,0,986.44,33.2,3998474
135591576,0,986.44995,33.21,3998474
135602060,0,986.48,33.21,3998474
135613485,0,986.45996,33.21,3998474
135634247,0,986.5,33.21,3998474
135645413,0,986.44995,33.21,3998474
135655470,0,986.44995,33.21,3998474
135677479,0,986.48,33.219997,3998474
135687469,0,986.48,33.219997,3998474
135698091,0,986.48,33.219997,3998474
135722400,0,986.47,33.21,3998474
135733487,0,986.44995,33.21,3998474
135746106,0,986.43,33.21,3998474
135767949,0,986.48,33.21,3998474
135778147,0,986.44995,33.21,3998474
135789453,0,986.50995,33.21,3998474
135810888,0,986.43,33.219997,3998474
135821469,0,986.49,33.219997,3998474
135833761,0,986.47,33.219997,3998474
135857991,0,986.49,33.219997,3998474
135869448,0,986.45996,33.219997,3998474
135882029,0,986.48,33.219997,3998474
135903471,0,986.49,33.219997,3998474
135914493,0,986.48,33.219997,3998474
135925477,0,986.44995,33.219997,3998474
135946506,0,986.52997,33.23,3998474
135957458,0,986.44,33.23,3998474
135967582,0,986.49,33.23,3998474
135989495,0,986.45996,33.23,3998474
136001695,0,986.43,33.23,3998474
136013402,0,986.44995,33.23,3998474
136033980,0,986.49,33.23,3998474
136043640,0,986.48,33.23,3998474
136054485,0,986.5,33.23,3998474
136077467,0,986.5,33.23,3998474
136087548,0,986.44995,33.23,3998474
136098471,0,986.48,33.23,3998474
136119471,0,986.5,33.239998,3998474
136130094,0,986.5,33.239998,3998474
136141469,0,986.44995,33.239998,3998474
136162933,0,986.48,33.239998,3998474
136174396,0,986.44995,33.239998,3998474
136184538,0,986.47,33.239998,3998474
136206227,0,986.49,33.239998,3998474
136216465,0,986.48,33.239998,3998474
136226978,0,986.48,33.239998,3998474
136248886,0,986.5,33.239998,3998474
136259070,0,986.44,33.239998,3998474
136270185,0,986.44995,33.239998,3998474
136291642,0,986.43,33.25,3998474
136302465,0,986.51996,33.25,3998474
136312473,0,986.47,33.25,3998474
136334132,0,986.5,33.25,3998474
136344777,0,986.48,33.25,3998474
136355177,0,986.49,33.25,3998474
136376515,0,986.48,33.25,3998474
136387574,0,986.44995,33.25,3998474
136398469,0,986.41,33.25,3998474
136422218,0,986.45996,33.25,3998474
136432465,0,986.49,33.25,3998474
136443617,0,986.47,33.25,3998474
136464821,0,986.50995,33.25,3998474
136475034,0,986.42,33.25,3998474
136486240,0,986.45996,33.25,3998474
136506492,0,986.5,33.25,3998474
136518179,0,986.49,33.25,3998474
136528482,0,986.41,33.25,3998474
136550366,0,986.49,33.26,3998474
136560776,0,986.50995,33.26,3998474
136571069,0,986.49,33.26,3998474
136592529,0,986.48,33.26,3998474
136603636,0,986.49,33.26,3998474
136614480,0,986.44995,33.26,3998474
136635613,0,986.50995,33.26,3998474
136646222,0,986.48,33.26,3998474
136656864,0,986.45996,33.26,3998474
136678161,0,986.43,33.26,3998474
136688468,0,986.47,33.26,3998474
136699572,0,986.43,33.26,3998474
136722430,0,986.42,33.27,3998474
136732497,0,986.49,33.27,3998474
136743594,0,986.48,33.27,3998474
136765469,0,986.44995,33.27,3998474
136775655,0,986.47,33.27,3998474
136787133,0,986.44995,33.27,3998474
136808054,0,986.48,33.27,3998474
136819047,0,986.47,33.27,3998474
136829470,0,986.5,33.27,3998474
136851629,0,986.44,33.27,3998474
