timestamp,roll,pitch,yaw,thrust
109425267,0.3095005,0.060879253,0.0006239975,0.12
109429219,0.3094676,0.060483783,0.0006197834,0.12
109433255,0.3093695,0.060241878,0.00061729824,0.12
109437397,0.3093423,0.060158975,0.0006158574,0.12
109441245,0.3092626,0.059938192,0.0006139181,0.12
109445278,0.30920112,0.060108583,0.0006157293,0.12
109449278,0.3091233,0.06020886,0.0006162057,0.12
109453271,0.3092723,0.060329728,0.0006180672,0.12
109457220,0.30922017,0.06073941,0.0006218938,0.12
109461452,0.30938828,0.06081354,0.0006231407,0.12
109465276,0.30947578,0.060961485,0.0006249193,0.12
109469303,0.30951133,0.06102864,0.0006255604,0.12
109473248,0.30949137,0.060900968,0.00062469917,0.12
110266003,0.3104385,0.058564924,0.00060192676,0.12
110270047,0.31061137,0.058480013,0.00060172466,0.12
110274056,0.31057924,0.05847297,0.00060174684,0.12
110278007,0.31038073,0.058290016,0.0005992678,0.12
110282079,0.31021938,0.058035135,0.0005958368,0.12
110286008,0.31006727,0.057854004,0.0005940864,0.12
110290050,0.30998287,0.057756513,0.00059317064,0.12
110294015,0.30999604,0.057621565,0.0005918432,0.12
110298021,0.3100448,0.05781251,0.00059369154,0.12
110302097,0.31015846,0.05777045,0.0005932546,0.12
110306060,0.31042078,0.058048368,0.00059659395,0.12
110310050,0.3103175,0.05823586,0.00059878395,0.12
110314013,0.3105295,0.0582745,0.00059929624,0.12
110318008,0.31049514,0.058203742,0.0005987997,0.12
110322029,0.31042188,0.058180023,0.0005987347,0.12
110326045,0.31035984,0.057956137,0.00059612596,0.12
110330054,0.31001288,0.057806678,0.00059243303,0.12
110334018,0.31002414,0.057705328,0.000592653,0.12
110338008,0.30988854,0.057601772,0.00059140625,0.12
110342049,0.30994493,0.05763607,0.0005918126,0.12
110346051,0.31007275,0.05759391,0.00059182756,0.12
110350040,0.3102633,0.05762352,0.00059267425,0.12
110354037,0.31048596,0.057726063,0.00059344165,0.12
110358026,0.31065688,0.057712685,0.0005936648,0.12
110362046,0.31071746,0.05773688,0.00059486285,0.12
110366053,0.31074378,0.057586424,0.00059251307,0.12
110370096,0.31053904,0.057512354,0.0005911918,0.12
110374022,0.3103129,0.057316527,0.0005892056,0.12
110378026,0.3101292,0.057245307,0.0005881045,0.12
110382065,0.31004715,0.05724157,0.0005881392,0.12
110386034,0.30997148,0.057263516,0.0005878775,0.12
110390083,0.31001183,0.057336725,0.00058838417,0.12
110394013,0.3100726,0.05742862,0.0005899288,0.12
110518863,0.30994558,0.056643497,0.0005820289,0.12
110522821,0.3098073,0.05670072,0.0005815971,0.12
110526832,0.30981907,0.056683466,0.00058189326,0.12
110542824,0.3105751,0.057082616,0.0005872321,0.12
110546842,0.3104412,0.0569556,0.0005857127,0.12
110550907,0.31050637,0.056952927,0.00058554526,0.12
110554829,0.3101571,0.05690726,0.00058401993,0.12
110558874,0.30989876,0.056650702,0.00058097264,0.12
110562809,0.3097925,0.05667721,0.0005816586,0.12
110566824,0.3097073,0.05663039,0.0005812884,0.12
110570892,0.3097335,0.056726687,0.00058207085,0.12
110574862,0.31002995,0.05682286,0.00058344955,0.12
110578868,0.3101484,0.056899004,0.0005840267,0.12
110582822,0.3104698,0.05692407,0.000585386,0.12
110586821,0.31071043,0.057038497,0.00058638904,0.12
110590896,0.31088245,0.05694429,0.0005864828,0.12
110594843,0.3109001,0.05683942,0.0005856125,0.12
110598856,0.3109149,0.056666497,0.0005840283,0.12
110602828,0.31066877,0.056526877,0.00058139185,0.12
110606813,0.31066832,0.056388788,0.00057984283,0.12
110610857,0.31049153,0.056423016,0.0005798207,0.12
110614836,0.3106772,0.056390356,0.00058057497,0.12
110618876,0.31066778,0.056541078,0.00058131886,0.12
110622823,0.31084216,0.056673493,0.0005829002,0.12
110626852,0.31095463,0.05677905,0.00058501906,0.12
110630850,0.31109333,0.056810625,0.00058564864,0.12
110634856,0.31106693,0.056904487,0.000586361,0.12
110638907,0.31095392,0.05678013,0.000584657,0.12
110642831,0.31068748,0.05673808,0.0005841315,0.12
110646837,0.31053612,0.05650101,0.0005812912,0.12
110650867,0.31022835,0.056346424,0.00057890493,0.12
110654851,0.31017545,0.056349553,0.0005786458,0.12
110658902,0.31003758,0.056249805,0.00057744817,0.12
110662816,0.31011862,0.056250207,0.00057775475,0.12
110666831,0.31031382,0.056314625,0.00057890976,0.12
110670820,0.3103728,0.056439593,0.0005798088,0.12
110674857,0.3104962,0.056544825,0.0005821758,0.12
110678885,0.31059143,0.056544535,0.00058148155,0.12
110682809,0.31049365,0.056439746,0.00058027543,0.12
110686849,0.310505,0.05637453,0.0005798084,0.12
110690822,0.31014183,0.056264095,0.00057792506,0.12
110694856,0.3098765,0.0561324,0.00057605066,0.12
110698912,0.30975023,0.056139186,0.0005759425,0.12
110702818,0.30946216,0.056059986,0.00057459716,0.12
110706843,0.30958766,0.056181677,0.0005759857,0.12
110710818,0.30975443,0.05636249,0.00057856453,0.12
110714819,0.3098577,0.056509484,0.00058060203,0.12
110718906,0.31025326,0.056710847,0.0005830097,0.12
110722819,0.3105273,0.05665748,0.00058308034,0.12
110726860,0.31071496,0.056723356,0.0005844674,0.12
110730831,0.31080088,0.056580983,0.00058218697,0.12
110734822,0.31054112,0.056459755,0.0005803759,0.12
110738885,0.31039596,0.05630527,0.00057853747,0.12
110742867,0.31013462,0.056182463,0.0005772035,0.12
110746842,0.31004888,0.056053303,0.000575704,0.12
110750822,0.31014168,0.056081295,0.0005758712,0.12
110754827,0.31029138,0.05623901,0.0005783901,0.12
110758898,0.3105824,0.0563043,0.00057902606,0.12
110762856,0.31078163,0.056603454,0.00058248057,0.12
110766864,0.31086275,0.056592938,0.0005826244,0.12
110770824,0.31100088,0.056619223,0.00058360497,0.12
110774851,0.31077513,0.05659519,0.0005819979,0.12
110778900,0.31068075,0.05643771,0.0005806795,0.12
110794834,0.31011057,0.05626504,0.00057785574,0.12
110798880,0.31021148,0.05640331,0.00057953154,0.12
110802849,0.31034327,0.05653219,0.0005809573,0.12
110806817,0.310184,0.056747377,0.00058238715,0.12
110810782,0.31042102,0.05698477,0.0005855658,0.12
110814817,0.3102257,0.056892246,0.00058464665,0.12
110818788,0.31017444,0.056840967,0.00058361713,0.12
110822846,0.3100485,0.05662427,0.0005814052,0.12
110826863,0.3098746,0.056446746,0.00057906465,0.12
110830790,0.3095761,0.056137066,0.0005762643,0.12
110834861,0.30960947,0.056107204,0.00057577837,0.12
110838798,0.30938816,0.055944316,0.0005731187,0.12
110842852,0.30960792,0.056005534,0.0005743704,0.12
110846881,0.3097768,0.05601155,0.0005745781,0.12
110850781,0.31007612,0.056162097,0.00057690265,0.12
110854858,0.31039506,0.05618806,0.00057801703,0.12
110858792,0.31062093,0.056241594,0.000578905,0.12
110862844,0.3107501,0.05611323,0.0005774577,0.12
110866847,0.31067684,0.05608865,0.0005771803,0.12
110870795,0.31045133,0.055822223,0.00057406374,0.12
110874856,0.31032783,0.05573616,0.00057242496,0.12
110878799,0.3100577,0.055630628,0.0005711931,0.12
110882798,0.31004387,0.055671856,0.0005721363,0.12
110886879,0.31002498,0.055623703,0.00057084975,0.12
110890783,0.31028157,0.055718455,0.0005730197,0.12
110894831,0.31045273,0.055856433,0.0005735918,0.12
111115690,0.3109751,0.055564035,0.00057273544,0.12
111119620,0.31118995,0.055613637,0.0005733201,0.12
111123652,0.31133857,0.055735175,0.00057454815,0.12
111127626,0.3113682,0.05574645,0.00057492615,0.12
111131650,0.31147045,0.05554232,0.0005729516,0.12
111135699,0.31132767,0.055526145,0.00057262694,0.12
111139627,0.31105095,0.05538828,0.00057042623,0.12
111143640,0.31092075,0.05519057,0.00056856056,0.12
111151645,0.31046006,0.0552364,0.0005674738,0.12
111155689,0.3103123,0.055460475,0.0005703284,0.12
111159626,0.31045756,0.0557249,0.00057334185,0.12
111163659,0.31050432,0.055973426,0.00057624036,0.12
111167624,0.31069052,0.056186862,0.00057821354,0.12
111171631,0.3109716,0.056235902,0.0005791207,0.12
111175671,0.31102586,0.05613324,0.0005784845,0.12
111179664,0.3110573,0.055986363,0.0005769632,0.12
111183651,0.31094152,0.05581177,0.0005745195,0.12
111187627,0.31068733,0.055649903,0.00057270017,0.12
111191636,0.3105623,0.05545935,0.0005701914,0.12
111195692,0.31028476,0.055288836,0.0005679496,0.12
111199692,0.31024608,0.05534152,0.00056861097,0.12
111203635,0.31043512,0.055302203,0.00056841475,0.12
111207613,0.31059504,0.055346902,0.00056912843,0.12
111211653,0.31099248,0.0555261,0.0005722346,0.12
111215619,0.31126672,0.055566285,0.0005728755,0.12
111219650,0.31153676,0.05552816,0.00057332433,0.12
111223659,0.31159022,0.05554979,0.000573418,0.12
111227606,0.31133923,0.05540736,0.0005712097,0.12
111231654,0.31110883,0.05521109,0.00056843646,0.12
111235615,0.3108272,0.05512591,0.0005675695,0.12
111239654,0.31043154,0.055062238,0.00056616426,0.12
111243640,0.31037492,0.055143576,0.0005668404,0.12
111247614,0.3104225,0.055251043,0.00056807214,0.12
111251635,0.31058955,0.055457115,0.0005709015,0.12
111255613,0.31078482,0.05560352,0.0005717626,0.12
111259658,0.31110716,0.055622812,0.0005727646,0.12
111263702,0.31132722,0.0556,0.0005731206,0.12
111267628,0.31138283,0.05558893,0.0005738389,0.12
111271653,0.311167,0.05545977,0.0005718491,0.12
111275615,0.31097546,0.05531058,0.00056956464,0.12
111279651,0.31063238,0.055390403,0.0005696925,0.12
111283692,0.3105573,0.055301398,0.0005693535,0.12
111287614,0.31047538,0.055327114,0.0005688432,0.12
111291649,0.3105623,0.055258654,0.00056865514,0.12
111295619,0.31078643,0.055309534,0.0005690638,0.12
111299621,0.31100017,0.055403043,0.00057094416,0.12
111303712,0.31117135,0.055460267,0.0005716949,0.12
111307622,0.31139767,0.055495888,0.000572525,0.12
111311656,0.3112059,0.055475112,0.00057145767,0.12
111315623,0.31099236,0.055281162,0.0005695099,0.12
111319622,0.31076205,0.055140607,0.00056803774,0.12
111323693,0.310488,0.054795444,0.00056319975,0.12
111327611,0.31042126,0.054695804,0.00056281383,0.12
111331646,0.3101761,0.05458944,0.00056056865,0.12
111335609,0.31032747,0.054613557,0.00056107214,0.12
111339640,0.31056368,0.05467953,0.00056250294,0.12
111343705,0.31085828,0.055043478,0.00056645536,0.12
111347659,0.31116727,0.055117067,0.0005677548,0.12
111351661,0.3114021,0.05519042,0.000569088,0.12
111355627,0.3114368,0.055088427,0.00056800456,0.12
111359635,0.31126747,0.054995365,0.000567141,0.12
111363625,0.31084144,0.054717958,0.0005637599,0.12
111367659,0.3107446,0.05454127,0.00056132744,0.12
111371654,0.3103811,0.0544771,0.00056015764,0.12
111375619,0.3102695,0.054536685,0.00056056795,0.12
111379651,0.31022263,0.054483086,0.0005601177,0.12
111383608,0.31054187,0.05470676,0.00056274555,0.12
111387648,0.31071377,0.054965187,0.0005653052,0.12
111391656,0.31097788,0.055184986,0.0005680729,0.12
111395640,0.31100726,0.055385258,0.00057022483,0.12
111399652,0.31118387,0.05547708,0.000571956,0.12
111403624,0.31100765,0.05543284,0.00057134766,0.12
111407657,0.31102914,0.05540201,0.00057085865,0.12
111411668,0.31081054,0.055146523,0.00056746276,0.12
111415632,0.31087497,0.05494452,0.0005657559,0.12
111419662,0.31089067,0.054757815,0.00056438317,0.12
111423628,0.31100035,0.054682054,0.00056341477,0.12
111427680,0.31111237,0.054586112,0.00056231796,0.12
111431695,0.31125695,0.054649685,0.00056318025,0.12
111435633,0.31121552,0.054808278,0.0005651827,0.12
111439643,0.3113962,0.054723576,0.00056490564,0.12
111443612,0.3114573,0.054598533,0.00056334824,0.12
111447637,0.31163555,0.054440036,0.00056185137,0.12
111451713,0.31157416,0.054279447,0.0005598708,0.12
111583634,0.31130242,0.054366022,0.000560504,0.12
111587638,0.31104362,0.05408051,0.00055706827,0.12
111591632,0.31083593,0.053952232,0.0005553981,0.12
111595681,0.31064856,0.053759098,0.0005530512,0.12
111600457,0.3105272,0.053613666,0.0005510016,0.12
111604413,0.31064674,0.053629715,0.00055162376,0.12
111608447,0.3107382,0.05366098,0.0005522544,0.12
111612469,0.31085032,0.053876236,0.0005544199,0.12
111616507,0.3110162,0.054074027,0.0005576261,0.12
111620471,0.31104937,0.0539889,0.00055651047,0.12
111624422,0.31095353,0.05402253,0.0005566317,0.12
111628470,0.31070733,0.054047666,0.0005560153,0.12
111632465,0.31043878,0.05396558,0.0005549884,0.12
111636450,0.3101758,0.053979825,0.00055438565,0.12
111640526,0.3100975,0.054042503,0.0005552692,0.12
111644422,0.3098663,0.05401354,0.00055457547,0.12
111648459,0.31009036,0.054144938,0.0005560952,0.12
111652421,0.31017908,0.05418474,0.00055671396,0.12
111656464,0.31032494,0.054215148,0.0005569808,0.12
111660463,0.3105623,0.05425454,0.00055808097,0.12
111664597,0.31072196,0.054029986,0.0005555579,0.12
111668477,0.31070772,0.053958815,0.00055547414,0.12
111672430,0.31060702,0.053748995,0.00055273966,0.12
111676496,0.31039557,0.05343183,0.000549191,0.12
111680409,0.31020805,0.05307402,0.0005453829,0.12
111684418,0.31021795,0.052986424,0.00054440927,0.12
111688611,0.31008452,0.05295369,0.00054394134,0.12
111692413,0.3102235,0.05309212,0.00054542144,0.12
111696465,0.31033096,0.053201847,0.0005466512,0.12
111700506,0.31058794,0.053503104,0.0005507029,0.12
111704437,0.31056333,0.053698655,0.00055210857,0.12
111708452,0.31083205,0.05388698,0.0005552716,0.12
111712516,0.31081825,0.05386864,0.0005545019,0.12
111716467,0.31073537,0.05393555,0.00055487076,0.12
111720502,0.31065208,0.05384866,0.00055403035,0.12
111724424,0.3104891,0.053593963,0.0005512793,0.12
111728468,0.31019366,0.05345144,0.0005495169,0.12
111732418,0.31021002,0.05336051,0.00054775825,0.12
111736546,0.3100102,0.05327503,0.0005473502,0.12
111740526,0.31013674,0.053223398,0.0005466753,0.12
111744423,0.310252,0.05338326,0.00054861954,0.12
111748445,0.31044674,0.053479265,0.00055033865,0.12
111752436,0.31066003,0.05352068,0.00055085245,0.12
111756451,0.3108238,0.053448312,0.0005504648,0.12
111868464,0.30996266,0.053173244,0.0005458726,0.12
111872414,0.31019324,0.05329279,0.00054762594,0.12
111876485,0.31034693,0.05345188,0.0005492238,0.12
111880517,0.31064573,0.05370282,0.0005524263,0.12
111884479,0.3106864,0.05366272,0.0005518942,0.12
111888459,0.31079802,0.05361287,0.0005517538,0.12
111892430,0.31061473,0.05340256,0.0005489125,0.12
112325259,0.31113937,0.052195735,0.00053784356,0.12
112329251,0.3113114,0.052024506,0.0005359453,0.12
112333207,0.3112501,0.05184922,0.00053426606,0.12
112337220,0.31098598,0.051679805,0.000532781,0.12
112341264,0.31071642,0.05157304,0.000530769,0.12
112345257,0.31046715,0.051461264,0.0005295475,0.12
112349225,0.31026655,0.051488075,0.0005292204,0.12
112353212,0.3103291,0.051711556,0.0005309783,0.12
112357210,0.31044787,0.051879056,0.00053336716,0.12
112361261,0.31075528,0.052077465,0.0005360518,0.12
112365259,0.31097463,0.05233942,0.00053883827,0.12
112369267,0.31122762,0.052399382,0.00053983874,0.12
112373215,0.3112217,0.052333985,0.0005388927,0.12
112377223,0.31117028,0.05214834,0.0005371956,0.12
112381244,0.31100202,0.05200113,0.00053530256,0.12
112385245,0.31064582,0.051652737,0.00053155265,0.12
112389276,0.31053677,0.051441856,0.0005284877,0.12
112393234,0.31020483,0.051347103,0.0005276883,0.12
112397267,0.31034818,0.051272277,0.0005276634,0.12
112401233,0.31050688,0.051336013,0.00052810216,0.12
112405264,0.31056967,0.05146725,0.00052959984,0.12
112409263,0.31103703,0.051694464,0.0005325211,0.12
112413220,0.31110534,0.051825333,0.0005339998,0.12
112417218,0.31123307,0.051868707,0.0005343034,0.12
112421261,0.3110218,0.051987235,0.00053562917,0.12
112425208,0.31073433,0.052213144,0.00053776865,0.12
112429288,0.31044644,0.052140918,0.00053608575,0.12
112433228,0.3100961,0.052188795,0.0005362527,0.12
112437258,0.30995002,0.05200021,0.0005338614,0.12
112441236,0.3099978,0.051997818,0.0005334866,0.12
112445212,0.31000224,0.051915392,0.0005324924,0.12
112449276,0.31045386,0.051994905,0.0005347176,0.12
112453215,0.31048074,0.05201412,0.00053485326,0.12
112457239,0.31084725,0.051922426,0.000534558,0.12
112461265,0.31097567,0.051736295,0.0005329737,0.12
112465220,0.3110774,0.051592566,0.0005318124,0.12
112469298,0.31119108,0.051479895,0.0005307917,0.12
112473263,0.3109839,0.051131517,0.00052682665,0.12
112477238,0.31086385,0.05124571,0.00052756874,0.12
112481252,0.31071067,0.051240325,0.0005277912,0.12
112485220,0.31065488,0.051490575,0.0005295637,0.12
112489314,0.31074524,0.05174888,0.0005323995,0.12
112493245,0.31077608,0.051947735,0.0005351058,0.12
112497256,0.31111962,0.05201475,0.0005361844,0.12
112501233,0.3112665,0.052204873,0.00053849956,0.12
112505226,0.31134093,0.052082993,0.0005371178,0.12
112509270,0.3112117,0.052063238,0.00053720037,0.12
112513237,0.31101593,0.051887855,0.00053439516,0.12
112517253,0.31062442,0.051559284,0.0005303109,0.12
112521245,0.31042188,0.051364742,0.00052798836,0.12
112525215,0.31013373,0.05120941,0.0005253665,0.12
112529267,0.3104435,0.051044624,0.0005248789,0.12
112761390,0.31148344,0.05087767,0.00052519003,0.12
112765299,0.31170067,0.050949726,0.0005261389,0.12
112769223,0.31178555,0.05103983,0.00052722613,0.12
112773258,0.3116623,0.051182453,0.00052896125,0.12
112777206,0.31154028,0.05120977,0.00052906125,0.12
112781207,0.31137604,0.05108876,0.0005270524,0.12
112785473,0.31117138,0.051284045,0.00052816543,0.12
112789210,0.31098154,0.051260512,0.00052753807,0.12
112793224,0.3109993,0.051318724,0.0005288323,0.12
112797217,0.31128007,0.05139247,0.00052918814,0.12
112801205,0.31139812,0.051414087,0.0005302768,0.12
112805294,0.31167215,0.051375546,0.00052985677,0.12
112810022,0.311881,0.051205024,0.00052909146,0.12
112814019,0.3121235,0.051007606,0.00052750384,0.12
112818074,0.31211188,0.050934695,0.00052683946,0.12
112822056,0.31199518,0.05067704,0.000523765,0.12
112826094,0.3119685,0.050593883,0.00052226597,0.12
112830012,0.3118767,0.050626338,0.0005226999,0.12
112834023,0.31158882,0.05072032,0.00052324904,0.12
112838065,0.31179848,0.050828215,0.0005250719,0.12
112842092,0.31171092,0.05118373,0.00052856054,0.12
112846090,0.31209362,0.051546015,0.000532784,0.12
112850013,0.31223643,0.05160127,0.0005334342,0.12
112854058,0.31256196,0.051683612,0.0005348656,0.12
112858014,0.3126734,0.051597588,0.00053425075,0.12
112862016,0.31250858,0.051354405,0.0005318516,0.12
112866078,0.31215876,0.051108252,0.0005287402,0.12
112870053,0.31204754,0.05077105,0.0005247269,0.12
112874011,0.31156212,0.050684404,0.00052354997,0.12
112878016,0.3116382,0.050638333,0.0005227641,0.12
112882014,0.31176722,0.05047811,0.0005209077,0.12
112886109,0.3122214,0.05065899,0.0005236611,0.12
112890013,0.31249338,0.050848093,0.0005261453,0.12
112894043,0.3127412,0.051039256,0.00052846473,0.12
112898028,0.31279224,0.05112131,0.0005293749,0.12
112902016,0.31255078,0.051294383,0.00053117535,0.12
112906106,0.31216004,0.051412877,0.00053145806,0.12
112910054,0.3116415,0.05130514,0.00052990037,0.12
112914039,0.31145927,0.05122929,0.00052817643,0.12
112918016,0.3114193,0.05122119,0.0005282984,0.12
112922017,0.31131828,0.05111166,0.00052719127,0.12
112926123,0.3116635,0.05107476,0.00052765926,0.12
112930061,0.31176347,0.050860915,0.0005252283,0.12
112934070,0.31197155,0.050999265,0.00052698486,0.12
112938025,0.3122861,0.050967246,0.00052736927,0.12
112942016,0.31222984,0.050593935,0.0005234449,0.12
112946057,0.31243706,0.05043084,0.00052171247,0.12
112950052,0.31247145,0.050245505,0.00051997625,0.12
112954036,0.3122213,0.049938038,0.0005159156,0.12
112958016,0.3124692,0.04985998,0.0005165316,0.12
112962037,0.312186,0.049915444,0.0005167005,0.12
112966069,0.31226674,0.04995418,0.00051700545,0.12
112970056,0.3122687,0.050281335,0.0005198248,0.12
112974107,0.31226635,0.050482288,0.0005221064,0.12
112978017,0.31267515,0.05082993,0.00052645226,0.12
112982028,0.31266797,0.05105183,0.00052810606,0.12
112986047,0.31261295,0.05111481,0.00052851625,0.12
112990042,0.31244466,0.051189,0.0005297586,0.12
112994107,0.31223255,0.051344834,0.00053145876,0.12
112998012,0.31183216,0.051145606,0.0005283922,0.12
113002012,0.31154045,0.051145054,0.00052810257,0.12
113006009,0.31148183,0.051058687,0.00052719045,0.12
113010055,0.31143597,0.051152553,0.0005272245,0.12
113014100,0.31139445,0.051087175,0.0005269261,0.12
113018022,0.3118305,0.051198278,0.000528504,0.12
113022022,0.3117758,0.051307023,0.00052951113,0.12
113026014,0.31229705,0.051375624,0.0005307646,0.12
113030045,0.3122421,0.051414303,0.0005311283,0.12
113034112,0.31222257,0.051239047,0.0005299363,0.12
113038026,0.31224218,0.051177893,0.0005290767,0.12
113042060,0.31161755,0.050771702,0.0005238751,0.12
113046015,0.31155452,0.05066175,0.0005222287,0.12
113050023,0.3111252,0.050567366,0.0005208301,0.12
113054079,0.31126893,0.05067872,0.0005220703,0.12
113058016,0.31125325,0.050678987,0.00052251725,0.12
113062041,0.31149277,0.050843876,0.0005238813,0.12
113066014,0.3120098,0.050907783,0.00052583823,0.12
113070031,0.31242222,0.051001124,0.00052787893,0.12
113074115,0.3124247,0.051013358,0.00052821066,0.12
113078056,0.3125836,0.051009264,0.0005280819,0.12
113082063,0.31223843,0.050830703,0.00052601227,0.12
113086012,0.3122476,0.050738044,0.0005242545,0.12
113090017,0.31190118,0.050691422,0.000523758,0.12
113094089,0.31201857,0.05062289,0.0005228077,0.12
113098054,0.31213346,0.050660405,0.0005240225,0.12
113102050,0.3121109,0.050609656,0.0005229198,0.12
113106037,0.31239256,0.05082687,0.00052639237,0.12
113110044,0.31224194,0.050915398,0.00052668806,0.12
113114057,0.3126484,0.051118,0.000529073,0.12
113118050,0.31247595,0.05116583,0.0005294518,0.12
113122054,0.3123454,0.051150218,0.0005294854,0.12
113126013,0.312396,0.051135622,0.0005292258,0.12
113130049,0.312053,0.051097836,0.00052791834,0.12
113134065,0.31182006,0.051053233,0.0005275142,0.12
113138064,0.3116504,0.050995674,0.00052629726,0.12
113142103,0.3116455,0.050983004,0.0005259152,0.12
113146014,0.31190008,0.050934423,0.0005263457,0.12
113150016,0.31197885,0.050865557,0.0005257779,0.12
113154012,0.312485,0.050702497,0.0005245077,0.12
113158050,0.31280017,0.05068453,0.000525463,0.12
113162098,0.31284058,0.050464727,0.00052306714,0.12
113166012,0.31277105,0.050336078,0.0005203514,0.12
113170038,0.3125758,0.05012279,0.00051870034,0.12
113174032,0.31227124,0.049936797,0.00051644834,0.12
113178033,0.31200147,0.05002369,0.00051726506,0.12
113182110,0.31175378,0.050044537,0.0005164527,0.12
113186014,0.31209534,0.050275728,0.0005201627,0.12
113190055,0.31209126,0.050611455,0.0005235755,0.12
113194020,0.31234887,0.051085535,0.0005289641,0.12
113198011,0.31242397,0.051246673,0.0005301175,0.12
113202075,0.312697,0.051565934,0.00053368584,0.12
113206019,0.312488,0.05152433,0.00053299026,0.12
113210040,0.3123981,0.05146625,0.00053262775,0.12
113214024,0.31213847,0.051344912,0.0005311736,0.12
113218028,0.3120619,0.051158372,0.0005291849,0.12
113222093,0.31175053,0.050884005,0.000525569,0.12
113226015,0.31173363,0.050725255,0.00052382285,0.12
113230103,0.31175172,0.050635077,0.0005227165,0.12
113234034,0.31191745,0.050873578,0.00052601553,0.12
113238019,0.31207094,0.0510043,0.00052730524,0.12
113242093,0.31229907,0.05111582,0.00052909175,0.12
113246055,0.31260327,0.051200893,0.0005303473,0.12
113250044,0.31250322,0.051248353,0.0005304442,0.12
113254017,0.3121886,0.05137547,0.00053149386,0.12
113258022,0.3120945,0.051178154,0.0005289865,0.12
113262113,0.3118102,0.051208984,0.0005291763,0.12
113266052,0.3117266,0.051225033,0.0005285148,0.12
113270062,0.31167528,0.05118318,0.000528147,0.12
113274033,0.31185034,0.05101944,0.00052683416,0.12
113278073,0.3122134,0.051139127,0.000529251,0.12
113282044,0.3122911,0.05110602,0.00052891916,0.12
113286055,0.31260464,0.051020652,0.0005280182,0.12
113290045,0.31266755,0.050898235,0.0005263974,0.12
113294014,0.31281194,0.05090291,0.00052695826,0.12
113298024,0.3127573,0.050685186,0.0005251684,0.12
113302017,0.31260708,0.050588194,0.0005232269,0.12
113306061,0.3127271,0.05058504,0.00052419753,0.12
113310091,0.31232965,0.05077345,0.00052572624,0.12
113314015,0.31227356,0.05097118,0.0005275022,0.12
113318025,0.31231692,0.051170193,0.0005297406,0.12
113322024,0.31229898,0.051612344,0.00053421216,0.12
113326067,0.31254905,0.052036542,0.00053868635,0.12
113330086,0.31265926,0.052083936,0.0005393423,0.12
113334050,0.31290865,0.05208971,0.00054017163,0.12
113338064,0.31302541,0.052015707,0.00053904747,0.12
113342029,0.31267264,0.051716644,0.0005355351,0.12
113346026,0.3126308,0.051327243,0.000531403,0.12
113350105,0.3121483,0.05104865,0.00052767264,0.12
113354010,0.3121109,0.0509264,0.0005257951,0.12
113358040,0.31210196,0.050750207,0.000524062,0.12
113362015,0.31244445,0.05053066,0.0005227646,0.12
113366032,0.31283167,0.050724458,0.00052584236,0.12
113370098,0.31307915,0.050914954,0.0005277945,0.12
113374009,0.31336856,0.05094422,0.00052868086,0.12
113378053,0.31348234,0.05096252,0.000529818,0.12
113382015,0.31313935,0.051046465,0.0005301978,0.12
113386056,0.3128484,0.051147304,0.0005296951,0.12
113390049,0.31232944,0.051025786,0.0005272368,0.12
113393987,0.312314,0.050977506,0.0005272926,0.12
113398006,0.31212875,0.0508698,0.0005253488,0.12
113401986,0.31210303,0.0509618,0.0005272059,0.12
113406008,0.31235653,0.050772075,0.00052470743,0.12
113410093,0.31233266,0.050929014,0.0005266066,0.12
113414017,0.31254783,0.05099451,0.00052772474,0.12
113418039,0.3127679,0.05093076,0.0005275983,0.12
113421983,0.31265545,0.050941058,0.000527509,0.12
113426048,0.31286958,0.05095509,0.00052800745,0.12
113429983,0.31256923,0.050839387,0.0005257805,0.12
113434024,0.31248337,0.050893053,0.0005268858,0.12
113438018,0.31234014,0.05074681,0.00052519713,0.12
113441984,0.31220734,0.050973706,0.0005268151,0.12
113445993,0.3121901,0.051094554,0.0005280109,0.12
113449985,0.31215608,0.051224403,0.00052925025,0.12
113454804,0.3124718,0.05140732,0.000531944,0.12
113458856,0.31287512,0.051758423,0.0005359016,0.12
113462802,0.312925,0.051677387,0.0005354825,0.12
113466854,0.3131344,0.051531162,0.00053427194,0.12
113470882,0.31297368,0.05152971,0.00053457957,0.12
113474814,0.31271428,0.051234912,0.0005309987,0.12
113478886,0.31276795,0.051211838,0.0005303088,0.12
113482806,0.3123469,0.051113386,0.0005285304,0.12
113486856,0.31265363,0.05098295,0.00052804215,0.12
113490883,0.31266218,0.050912123,0.00052725006,0.12
113494802,0.31291178,0.05102263,0.00052835554,0.12
113498865,0.31330863,0.05113411,0.000530526,0.12
113502811,0.3136034,0.051295225,0.0005329772,0.12
113506845,0.3137444,0.05118092,0.00053218525,0.12
113510881,0.31374002,0.05130246,0.00053311617,0.12
113514865,0.31361306,0.051285885,0.0005329405,0.12
113518851,0.31344044,0.05125848,0.0005318967,0.12
113522802,0.31293535,0.05118052,0.0005305138,0.12
113526859,0.31278375,0.051016547,0.00052857684,0.12
113530812,0.31258687,0.051208157,0.00053034903,0.12
113534846,0.31275672,0.051239938,0.0005307203,0.12
113538873,0.31271145,0.051407713,0.0005326205,0.12
113542813,0.31296694,0.05156298,0.0005344533,0.12
113546848,0.31342322,0.051618155,0.0005362139,0.12
113550821,0.3133514,0.051488195,0.00053486926,0.12
113554841,0.31336725,0.051475935,0.0005336085,0.12
113558853,0.3131697,0.051333077,0.000532277,0.12
113562809,0.31303966,0.051231958,0.00053063786,0.12
113566836,0.31294218,0.051228296,0.0005312068,0.12
113570819,0.31278023,0.05130962,0.0005312824,0.12
113574858,0.31298998,0.051312823,0.0005316,0.12
113578900,0.3129585,0.05138503,0.0005326753,0.12
113582810,0.31308344,0.05149537,0.0005340708,0.12
113586843,0.31329474,0.051574968,0.0005355245,0.12
113590817,0.31339785,0.051786147,0.0005372441,0.12
113594851,0.31354737,0.0517022,0.0005367857,0.12
113598898,0.31341723,0.05181492,0.00053788425,0.12
113602803,0.31335038,0.051808707,0.000537528,0.12
113606832,0.31325307,0.051678207,0.00053629855,0.12
113610817,0.31290206,0.05158718,0.00053464045,0.12
113614841,0.31279644,0.051500782,0.00053371297,0.12
113618897,0.31284565,0.051284697,0.00053131836,0.12
113622814,0.31292382,0.051419646,0.00053279934,0.12
113626849,0.3132548,0.0515268,0.0005347884,0.12
113630803,0.31351343,0.05157245,0.00053573685,0.12
113634845,0.31406093,0.051337503,0.0005341142,0.12
113638892,0.31406987,0.05123743,0.0005333664,0.12
113642823,0.31373623,0.051095705,0.0005309886,0.12
113646851,0.31361002,0.050701868,0.0005262618,0.12
113650803,0.31316546,0.05059736,0.00052468374,0.12
113654817,0.3129715,0.050559476,0.00052418327,0.12
113658906,0.31265053,0.05057176,0.00052412157,0.12
113662816,0.31298947,0.050630104,0.00052453624,0.12
113666851,0.31312266,0.050921567,0.0005282301,0.12
113670804,0.3133067,0.05138507,0.00053305324,0.12
113674804,0.31357324,0.05158545,0.0005354524,0.12
113678892,0.31362456,0.05185599,0.0005382426,0.12
113682858,0.31355911,0.051932015,0.00053943746,0.12
113686863,0.3134764,0.051954485,0.00053899863,0.12
113690806,0.31311953,0.051634643,0.00053568714,0.12
113694841,0.31324494,0.051588546,0.0005349757,0.12
113698851,0.31295618,0.051441994,0.0005328076,0.12
113702855,0.3129498,0.05152742,0.00053372013,0.12
113706845,0.3128872,0.051398437,0.0005320967,0.12
113710822,0.31294122,0.05158969,0.0005351588,0.12
113714837,0.31298864,0.051818952,0.000537502,0.12
113718859,0.31312788,0.051764667,0.0005372555,0.12
113722839,0.31344184,0.051873747,0.0005389024,0.12
113726850,0.31361872,0.051968414,0.00054006855,0.12
113730809,0.31338972,0.051915992,0.0005389959,0.12
113734852,0.3135383,0.051922757,0.0005384398,0.12
113738821,0.31318778,0.05178269,0.000537751,0.12
113742854,0.31304398,0.05172285,0.00053644145,0.12
113746851,0.31295317,0.051601432,0.000535562,0.12
113750818,0.3129719,0.05133053,0.0005317108,0.12
113754853,0.31326598,0.051422536,0.00053411815,0.12
113758815,0.3135597,0.051338412,0.0005330076,0.12
113762842,0.31377485,0.051195033,0.00053204945,0.12
113766899,0.31414038,0.051047683,0.00053145643,0.12
113770809,0.31428912,0.050889324,0.0005295771,0.12
113774848,0.3141591,0.050715003,0.0005275117,0.12
113778831,0.313931,0.0506566,0.00052708626,0.12
113782823,0.3137608,0.050672844,0.00052646344,0.12
113786869,0.31347606,0.05082123,0.00052793504,0.12
113790804,0.3134224,0.05104944,0.0005297643,0.12
113794855,0.31337816,0.051376276,0.0005330248,0.12
113798814,0.313425,0.051567957,0.000534897,0.12
113802846,0.31366873,0.051948033,0.00053964363,0.12
113806886,0.31388438,0.052024942,0.00054117606,0.12
113810802,0.31388864,0.051926795,0.00054019166,0.12
113814851,0.31392506,0.051823303,0.0005393935,0.12
113818834,0.3136678,0.051531628,0.00053543824,0.12
113822844,0.31342244,0.05136447,0.00053296,0.12
113826884,0.31304482,0.05118028,0.00053037517,0.12
113830809,0.31279123,0.051117886,0.00052935653,0.12
113834851,0.31278163,0.051053844,0.0005291169,0.12
113838817,0.31286404,0.051150672,0.0005299403,0.12
113842860,0.31311145,0.0513958,0.00053310284,0.12
113846848,0.3134456,0.051589422,0.0005358705,0.12
113850861,0.31371143,0.05155944,0.0005356203,0.12
113854842,0.31380445,0.051523462,0.00053591595,0.12
113858813,0.31359708,0.05155515,0.0005356943,0.12
113862841,0.31349525,0.051622428,0.0005360638,0.12
113866812,0.3132694,0.051400818,0.00053294224,0.12
113870828,0.31300902,0.05129505,0.00053231727,0.12
113874848,0.31313458,0.05115384,0.0005310242,0.12
113878821,0.31306356,0.050889954,0.0005279767,0.12
113882848,0.31336892,0.050809387,0.00052803394,0.12
113886813,0.31344748,0.05069687,0.0005264294,0.12
113890843,0.31382665,0.05056304,0.0005254296,0.12
113894833,0.31403667,0.050464872,0.0005248489,0.12
113898815,0.3141992,0.050374232,0.00052442844,0.12
113902838,0.3142364,0.050346885,0.00052360614,0.12
113906822,0.3141561,0.050444275,0.0005250791,0.12
113910851,0.3137368,0.050414935,0.0005245858,0.12
113914891,0.31348276,0.050459784,0.00052400574,0.12
113918813,0.3129515,0.050867915,0.0005271258,0.12
113922853,0.31307343,0.05113238,0.00053025264,0.12
113926814,0.31282473,0.05135858,0.0005323699,0.12
113930888,0.313101,0.051620897,0.0005353759,0.12
113935658,0.31343296,0.051720913,0.00053662877,0.12
113939620,0.31356075,0.051641986,0.0005360703,0.12
113943679,0.31359842,0.051489286,0.00053490215,0.12
113947666,0.31335193,0.051317915,0.0005325278,0.12
113951663,0.31319383,0.051024176,0.0005298553,0.12
113955642,0.31300214,0.05107291,0.0005293781,0.12
113959617,0.3127967,0.050836932,0.00052662595,0.12
113963640,0.31306696,0.050876044,0.00052749686,0.12
113967616,0.3131772,0.05096031,0.0005288411,0.12
113971662,0.31341106,0.0511286,0.0005307434,0.12
113975665,0.31388405,0.051363967,0.0005344673,0.12
113979626,0.3139634,0.05151586,0.0005352821,0.12
113983657,0.31426567,0.05145383,0.0005353707,0.12
113987618,0.31395346,0.051511128,0.0005355452,0.12
113991662,0.31391475,0.05141283,0.0005346247,0.12
113995656,0.31381905,0.05125213,0.0005330864,0.12
113999627,0.31347638,0.051014427,0.0005300714,0.12
114003656,0.31343573,0.050883006,0.0005283259,0.12
114007616,0.31339315,0.05081858,0.0005274943,0.12
114011706,0.3134504,0.050640784,0.0005256737,0.12
114015700,0.3135867,0.05085,0.0005277651,0.12
114019624,0.31382006,0.05079148,0.0005280307,0.12
114023648,0.31429583,0.050789602,0.0005291019,0.12
114027615,0.3143481,0.050711546,0.00052840495,0.12
114031695,0.31432658,0.05088446,0.0005302165,0.12
114035706,0.31429443,0.050584104,0.0005265654,0.12
114039622,0.31416017,0.050614007,0.0005267509,0.12
114043680,0.31387177,0.05064373,0.00052652805,0.12
114047621,0.3135302,0.050690655,0.00052639766,0.12
114051658,0.3136275,0.050892085,0.0005288433,0.12
114055687,0.31360173,0.05110615,0.0005309349,0.12
114059620,0.3137661,0.051332477,0.00053384807,0.12
114063646,0.31391084,0.051438488,0.0005345648,0.12
114067619,0.31401002,0.051417205,0.00053457334,0.12
114071662,0.31399232,0.051361535,0.0005343211,0.12
114075658,0.31393507,0.051324476,0.0005336483,0.12
114079619,0.31370562,0.051053528,0.0005310913,0.12
114083680,0.31371152,0.05108332,0.00053052214,0.12
114087616,0.31343183,0.051090747,0.0005299615,0.12
114091675,0.31328833,0.051030036,0.00052916247,0.12
114095658,0.31346738,0.050961774,0.0005290409,0.12
114099615,0.31346726,0.05105035,0.0005298273,0.12
114103646,0.31377462,0.051097933,0.000530603,0.12
114107626,0.31410864,0.051263675,0.0005333115,0.12
114111661,0.3144109,0.051070873,0.0005319234,0.12
114115659,0.3145614,0.05104337,0.0005318846,0.12
114119665,0.31421423,0.05094345,0.0005304521,0.12
114123659,0.31404892,0.050617635,0.0005271854,0.12
114127624,0.3137538,0.050282843,0.0005225528,0.12
114131674,0.3134722,0.05033696,0.0005224132,0.12
114135666,0.31335986,0.050154395,0.00052087987,0.12
114139664,0.31366584,0.05010245,0.0005204877,0.12
114143676,0.31388718,0.050387554,0.00052441354,0.12
114147620,0.31426883,0.050489455,0.00052530516,0.12
114151675,0.31460345,0.050481886,0.00052658835,0.12
114155614,0.31474313,0.05043698,0.0005256455,0.12
114159689,0.31483102,0.050268963,0.00052457454,0.12
114163672,0.3145983,0.050290376,0.000523852,0.12
114167623,0.31440803,0.050074834,0.00052106695,0.12
114171654,0.3143262,0.05003463,0.00052110717,0.12
114175624,0.31399894,0.050087612,0.000520581,0.12
114179717,0.3140072,0.05012096,0.0005217405,0.12
114183623,0.31399143,0.05026775,0.0005229897,0.12
114187624,0.31387413,0.050504316,0.0005248033,0.12
114191668,0.31411338,0.05078841,0.0005287422,0.12
114195625,0.31406447,0.050865304,0.0005293541,0.12
114199694,0.31428808,0.05094241,0.00053083873,0.12
114203664,0.31436577,0.051122565,0.00053240184,0.12
114207616,0.31421396,0.05108891,0.0005317228,0.12
114211644,0.31406352,0.05103305,0.00053123094,0.12
114215623,0.31381774,0.05085613,0.0005292559,0.12
114219650,0.31359035,0.05075031,0.0005270047,0.12
114223718,0.31354332,0.050603993,0.0005256614,0.12
114227618,0.31372893,0.050543983,0.00052541704,0.12
114231655,0.3140514,0.050659347,0.00052674,0.12
114235623,0.3143246,0.05056365,0.000526907,0.12
114239669,0.3146781,0.050475836,0.00052618934,0.12
114243652,0.31484663,0.05034675,0.000524872,0.12
114247616,0.31483212,0.050268576,0.0005243352,0.12
114251661,0.3146227,0.050191756,0.00052254315,0.12
114255625,0.31429106,0.04998467,0.00052018167,0.12
114259650,0.31428617,0.05001981,0.0005205289,0.12
114263663,0.31397128,0.050004274,0.00052055274,0.12
114267615,0.31411994,0.050136097,0.00052143435,0.12
114271665,0.31413278,0.050131053,0.0005214331,0.12
114275635,0.3143329,0.050307788,0.00052360835,0.12
114279667,0.31474176,0.050317682,0.0005244835,0.12
114283667,0.31496233,0.050168183,0.000523416,0.12
114287664,0.3151833,0.05005686,0.00052250613,0.12
114291644,0.31533092,0.049836874,0.0005201551,0.12
114295623,0.3149902,0.04952285,0.0005163513,0.12
114299660,0.315082,0.04942461,0.00051602005,0.12
114303668,0.3146097,0.04909145,0.0005118595,0.12
114307688,0.31454173,0.049289685,0.0005134088,0.12
114311671,0.31438547,0.049382024,0.0005139627,0.12
114315633,0.31448355,0.049478147,0.0005155265,0.12
114319666,0.31475842,0.04994838,0.00052056304,0.12
114323623,0.31506526,0.0502379,0.0005248074,0.12
114327696,0.31515682,0.050417606,0.00052632426,0.12
114331619,0.31528348,0.050650813,0.0005293064,0.12
114335624,0.31508893,0.05069687,0.0005283003,0.12
114339662,0.31492347,0.050576624,0.0005274497,0.12
114343624,0.3146443,0.05058069,0.00052707945,0.12
114347719,0.31433272,0.05030606,0.0005235756,0.12
114351618,0.31431612,0.05027984,0.0005235794,0.12
114355618,0.31428495,0.050147492,0.00052194233,0.12
114359659,0.3144898,0.05009662,0.0005222428,0.12
114363616,0.31462383,0.049934223,0.0005206765,0.12
114367697,0.31498238,0.04994994,0.00052118313,0.12
114371746,0.3152144,0.04971816,0.0005189028,0.12
114375615,0.3153257,0.04972506,0.0005196687,0.12
114379670,0.3154857,0.049708858,0.00051919336,0.12
114383626,0.31529436,0.049737222,0.0005189619,0.12
114387684,0.31515938,0.049737602,0.00051903643,0.12
114391674,0.31479266,0.049762283,0.00051874947,0.12
114395633,0.31476814,0.049947906,0.00052100635,0.12
114399646,0.3146997,0.05001995,0.0005213545,0.12
114403620,0.314891,0.050202146,0.0005235702,0.12
114407652,0.315181,0.050232854,0.0005240615,0.12
114411657,0.31556997,0.050178982,0.0005242056,0.12
114415617,0.31567892,0.04991673,0.00052203255,0.12
114419677,0.31585184,0.049610727,0.00051862834,0.12
114423619,0.3156641,0.049351487,0.00051667646,0.12
114427655,0.31551957,0.049142603,0.00051362783,0.12
114431656,0.3153442,0.049097393,0.00051335513,0.12
114435686,0.31510165,0.049065396,0.0005126144,0.12
114439654,0.31503838,0.049258675,0.00051444536,0.12
114443621,0.31501874,0.04945087,0.0005156122,0.12
114447640,0.31505385,0.04969959,0.00051854056,0.12
114451660,0.3153091,0.050045032,0.0005228842,0.12
114455699,0.31558326,0.05022734,0.00052506913,0.12
114459668,0.31571147,0.05028158,0.0005258451,0.12
114463617,0.31575903,0.05033671,0.0005260801,0.12
114467661,0.31561685,0.050301332,0.0005258892,0.12
114471665,0.3154363,0.050153404,0.00052437384,0.12
114475661,0.31506523,0.050040055,0.00052213337,0.12
114479627,0.3147898,0.049871642,0.0005198539,0.12
114483614,0.31460574,0.049813714,0.0005192449,0.12
114487665,0.31479847,0.049725786,0.00051793474,0.12
114491636,0.31487027,0.04969748,0.0005183652,0.12
114495701,0.3152835,0.049840733,0.0005206069,0.12
114499632,0.3156241,0.049833536,0.00052132504,0.12
114503622,0.31592083,0.049792036,0.0005208578,0.12
114507659,0.31604034,0.0498861,0.0005219014,0.12
114511616,0.3158786,0.049766004,0.0005212282,0.12
114515682,0.3156504,0.049606726,0.00051908416,0.12
114519622,0.3154932,0.049670674,0.00051932305,0.12
114523621,0.31522554,0.049634483,0.00051777606,0.12
114527672,0.31540364,0.049752403,0.0005193347,0.12
114531620,0.31540722,0.04986122,0.00052108325,0.12
114535701,0.31567502,0.05023048,0.0005249702,0.12
114540391,0.31572345,0.050275505,0.00052601,0.12
114544383,0.3160821,0.050257448,0.0005257572,0.12
114548437,0.31584606,0.050075248,0.00052392785,0.12
114552421,0.31586412,0.049738504,0.0005199631,0.12
114556436,0.31570134,0.049734507,0.0005199465,0.12
114560394,0.3155421,0.049570642,0.0005180168,0.12
114564379,0.31536013,0.049513668,0.00051706634,0.12
114568427,0.31525365,0.04965244,0.00051883626,0.12
114572442,0.315236,0.049711403,0.000518714,0.12
114576441,0.31529507,0.049774367,0.0005199542,0.12
114580378,0.3153637,0.050031796,0.0005230741,0.12
114584381,0.31553102,0.0500063,0.00052198267,0.12
114588428,0.31573126,0.050084494,0.00052363495,0.12
114592394,0.31571758,0.049909618,0.00052199245,0.12
114596477,0.31558287,0.049966842,0.0005224434,0.12
114600378,0.31534576,0.049778678,0.0005199658,0.12
114604379,0.31510523,0.049493894,0.0005168764,0.12
114608411,0.314822,0.049378224,0.00051539036,0.12
114612390,0.31480452,0.049260054,0.0005137638,0.12
114616490,0.31503865,0.049218316,0.0005136352,0.12
114620384,0.31510997,0.049367674,0.0005150087,0.12
114624416,0.31561163,0.049561065,0.0005180703,0.12
114628461,0.31578913,0.04970255,0.0005197078,0.12
114632391,0.3162663,0.04979347,0.0005217473,0.12
114636491,0.31628397,0.049754288,0.0005214019,0.12
114640378,0.31635553,0.04979402,0.0005216873,0.12
114644420,0.3161181,0.049680833,0.0005202128,0.12
114648379,0.31594625,0.049589135,0.0005188847,0.12
114652391,0.3156487,0.049621757,0.0005183232,0.12
114656446,0.31560805,0.04970756,0.00051891897,0.12
114660450,0.31566128,0.04983302,0.0005205259,0.12
114664408,0.315688,0.049944367,0.0005217639,0.12
114668382,0.31591287,0.050168414,0.00052465877,0.12
114672478,0.31626812,0.050190017,0.0005253883,0.12
114676412,0.31628275,0.05009465,0.0005247058,0.12
114680460,0.31631073,0.050117034,0.0005251159,0.12
114684457,0.31619015,0.049955934,0.0005226453,0.12
114688403,0.31605637,0.049780704,0.0005206627,0.12
114692413,0.31595346,0.049672626,0.00051980466,0.12
114696540,0.3157506,0.049470518,0.00051760697,0.12
114700463,0.3157291,0.049431402,0.00051692163,0.12
114704490,0.31584895,0.04935772,0.0005160713,0.12
114708410,0.31589222,0.049349368,0.0005156849,0.12
114712403,0.31610325,0.049434822,0.0005174575,0.12
114716436,0.31622422,0.04948203,0.0005183168,0.12
114720535,0.31638864,0.04948791,0.0005190438,0.12
114724486,0.31637827,0.04943208,0.0005182279,0.12
114728407,0.31620023,0.04942258,0.00051791506,0.12
114732421,0.31607834,0.04927633,0.00051585335,0.12
114736471,0.31589547,0.04921525,0.0005149782,0.12
114740413,0.315469,0.04917717,0.0005140761,0.12
114744573,0.31550995,0.049204353,0.0005140761,0.12
114748418,0.31550863,0.04938052,0.00051606825,0.12
114752416,0.31558895,0.04947018,0.0005167731,0.12
114756457,0.31602415,0.049557302,0.000518411,0.12
114760437,0.316177,0.04951674,0.00051876815,0.12
114764466,0.3164965,0.049418237,0.00051808316,0.12
114768636,0.31644133,0.04936078,0.0005173781,0.12
114772413,0.3162358,0.049248263,0.0005155691,0.12
114776461,0.31588638,0.049111035,0.0005134708,0.12
114780405,0.31564948,0.04917254,0.00051436067,0.12
114784482,0.31519428,0.049283803,0.00051442866,0.12
114788408,0.3151541,0.049443442,0.00051616685,0.12
114792466,0.31531027,0.04973047,0.00051915523,0.12
114796451,0.31546494,0.050227992,0.0005248901,0.12
114800409,0.3157194,0.050596002,0.00052882836,0.12
114804486,0.3159903,0.050705034,0.00053067674,0.12
114808455,0.31618688,0.05087681,0.0005325903,0.12
114812465,0.31611353,0.050773535,0.0005309707,0.12
114816454,0.31608605,0.05052643,0.0005291853,0.12
114820416,0.315906,0.05029988,0.0005268976,0.12
114824516,0.3159819,0.050149452,0.0005254523,0.12
114828444,0.315658,0.049891636,0.0005210962,0.12
114832459,0.31583187,0.04976377,0.0005205113,0.12
114836410,0.31580523,0.049717553,0.0005203079,0.12
114840401,0.31610024,0.049786396,0.0005216896,0.12
114844454,0.3162162,0.04990042,0.000522596,0.12
114848463,0.316571,0.049800903,0.00052290934,0.12
114852428,0.3167037,0.049800597,0.00052253244,0.12
114856403,0.31670538,0.049890224,0.000522911,0.12
114860414,0.316458,0.049819335,0.00052206387,0.12
114864454,0.31624895,0.04980376,0.0005215629,0.12
114868476,0.3159625,0.049901433,0.0005222813,0.12
114872482,0.31580406,0.049868472,0.0005215034,0.12
114876409,0.31567028,0.04990424,0.000521514,0.12
114880411,0.31599465,0.049806613,0.00052130816,0.12
114884449,0.31606528,0.0498927,0.0005215116,0.12
114888591,0.316464,0.04974873,0.0005212107,0.12
114892495,0.3166025,0.049617536,0.000519569,0.12
114896417,0.31680793,0.04957155,0.0005204765,0.12
114900402,0.31680247,0.04944576,0.0005192911,0.12
114904450,0.31673,0.049387682,0.00051862793,0.12
114908455,0.3164731,0.049288224,0.00051644456,0.12
114912564,0.3162458,0.049315028,0.0005163696,0.12
114916403,0.31576517,0.04940335,0.00051640533,0.12
114920412,0.31581372,0.049587008,0.0005189275,0.12
114924453,0.31564668,0.049873,0.0005214807,0.12
114928412,0.31576514,0.050469648,0.00052800897,0.12
114932493,0.3159294,0.05067504,0.0005305348,0.12
114936542,0.31616557,0.05069457,0.00053098385,0.12
114940410,0.31630245,0.05055708,0.00053006643,0.12
114944442,0.316225,0.05031082,0.000526388,0.12
114948402,0.31598112,0.049881816,0.00052216416,0.12
114952508,0.31585506,0.049617015,0.00051864114,0.12
114956412,0.31539267,0.04936504,0.0005155773,0.12
114960526,0.31536993,0.04929012,0.00051473675,0.12
114964401,0.31527486,0.049297,0.0005148352,0.12
114968404,0.31540143,0.04941032,0.00051642995,0.12
114972484,0.31575873,0.049706243,0.00051975413,0.12
114976455,0.31586626,0.04987937,0.00052175915,0.12
114980466,0.3162614,0.050053842,0.00052417774,0.12
114984525,0.3162599,0.050126754,0.0005248291,0.12
114988408,0.31619638,0.050296456,0.0005267013,0.12
114992491,0.3159452,0.050263405,0.0005259177,0.12
114996451,0.31582907,0.050241925,0.00052564696,0.12
115000449,0.3157364,0.050098643,0.0005240636,0.12
115004404,0.31543732,0.05014348,0.00052343705,0.12
115008497,0.31553736,0.0500715,0.0005229318,0.12
115012437,0.31567898,0.05004708,0.00052285055,0.12
115016454,0.3157819,0.050238952,0.0005256112,0.12
115020448,0.31615573,0.050233465,0.00052651373,0.12
115024404,0.3162457,0.050195277,0.0005255793,0.12
115028436,0.31652972,0.050242532,0.0005266408,0.12
115032442,0.31654578,0.05008481,0.0005252032,0.12
115036450,0.31623638,0.049994268,0.0005239012,0.12
115040495,0.3161691,0.04988727,0.00052203226,0.12
115044413,0.3156641,0.049903076,0.0005214738,0.12
115048406,0.31550682,0.050022792,0.0005225234,0.12
115052447,0.31555796,0.05029852,0.0005258679,0.12
115056445,0.31565854,0.050272807,0.0005251537,0.12
115060511,0.31602103,0.050491333,0.0005282718,0.12
115064409,0.31612334,0.050405666,0.00052823214,0.12
115068430,0.31632468,0.05025427,0.0005267886,0.12
115072486,0.31635305,0.050055817,0.00052474416,0.12
115076408,0.31615174,0.049867414,0.0005219692,0.12
115080491,0.3158599,0.049478702,0.0005177109,0.12
115084401,0.31553277,0.049358662,0.00051599485,0.12
115088414,0.3154827,0.049236238,0.00051500206,0.12
115092446,0.3153024,0.04922353,0.00051403116,0.12
115096419,0.31542373,0.049361642,0.0005152023,0.12
115100486,0.3155763,0.049509108,0.00051759457,0.12
115104529,0.31568748,0.049794685,0.0005209668,0.12
115108460,0.31592315,0.050002173,0.00052320975,0.12
115112414,0.3160196,0.050102364,0.00052447617,0.12
115116411,0.3159936,0.050062176,0.00052363635,0.12
115120495,0.31582144,0.050209578,0.0005261756,0.12
115124406,0.3155609,0.05005347,0.0005228187,0.12
115128697,0.31528255,0.049958125,0.0005215263,0.12
115132413,0.3149504,0.049874865,0.0005203766,0.12
115136414,0.31484306,0.049999457,0.0005213611,0.12
115140483,0.31500614,0.049928002,0.00052107306,0.12
115145224,0.31515053,0.05012359,0.0005229212,0.12
115149236,0.3156407,0.050342377,0.0005260762,0.12
115153259,0.31600365,0.050456706,0.0005278009,0.12
115157271,0.3161634,0.050437193,0.0005287183,0.12
115161298,0.31631997,0.0503867,0.0005276656,0.12
115165226,0.31620663,0.050281715,0.00052652264,0.12
115169235,0.3160603,0.050144505,0.00052487047,0.12
115173272,0.3160008,0.050094828,0.00052433636,0.12
115177270,0.3157426,0.050165776,0.0005243337,0.12
115181280,0.3157266,0.050220486,0.00052489724,0.12
115185215,0.31586388,0.05032427,0.0005259239,0.12
115189236,0.3159083,0.050542418,0.00052868493,0.12
115193255,0.31612974,0.05072555,0.0005307775,0.12
115197251,0.31627953,0.050801814,0.00053251185,0.12
115201309,0.31643632,0.05084169,0.00053261744,0.12
115205228,0.316473,0.05085213,0.0005329454,0.12
115209219,0.31627196,0.050661843,0.00053077046,0.12
115213222,0.31601137,0.05042103,0.00052802905,0.12
115217261,0.31589684,0.050345384,0.0005268022,0.12
115221270,0.31562966,0.0501844,0.000525024,0.12
115225222,0.31573948,0.05020315,0.0005247675,0.12
115229224,0.31584877,0.050312303,0.0005267639,0.12
115233236,0.31603548,0.05043637,0.000528383,0.12
115237235,0.3162592,0.05069262,0.000531262,0.12
115241466,0.31632996,0.050643437,0.00053074525,0.12
115245266,0.31646398,0.050654568,0.000531158,0.12
115249262,0.31640664,0.050493024,0.00052920985,0.12
115253235,0.3161905,0.05039713,0.00052775705,0.12
115257215,0.31597018,0.05012655,0.0005243615,0.12
115261309,0.31567717,0.050073,0.00052293704,0.12
115265485,0.31544363,0.049999636,0.00052255613,0.12
115269250,0.31530955,0.050064836,0.000522563,0.12
115273215,0.31548226,0.05007092,0.0005232478,0.12
115277225,0.315579,0.05024771,0.0005246574,0.12
115281260,0.31593856,0.05040193,0.0005270886,0.12
115285254,0.31613332,0.050386816,0.00052768894,0.12
115289267,0.31633627,0.050329592,0.00052799407,0.12
115293220,0.3162811,0.05028464,0.0005269819,0.12
115297237,0.31608334,0.05013562,0.0005253065,0.12
115301251,0.31568736,0.049932577,0.0005219192,0.12
115305267,0.31554052,0.049952094,0.0005222518,0.12
115309301,0.31520393,0.049825516,0.0005201582,0.12
115313495,0.31535554,0.050003465,0.0005221354,0.12
115317281,0.31526607,0.05014248,0.00052354817,0.12
115321271,0.31557783,0.05032311,0.0005259498,0.12
115325261,0.31582424,0.05075448,0.0005307217,0.12
115329287,0.3159694,0.05080619,0.0005322292,0.12
115333218,0.31605798,0.050885633,0.000532694,0.12
115337437,0.31612518,0.05091447,0.0005333193,0.12
115341255,0.315898,0.050771344,0.0005314888,0.12
115345272,0.31585765,0.05060472,0.00052856986,0.12
115349290,0.3157408,0.05060665,0.00052896875,0.12
115353214,0.31569445,0.050523467,0.00052872405,0.12
115357249,0.31582636,0.050597914,0.00052902405,0.12
115361440,0.31596655,0.0506535,0.0005303575,0.12
115365244,0.31614104,0.050838433,0.00053191854,0.12
115369277,0.31632468,0.050925266,0.0005335415,0.12
115373233,0.316549,0.051051524,0.0005349918,0.12
115377246,0.31650537,0.050888512,0.0005331898,0.12
115381213,0.31659314,0.05101344,0.0005353709,0.12
115385218,0.31632054,0.05098554,0.000533699,0.12
115389317,0.3161106,0.05097505,0.00053379394,0.12
115393216,0.31592876,0.051046725,0.0005342181,0.12
115397265,0.3155329,0.051167883,0.0005345266,0.12
115401245,0.315464,0.051254265,0.0005351175,0.12
115405216,0.31549513,0.051343925,0.00053582917,0.12
115409293,0.3154853,0.05126852,0.0005354443,0.12
115413265,0.31597573,0.051290587,0.00053601956,0.12
115417239,0.31606495,0.051138423,0.0005353996,0.12
115421217,0.3162803,0.050998736,0.000534195,0.12
115425216,0.31626496,0.050829347,0.0005323267,0.12
115429269,0.31600136,0.050570637,0.00052971963,0.12
115433254,0.31570742,0.05040698,0.00052708026,0.12
115437261,0.315283,0.05035827,0.0005255069,0.12
115441216,0.31501892,0.050497506,0.0005270197,0.12
115445214,0.31517428,0.050667945,0.0005290162,0.12
115449252,0.31511155,0.050870717,0.0005303884,0.12
115453257,0.31555614,0.0513559,0.0005368331,0.12
115457443,0.31575698,0.051627308,0.000540128,0.12
115461218,0.31616923,0.051784337,0.0005419242,0.12
115465256,0.31614813,0.051720206,0.0005411046,0.12
115469272,0.31619832,0.05152532,0.00053916255,0.12
115473266,0.31602532,0.051274568,0.00053698383,0.12
115477309,0.31581083,0.05110326,0.00053496094,0.12
115481228,0.31555164,0.050828442,0.0005315521,0.12
115485259,0.31550238,0.050716028,0.00053013215,0.12
115489213,0.31557664,0.050774757,0.00053068384,0.12
115493258,0.3156392,0.05079175,0.00053042726,0.12
115497291,0.31575233,0.05096545,0.0005330178,0.12
115501235,0.31608182,0.051044695,0.0005340882,0.12
115505230,0.3162887,0.051123913,0.0005355262,0.12
115509229,0.316241,0.051123794,0.0005352849,0.12
115513279,0.31607777,0.05124633,0.0005362787,0.12
115517281,0.31581455,0.051277634,0.00053659425,0.12
115521227,0.3157245,0.05132674,0.0005366172,0.12
115525242,0.3153539,0.051307324,0.0005355224,0.12
115529228,0.31505528,0.051229306,0.00053443806,0.12
115533254,0.3152593,0.051242787,0.0005355992,0.12
115537305,0.31506813,0.051301055,0.00053482846,0.12
115541232,0.31534526,0.05126431,0.0005360495,0.12
115545271,0.31558275,0.051231135,0.0005354392,0.12
115549215,0.31579456,0.051232588,0.000535733,0.12
115553396,0.3159745,0.05101124,0.00053385977,0.12
115557279,0.31598026,0.050951824,0.00053349073,0.12
115561228,0.31578702,0.050762344,0.0005307028,0.12
115565263,0.3157497,0.050754953,0.0005306871,0.12
115569242,0.3150694,0.050731037,0.0005295882,0.12
115573227,0.31500757,0.05085948,0.00053020817,0.12
115577296,0.31492966,0.051140912,0.0005336916,0.12
115581256,0.31499237,0.05151698,0.0005368609,0.12
115585251,0.3152836,0.05186172,0.0005416331,0.12
115589216,0.31556138,0.051851787,0.0005420921,0.12
115593238,0.3158375,0.051718194,0.00054089306,0.12
115597279,0.3158108,0.051626228,0.00054039876,0.12
115601278,0.3154452,0.05135882,0.00053688744,0.12
115605246,0.31525677,0.050977714,0.0005317594,0.12
115609214,0.3149065,0.050844457,0.0005302578,0.12
115613261,0.31474215,0.050601814,0.0005266635,0.12
115617289,0.3145912,0.050572295,0.00052624283,0.12
115621257,0.31490406,0.050577134,0.00052752846,0.12
115625447,0.31501058,0.050757926,0.0005295344,0.12
115629220,0.31521457,0.05102512,0.00053269474,0.12
115633260,0.31540936,0.051138084,0.00053433614,0.12
115637273,0.31553206,0.051364273,0.00053706515,0.12
115641259,0.31552222,0.051496454,0.0005376847,0.12
115645279,0.315265,0.051568296,0.0005391211,0.12
115649217,0.31518406,0.051445704,0.0005373851,0.12
115653256,0.31505468,0.051337563,0.00053571636,0.12
115657215,0.31467423,0.051351637,0.00053570117,0.12
115661262,0.31464,0.051403213,0.000535366,0.12
115665295,0.31474155,0.051318847,0.00053467724,0.12
115669227,0.3147712,0.051580355,0.00053814217,0.12
115673435,0.31505883,0.05168995,0.0005392026,0.12
115677222,0.31525964,0.051585972,0.0005383193,0.12
115681979,0.3156169,0.051690444,0.0005402183,0.12
115686006,0.31562492,0.05162644,0.00053978263,0.12
115689982,0.31552136,0.051520757,0.00053812994,0.12
115693996,0.3153668,0.05153005,0.00053825654,0.12
115698066,0.3152109,0.051455706,0.00053710956,0.12
115702031,0.31497583,0.05152618,0.00053758954,0.12
115706040,0.3149479,0.05166273,0.00053916423,0.12
115709978,0.3150261,0.051775645,0.0005399074,0.12
115713983,0.31520388,0.051951475,0.0005421807,0.12
115717982,0.31533965,0.052123994,0.00054449786,0.12
115722027,0.315577,0.052158333,0.0005453217,0.12
115726015,0.3156397,0.05212427,0.00054473017,0.12
115729980,0.31554374,0.0519787,0.0005432006,0.12
115733991,0.31529593,0.051576234,0.0005390585,0.12
115737981,0.3149808,0.05133014,0.00053574017,0.12
115742028,0.31489336,0.051239483,0.000534011,0.12
115746033,0.31448075,0.051069558,0.00053178315,0.12
115749988,0.31464326,0.051253546,0.00053401163,0.12
115754020,0.3148116,0.0512249,0.0005337183,0.12
115757979,0.3149732,0.051598914,0.0005384373,0.12
115762041,0.31529894,0.051861316,0.00054231856,0.12
115766059,0.31537968,0.051805623,0.00054147415,0.12
115769981,0.3156307,0.05177622,0.0005413669,0.12
115774038,0.31535813,0.051862355,0.00054177956,0.12
115777980,0.3148625,0.051594835,0.0005378111,0.12
115782024,0.31483918,0.05153698,0.00053721515,0.12
115786068,0.31417477,0.051378988,0.0005344834,0.12
115789986,0.31412408,0.051296767,0.00053372834,0.12
115794021,0.3140043,0.05124566,0.0005329702,0.12
115797982,0.31423473,0.051175147,0.0005326198,0.12
115801983,0.31461257,0.051534463,0.000536739,0.12
115806048,0.31474295,0.05170782,0.0005395779,0.12
115809988,0.31496108,0.051772706,0.0005403417,0.12
115814024,0.31496915,0.05191055,0.0005419918,0.12
115817982,0.31480876,0.051952712,0.0005420069,0.12
115822006,0.31457877,0.05181501,0.0005401961,0.12
115826062,0.3143664,0.051725782,0.0005387014,0.12
115829978,0.31421733,0.051538616,0.0005368833,0.12
115834012,0.31413624,0.051651344,0.00053691433,0.12
115838000,0.31410575,0.051657338,0.00053740677,0.12
115841996,0.3142939,0.05186152,0.0005406274,0.12
115846070,0.31426236,0.052124683,0.00054273877,0.12
115850027,0.3145333,0.052375924,0.0005452355,0.12
115854023,0.3144854,0.052260246,0.0005445522,0.12
115857990,0.31458938,0.052164774,0.0005428069,0.12
115862029,0.31466672,0.052131742,0.00054288947,0.12
115865980,0.3143054,0.051988523,0.0005412443,0.12
115870040,0.3141649,0.051897436,0.0005396694,0.12
115874011,0.31388506,0.051862895,0.00053884706,0.12
115878006,0.31378514,0.05206407,0.0005409465,0.12
115881995,0.31374237,0.052115843,0.00054160407,0.12
115885983,0.31393513,0.052359544,0.0005437777,0.12
115890020,0.31408674,0.05236992,0.00054460135,0.12
115894019,0.3142847,0.05242399,0.00054547534,0.12
115897982,0.31435734,0.052333675,0.00054518424,0.12
115902028,0.31450105,0.052323572,0.00054517586,0.12
115905982,0.31422782,0.052406576,0.00054561207,0.12
115910053,0.31408957,0.052358992,0.00054453715,0.12
115914088,0.3137099,0.052176744,0.0005423773,0.12
115917993,0.31349042,0.052177817,0.00054200995,0.12
115922009,0.3133061,0.052101552,0.0005406736,0.12
115925979,0.31312466,0.05201259,0.00053944683,0.12
115930053,0.313325,0.052083347,0.00054031314,0.12
115934059,0.31362227,0.05212562,0.0005413284,0.12
115937979,0.3139634,0.052242693,0.0005430196,0.12
115942036,0.31433302,0.05217565,0.00054319756,0.12
115945986,0.3144305,0.05217377,0.0005430896,0.12
115950046,0.31436476,0.05197559,0.0005412858,0.12
115954049,0.31411946,0.051810943,0.00053890917,0.12
115958011,0.31360754,0.05158768,0.00053588924,0.12
115962045,0.3133654,0.051508892,0.00053442374,0.12
115966007,0.31308088,0.051701114,0.00053629634,0.12
115970061,0.31317344,0.05174748,0.0005362513,0.12
115974085,0.313304,0.052022845,0.00053985516,0.12
115978014,0.31355038,0.052291512,0.0005430931,0.12
115982036,0.3138866,0.052443713,0.00054506405,0.12
115986006,0.31395704,0.052583296,0.0005465698,0.12
115990035,0.31394112,0.052523784,0.00054572296,0.12
115994078,0.31382084,0.052437466,0.00054537243,0.12
115998003,0.3136323,0.052334998,0.0005434497,0.12
116002053,0.31352693,0.05225754,0.0005431062,0.12
116006005,0.31332067,0.052104935,0.00054034876,0.12
116009993,0.31331292,0.052080926,0.0005401737,0.12
116014096,0.31339392,0.05203817,0.0005401847,0.12
116018068,0.31346384,0.052033957,0.00054069806,0.12
116022038,0.3138092,0.052116685,0.00054114556,0.12
116026007,0.31382734,0.052172102,0.00054267433,0.12
116030014,0.31413108,0.052072592,0.0005424256,0.12
116034049,0.3139995,0.05216917,0.0005423654,0.12
116038054,0.31389886,0.052119125,0.00054172974,0.12
116042052,0.31376058,0.05209708,0.00054095424,0.12
116046006,0.31354442,0.05209886,0.0005409886,0.12
116050047,0.31334043,0.052132297,0.0005411616,0.12
116054003,0.31317908,0.05218282,0.0005417206,0.12
116058040,0.31313083,0.052199826,0.0005412395,0.12
116062038,0.31330433,0.05238779,0.0005431564,0.12
116066016,0.31349817,0.05235065,0.00054335105,0.12
116070053,0.31395411,0.052320242,0.0005435423,0.12
116074017,0.3141643,0.052111387,0.0005424839,0.12
116078041,0.31423652,0.051900662,0.00054048165,0.12
116082079,0.31429482,0.05155016,0.00053670333,0.12
116086014,0.31397173,0.051415756,0.00053533335,0.12
116090043,0.3137099,0.05118715,0.00053165527,0.12
116094003,0.31330234,0.051186737,0.0005307224,0.12
116098059,0.31317392,0.051309336,0.00053196313,0.12
116102060,0.31326517,0.051468823,0.0005341405,0.12
116106012,0.31335026,0.05170061,0.00053606683,0.12
116110068,0.3137521,0.052168425,0.00054246536,0.12
116114021,0.31372517,0.052200105,0.0005426619,0.12
116118021,0.31410468,0.052366003,0.00054512906,0.12
116122097,0.3139141,0.052354865,0.0005439815,0.12
116126018,0.31371227,0.052178003,0.00054282375,0.12
116130053,0.31357342,0.052028216,0.00054120616,0.12
116134017,0.3132712,0.0518575,0.0005377652,0.12
116138034,0.31305832,0.05158411,0.0005349822,0.12
116142070,0.31310067,0.051497202,0.000534054,0.12
116146017,0.31301332,0.051501974,0.00053420465,0.12
116150048,0.3132285,0.05155696,0.0005345274,0.12
116154021,0.313487,0.051876236,0.0005383176,0.12
116158020,0.31373233,0.05190714,0.0005394476,0.12
116162095,0.31395212,0.051999386,0.00054073136,0.12
116166013,0.31396475,0.052079972,0.0005414734,0.12
116170036,0.3137854,0.05206899,0.0005410585,0.12
116174026,0.31369036,0.05193836,0.0005395835,0.12
116178028,0.3134524,0.051988423,0.0005397093,0.12
116182102,0.3132238,0.051912177,0.0005393092,0.12
116186040,0.3132358,0.051996097,0.0005396255,0.12
116190041,0.31331047,0.05183799,0.00053753774,0.12
116194008,0.31347138,0.05203911,0.00053970685,0.12
116198045,0.31370103,0.051950756,0.0005397127,0.12
116202056,0.31397212,0.05183688,0.0005387018,0.12
116206036,0.31412667,0.051750675,0.0005383148,0.12
116210038,0.31430236,0.051677357,0.0005376887,0.12
