timestamp,error_count,x,y,z,range_ga,scaling,temperature,device_id,x_raw,y_raw,z_raw,is_external
109425021,0,-0.09512716,0.17029637,0.23118427,48,0.0015,44.138504,263202,29,-253,379,0
109433821,0,-0.10421486,0.16848715,0.2429842,48,0.0015,44.127422,263202,34,-252,386,0
109445021,0,-0.10421486,0.16848715,0.2429842,48,0.0015,44.096954,263202,34,-252,386,0
109454630,0,-0.10421486,0.16848715,0.22949858,48,0.0015,44.127422,263202,34,-252,378,0
109465056,0,-0.10239732,0.17029637,0.24129851,48,0.0015,44.105263,263202,33,-253,385,0
110261832,0,-0.11330257,0.17753331,0.24129851,48,0.0015,44.138504,263202,39,-257,385,0
110271433,0,-0.10057978,0.16848715,0.23286998,48,0.0015,44.152355,263202,32,-252,380,0
110281821,0,-0.10057978,0.16848715,0.22612718,48,0.0015,44.121883,263202,32,-252,376,0
110291424,0,-0.11330257,0.17753331,0.24129851,48,0.0015,44.113575,263202,39,-257,385,0
110302621,0,-0.09512716,0.14858554,0.22107007,48,0.0015,44.141273,263202,29,-241,373,0
110312225,0,-0.1060324,0.14858554,0.22107007,48,0.0015,44.1108,263202,35,-241,373,0
110313820,0,-0.1060324,0.17029637,0.22781287,48,0.0015,44.116344,263202,35,-253,377,0
110322621,0,-0.11330257,0.17391485,0.24129851,48,0.0015,44.124653,263202,39,-255,385,0
110332221,0,-0.10057978,0.17391485,0.24129851,48,0.0015,44.141273,263202,32,-255,385,0
110333821,0,-0.10057978,0.16486867,0.23286998,48,0.0015,44.155125,263202,32,-250,380,0
110343438,0,-0.10057978,0.16486867,0.23286998,48,0.0015,44.168976,263202,32,-250,380,0
110353820,0,-0.1060324,0.17391485,0.23118427,48,0.0015,44.13019,263202,35,-255,379,0
110363421,0,-0.08967453,0.17210561,0.23624139,48,0.0015,44.141273,263202,26,-254,382,0
110373821,0,-0.09512716,0.18477027,0.23455568,48,0.0015,44.141273,263202,29,-261,381,0
110383421,0,-0.10421486,0.16486867,0.2429842,48,0.0015,44.146812,263202,34,-250,386,0
110517821,0,-0.10057978,0.1612502,0.2429842,48,0.0015,44.113575,263202,32,-248,386,0
110547421,0,-0.08967453,0.18296102,0.2396128,48,0.0015,44.144043,263202,26,-260,384,0
110558630,0,-0.08967453,0.17572407,0.22612718,48,0.0015,44.152355,263202,26,-256,376,0
110567421,0,-0.09330961,0.17934255,0.23624139,48,0.0015,44.160664,263202,28,-258,382,0
110578630,0,-0.08785698,0.15944096,0.22781287,48,0.0015,44.149586,263202,25,-247,377,0
110588222,0,-0.10057978,0.16848715,0.23286998,48,0.0015,44.174515,263202,32,-252,380,0
110598630,0,-0.08967453,0.17210561,0.22275577,48,0.0015,44.141273,263202,26,-254,374,0
110608221,0,-0.09512716,0.17753331,0.23455568,48,0.0015,44.144043,263202,29,-257,381,0
110618630,0,-0.09149207,0.18115179,0.23455568,48,0.0015,44.13019,263202,27,-259,381,0
110628220,0,-0.10239732,0.18838872,0.2379271,48,0.0015,44.146812,263202,33,-263,383,0
110639421,0,-0.09876224,0.17029637,0.2379271,48,0.0015,44.146812,263202,31,-253,383,0
110650620,0,-0.09512716,0.17391485,0.22781287,48,0.0015,44.121883,263202,29,-255,377,0
110659421,0,-0.09330961,0.17572407,0.22949858,48,0.0015,44.152355,263202,28,-256,378,0
110670622,0,-0.11330257,0.17391485,0.23455568,48,0.0015,44.144043,263202,39,-255,381,0
110681049,0,-0.11330257,0.17391485,0.23455568,48,0.0015,44.121883,263202,39,-255,381,0
110690620,0,-0.10057978,0.17934255,0.23624139,48,0.0015,44.138504,263202,32,-258,382,0
110700222,0,-0.10784995,0.16848715,0.22949858,48,0.0015,44.138504,263202,36,-252,378,0
110710620,0,-0.0969447,0.17572407,0.23624139,48,0.0015,44.146812,263202,30,-256,382,0
110720254,0,-0.08785698,0.18477027,0.23455568,48,0.0015,44.166206,263202,25,-261,381,0
110731421,0,-0.10966749,0.17391485,0.24129851,48,0.0015,44.152355,263202,37,-255,385,0
110742621,0,-0.10239732,0.16667789,0.22107007,48,0.0015,44.155125,263202,33,-251,373,0
110751421,0,-0.09330961,0.15763173,0.22612718,48,0.0015,44.138504,263202,28,-246,376,0
110762620,0,-0.10239732,0.17753331,0.25141272,48,0.0015,44.144043,263202,33,-257,391,0
110771421,0,-0.10966749,0.18115179,0.2379271,48,0.0015,44.146812,263202,37,-259,383,0
110792270,0,-0.10057978,0.17572407,0.23624139,48,0.0015,44.155125,263202,32,-256,382,0
110802620,0,-0.11330257,0.1558225,0.23455568,48,0.0015,44.188366,263202,39,-245,381,0
110812221,0,-0.10966749,0.18115179,0.2480413,48,0.0015,44.157894,263202,37,-259,389,0
110823423,0,-0.10966749,0.18115179,0.2480413,48,0.0015,44.182827,263202,37,-259,389,0
110834669,0,-0.11148503,0.16848715,0.2429842,48,0.0015,44.135735,263202,38,-252,386,0
110843421,0,-0.11512011,0.16848715,0.2396128,48,0.0015,44.171745,263202,40,-252,384,0
110854625,0,-0.09876224,0.16305944,0.24129851,48,0.0015,44.13019,263202,31,-249,385,0
110863421,0,-0.10784995,0.17572407,0.2429842,48,0.0015,44.152355,263202,36,-256,386,0
110874621,0,-0.09876224,0.18115179,0.22781287,48,0.0015,44.116344,263202,31,-259,377,0
110884221,0,-0.1060324,0.17029637,0.23455568,48,0.0015,44.155125,263202,35,-253,381,0
111119420,0,-0.1060324,0.15944096,0.24129851,48,0.0015,44.146812,263202,35,-247,385,0
111130621,0,-0.10966749,0.17391485,0.23455568,48,0.0015,44.149586,263202,37,-255,381,0
111139420,0,-0.10057978,0.16848715,0.24635562,48,0.0015,44.157894,263202,32,-252,388,0
111160222,0,-0.09512716,0.16667789,0.23455568,48,0.0015,44.182827,263202,29,-251,381,0
111171423,0,-0.10966749,0.18115179,0.22444147,48,0.0015,44.155125,263202,37,-259,375,0
111180221,0,-0.10239732,0.17391485,0.23455568,48,0.0015,44.155125,263202,33,-255,381,0
111191439,0,-0.10057978,0.19019796,0.2396128,48,0.0015,44.138504,263202,32,-264,384,0
111201021,0,-0.10057978,0.19019796,0.2396128,48,0.0015,44.160664,263202,32,-264,384,0
111201821,0,-0.10057978,0.19019796,0.2396128,48,0.0015,44.144043,263202,32,-264,384,0
111211420,0,-0.10784995,0.18296102,0.2429842,48,0.0015,44.155125,263202,36,-260,386,0
111221062,0,-0.10057978,0.18296102,0.23286998,48,0.0015,44.152355,263202,32,-260,380,0
111231420,0,-0.09330961,0.17210561,0.23624139,48,0.0015,44.155125,263202,28,-254,382,0
111241021,0,-0.09512716,0.17753331,0.2379271,48,0.0015,44.152355,263202,29,-257,383,0
111252268,0,-0.09512716,0.17753331,0.2379271,48,0.0015,44.191135,263202,29,-257,383,0
111263420,0,-0.08785698,0.18477027,0.23455568,48,0.0015,44.155125,263202,25,-261,381,0
111272222,0,-0.08785698,0.1920072,0.24129851,48,0.0015,44.168976,263202,25,-265,385,0
111283423,0,-0.10239732,0.17391485,0.22781287,48,0.0015,44.152355,263202,33,-255,377,0
111292254,0,-0.08603944,0.17572407,0.23286998,48,0.0015,44.171745,263202,24,-256,380,0
111303420,0,-0.08967453,0.16486867,0.25309843,48,0.0015,44.193905,263202,26,-250,392,0
111313027,0,-0.1060324,0.17391485,0.25141272,48,0.0015,44.155125,263202,35,-255,391,0
111323420,0,-0.09330961,0.17210561,0.23624139,48,0.0015,44.13019,263202,28,-254,382,0
111333062,0,-0.09149207,0.15944096,0.24466991,48,0.0015,44.188366,263202,27,-247,387,0
111344222,0,-0.09149207,0.15944096,0.24466991,48,0.0015,44.144043,263202,27,-247,387,0
111355420,0,-0.1060324,0.17753331,0.22444147,48,0.0015,44.149586,263202,35,-257,375,0
111364221,0,-0.10239732,0.18115179,0.2379271,48,0.0015,44.177284,263202,33,-259,383,0
111375421,0,-0.08240435,0.17210561,0.2396128,48,0.0015,44.177284,263202,22,-254,384,0
111384231,0,-0.10784995,0.17934255,0.2396128,48,0.0015,44.157894,263202,36,-258,384,0
111395421,0,-0.10784995,0.17934255,0.2396128,48,0.0015,44.146812,263202,36,-258,384,0
111405021,0,-0.09512716,0.16667789,0.23455568,48,0.0015,44.166206,263202,29,-251,381,0
111415421,0,-0.0969447,0.1612502,0.23624139,48,0.0015,44.132965,263202,30,-248,382,0
111425021,0,-0.09876224,0.16667789,0.24129851,48,0.0015,44.177284,263202,31,-251,385,0
111435420,0,-0.1060324,0.16667789,0.2379271,48,0.0015,44.144043,263202,35,-251,383,0
111447434,0,-0.09512716,0.17391485,0.23455568,48,0.0015,44.152355,263202,29,-255,381,0
111589021,0,-0.10966749,0.18115179,0.24129851,48,0.0015,44.174515,263202,37,-259,385,0
111600220,0,-0.09876224,0.17753331,0.24466991,48,0.0015,44.138504,263202,31,-257,387,0
111609058,0,-0.10966749,0.18115179,0.24129851,48,0.0015,44.155125,263202,37,-259,385,0
111620220,0,-0.10057978,0.16848715,0.22949858,48,0.0015,44.152355,263202,32,-252,378,0
111629823,0,-0.10057978,0.16848715,0.22949858,48,0.0015,44.185596,263202,32,-252,378,0
111640221,0,-0.1060324,0.17753331,0.23455568,48,0.0015,44.152355,263202,35,-257,381,0
111649821,0,-0.10966749,0.17753331,0.23455568,48,0.0015,44.160664,263202,37,-257,381,0
111651421,0,-0.10966749,0.17753331,0.2379271,48,0.0015,44.152355,263202,37,-257,383,0
111660221,0,-0.09330961,0.19019796,0.23624139,48,0.0015,44.174515,263202,28,-264,382,0
111669821,0,-0.11512011,0.62441444,0.23624139,48,0.0015,44.157894,263202,40,-504,382,0
111671421,0,-0.11512011,0.1612502,0.23286998,48,0.0015,44.171745,263202,40,-248,380,0
111681021,0,-0.09330961,0.17210561,0.24635562,48,0.0015,44.174515,263202,28,-254,388,0
111691421,0,-0.08785698,0.17753331,0.23455568,48,0.0015,44.152355,263202,25,-257,381,0
111701021,0,-0.0842219,0.17753331,0.23118427,48,0.0015,44.177284,263202,23,-257,379,0
111711420,0,-0.10784995,0.1612502,0.23286998,48,0.0015,44.182827,263202,36,-248,380,0
111722634,0,-0.10784995,0.1612502,0.23286998,48,0.0015,44.185596,263202,36,-248,380,0
111732221,0,-0.10239732,0.17029637,0.2379271,48,0.0015,44.157894,263202,33,-253,383,0
111741821,0,-0.08967453,0.17210561,0.22949858,48,0.0015,44.177284,263202,26,-254,378,0
111752220,0,-0.10784995,0.17572407,0.2429842,48,0.0015,44.177284,263202,36,-256,386,0
111876220,0,-0.09512716,0.17391485,0.2480413,48,0.0015,44.166206,263202,29,-255,389,0
111885029,0,-0.0969447,0.17572407,0.23624139,48,0.0015,44.144043,263202,30,-256,382,0
112325020,0,-0.09876224,0.16667789,0.2379271,48,0.0015,44.185596,263202,31,-251,383,0
112335428,0,-0.09876224,0.16667789,0.2379271,48,0.0015,44.182827,263202,31,-251,383,0
112345020,0,-0.09330961,0.17572407,0.24972701,48,0.0015,44.171745,263202,28,-256,390,0
112354671,0,-0.1060324,0.15944096,0.2379271,48,0.0015,44.207756,263202,35,-247,383,0
112365020,0,-0.08240435,0.17572407,0.2429842,48,0.0015,44.171745,263202,22,-256,386,0
112374628,0,-0.0969447,0.16486867,0.23624139,48,0.0015,44.210526,263202,30,-250,382,0
112385822,0,-0.0969447,0.16486867,0.23624139,48,0.0015,44.166206,263202,30,-250,382,0
112397074,0,-0.0969447,0.19381644,0.2396128,48,0.0015,44.180054,263202,30,-266,384,0
112405821,0,-0.09149207,0.17753331,0.24129851,48,0.0015,44.155125,263202,27,-257,385,0
112417020,0,-0.1060324,0.16305944,0.24129851,48,0.0015,44.149586,263202,35,-249,385,0
112425821,0,-0.09149207,0.17029637,0.23455568,48,0.0015,44.196674,263202,27,-253,381,0
112437055,0,-0.11148503,0.16848715,0.24635562,48,0.0015,44.193905,263202,38,-252,388,0
112446624,0,-0.10057978,0.15401326,0.23624139,48,0.0015,44.155125,263202,32,-244,382,0
112457038,0,-0.08603944,0.18296102,0.2396128,48,0.0015,44.180054,263202,24,-260,384,0
112466626,0,-0.09512716,0.16667789,0.22781287,48,0.0015,44.193905,263202,29,-251,377,0
112477822,0,-0.09512716,0.16667789,0.22781287,48,0.0015,44.180054,263202,29,-251,377,0
112489070,0,-0.11330257,0.16305944,0.2379271,48,0.0015,44.199448,263202,39,-249,383,0
112497821,0,-0.1060324,0.15944096,0.22107007,48,0.0015,44.177284,263202,35,-247,373,0
112509021,0,-0.09876224,0.17391485,0.23118427,48,0.0015,44.199448,263202,31,-255,379,0
112517821,0,-0.08967453,0.16848715,0.23286998,48,0.0015,44.163433,263202,26,-252,380,0
112763421,0,-0.09876224,0.16667789,0.22781287,48,0.0015,44.174515,263202,31,-251,377,0
112773821,0,-0.10239732,0.17753331,0.2379271,48,0.0015,44.166206,263202,33,-257,383,0
112785021,0,-0.10057978,0.17210561,0.22612718,48,0.0015,44.180054,263202,32,-254,376,0
112793821,0,-0.09149207,0.17753331,0.23118427,48,0.0015,44.207756,263202,27,-257,379,0
112803421,0,-0.10057978,0.63165134,0.23118427,48,0.0015,44.188366,263202,32,-508,379,0
112805021,0,-0.10057978,0.16848715,0.23624139,48,0.0015,44.174515,263202,32,-252,382,0
112814624,0,-0.09876224,0.15944096,0.23118427,48,0.0015,44.160664,263202,31,-247,379,0
112825069,0,-0.10057978,0.17934255,0.22275577,48,0.0015,44.207756,263202,32,-258,374,0
112834621,0,-0.10421486,0.20105337,0.2396128,48,0.0015,44.207756,263202,34,-270,384,0
112845820,0,-0.0969447,0.17572407,0.23286998,48,0.0015,44.199448,263202,30,-256,380,0
112855421,0,-0.0969447,0.17572407,0.23286998,48,0.0015,44.191135,263202,30,-256,380,0
112865821,0,-0.10239732,0.17391485,0.22781287,48,0.0015,44.177284,263202,33,-255,377,0
112877021,0,-0.10784995,0.17210561,0.23286998,48,0.0015,44.180054,263202,36,-254,380,0
112885821,0,-0.09876224,0.16305944,0.23118427,48,0.0015,44.185596,263202,31,-249,379,0
112895431,0,-0.09512716,0.16667789,0.24129851,48,0.0015,44.185596,263202,29,-251,385,0
112906622,0,-0.09512716,0.16667789,0.24129851,48,0.0015,44.204987,263202,29,-251,385,0
112917820,0,-0.09876224,0.18115179,0.24129851,48,0.0015,44.202217,263202,31,-259,385,0
112926621,0,-0.09876224,0.17029637,0.24129851,48,0.0015,44.163433,263202,31,-253,385,0
112937821,0,-0.11148503,0.16486867,0.22949858,48,0.0015,44.185596,263202,38,-250,378,0
112946621,0,-0.1060324,0.15944096,0.23455568,48,0.0015,44.199448,263202,35,-247,381,0
112957820,0,-0.1060324,0.17391485,0.22781287,48,0.0015,44.210526,263202,35,-255,377,0
112967421,0,-0.09876224,0.17029637,0.24129851,48,0.0015,44.229916,263202,31,-253,385,0
112977820,0,-0.08240435,0.16486867,0.23286998,48,0.0015,44.199448,263202,22,-250,380,0
112987421,0,-0.10239732,0.16667789,0.23118427,48,0.0015,44.188366,263202,33,-251,379,0
112998631,0,-0.10239732,0.16667789,0.23118427,48,0.0015,44.171745,263202,33,-251,379,0
113009856,0,-0.10057978,0.17934255,0.22612718,48,0.0015,44.182827,263202,32,-258,376,0
113018631,0,-0.09330961,0.17934255,0.24635562,48,0.0015,44.207756,263202,28,-258,388,0
113029837,0,-0.10784995,0.17210561,0.23624139,48,0.0015,44.207756,263202,36,-254,382,0
113038630,0,-0.11148503,0.17210561,0.22612718,48,0.0015,44.210526,263202,38,-254,376,0
113049821,0,-0.11148503,0.17210561,0.22612718,48,0.0015,44.182827,263202,38,-254,376,0
113059421,0,-0.09330961,0.1612502,0.22949858,48,0.0015,44.166206,263202,28,-248,378,0
113069821,0,-0.09330961,0.18296102,0.23624139,48,0.0015,44.202217,263202,28,-260,382,0
113079420,0,-0.09876224,0.17753331,0.24466991,48,0.0015,44.196674,263202,31,-257,387,0
113089820,0,-0.08785698,0.17391485,0.2480413,48,0.0015,44.199448,263202,25,-255,389,0
113101821,0,-0.09330961,0.17934255,0.24635562,48,0.0015,44.188366,263202,28,-258,388,0
113110670,0,-0.11512011,0.16848715,0.2429842,48,0.0015,44.182827,263202,40,-252,386,0
113121820,0,-0.10966749,0.17029637,0.23455568,48,0.0015,44.185596,263202,37,-253,381,0
113130661,0,-0.09149207,0.16667789,0.23455568,48,0.0015,44.221607,263202,27,-251,381,0
113141821,0,-0.09149207,0.16667789,0.23455568,48,0.0015,44.177284,263202,27,-251,381,0
113151421,0,-0.09512716,0.18477027,0.25815552,48,0.0015,44.207756,263202,29,-261,395,0
113161820,0,-0.10421486,0.15401326,0.22949858,48,0.0015,44.246536,263202,34,-244,378,0
113171422,0,-0.10057978,0.17210561,0.23624139,48,0.0015,44.193905,263202,32,-254,382,0
113181821,0,-0.10057978,0.17210561,0.22949858,48,0.0015,44.213295,263202,32,-254,378,0
113193820,0,-0.08967453,0.17572407,0.23286998,48,0.0015,44.227146,263202,26,-256,380,0
113202621,0,-0.10966749,0.16667789,0.24466991,48,0.0015,44.191135,263202,37,-251,387,0
113213821,0,-0.09330961,0.16848715,0.22949858,48,0.0015,44.210526,263202,28,-252,378,0
113222621,0,-0.09149207,0.16667789,0.24466991,48,0.0015,44.207756,263202,27,-251,387,0
113233821,0,-0.09149207,0.16667789,0.24466991,48,0.0015,44.182827,263202,27,-251,387,0
113243425,0,-0.09512716,0.17029637,0.23455568,48,0.0015,44.193905,263202,29,-253,381,0
113253820,0,-0.0969447,0.17572407,0.2396128,48,0.0015,44.196674,263202,30,-256,384,0
113263420,0,-0.08967453,0.18296102,0.22949858,48,0.0015,44.224377,263202,26,-260,378,0
113273820,0,-0.09149207,0.15944096,0.21095586,48,0.0015,44.204987,263202,27,-247,367,0
113284257,0,-0.09149207,0.15944096,0.21095586,48,0.0015,44.210526,263202,27,-247,367,0
113294621,0,-0.0969447,0.1612502,0.23624139,48,0.0015,44.229916,263202,30,-248,382,0
113304221,0,-0.09876224,0.1612502,0.23624139,48,0.0015,44.196674,263202,31,-248,382,0
113305828,0,-0.09876224,0.16667789,0.23455568,48,0.0015,44.207756,263202,31,-251,381,0
113314621,0,-0.09330961,0.16848715,0.22275577,48,0.0015,44.193905,263202,28,-252,374,0
113325821,0,-0.10239732,0.16667789,0.23455568,48,0.0015,44.207756,263202,33,-251,381,0
113335421,0,-0.08785698,0.17029637,0.22781287,48,0.0015,44.238228,263202,25,-253,377,0
113345823,0,-0.10239732,0.17029637,0.24466991,48,0.0015,44.232685,263202,33,-253,387,0
113355422,0,-0.09876224,0.15944096,0.23118427,48,0.0015,44.213295,263202,31,-247,379,0
113365831,0,-0.10421486,0.17934255,0.23624139,48,0.0015,44.232685,263202,34,-258,382,0
113376221,0,-0.10421486,0.17934255,0.23624139,48,0.0015,44.199448,263202,34,-258,382,0
113386623,0,-0.0969447,0.17210561,0.2429842,48,0.0015,44.210526,263202,30,-254,386,0
113396271,0,-0.0969447,0.16486867,0.23286998,48,0.0015,44.202217,263202,30,-250,380,0
113406621,0,-0.09330961,0.16486867,0.22949858,48,0.0015,44.227146,263202,28,-250,378,0
113416229,0,-0.09876224,-0.28563088,0.22949858,48,0.0015,44.218838,263202,31,-1,378,0
113417821,0,-0.09876224,0.17753331,0.23118427,48,0.0015,44.227146,263202,31,-257,379,0
113427424,0,-0.09876224,0.17753331,0.23118427,48,0.0015,44.185596,263202,31,-257,379,0
113437821,0,-0.0969447,0.16848715,0.2429842,48,0.0015,44.204987,263202,30,-252,386,0
113447421,0,-0.09512716,0.17391485,0.24466991,48,0.0015,44.229916,263202,29,-255,387,0
113457820,0,-0.10239732,0.17391485,0.23455568,48,0.0015,44.204987,263202,33,-255,381,0
113467421,0,-0.1060324,0.18477027,0.23455568,48,0.0015,44.160664,263202,35,-261,381,0
113478630,0,-0.10057978,0.16848715,0.23624139,48,0.0015,44.204987,263202,32,-252,382,0
113488221,0,-0.10057978,0.16848715,0.23286998,48,0.0015,44.213295,263202,32,-252,380,0
113498630,0,-0.10966749,0.17391485,0.24466991,48,0.0015,44.202217,263202,37,-255,387,0
113508221,0,-0.09330961,0.18296102,0.2396128,48,0.0015,44.213295,263202,28,-260,384,0
113519422,0,-0.09330961,0.18296102,0.2396128,48,0.0015,44.213295,263202,28,-260,384,0
113530621,0,-0.09512716,0.17753331,0.22444147,48,0.0015,44.229916,263202,29,-257,375,0
113539421,0,-0.10784995,0.16486867,0.24972701,48,0.0015,44.210526,263202,36,-250,390,0
113550620,0,-0.09876224,0.16667789,0.24129851,48,0.0015,44.221607,263202,31,-251,385,0
113559421,0,-0.09512716,0.17753331,0.2379271,48,0.0015,44.23546,263202,29,-257,383,0
113570620,0,-0.09149207,0.15944096,0.24466991,48,0.0015,44.218838,263202,27,-247,387,0
113580258,0,-0.10057978,0.17934255,0.22949858,48,0.0015,44.210526,263202,32,-258,378,0
113590620,0,-0.10966749,0.17391485,0.23455568,48,0.0015,44.196674,263202,37,-255,381,0
113600221,0,-0.10421486,0.16486867,0.22949858,48,0.0015,44.216064,263202,34,-250,378,0
113610621,0,-0.09512716,0.15944096,0.24129851,48,0.0015,44.229916,263202,29,-247,385,0
113622620,0,-0.10421486,0.19019796,0.23624139,48,0.0015,44.224377,263202,34,-264,382,0
113631470,0,-0.09149207,0.1920072,0.2379271,48,0.0015,44.229916,263202,27,-265,383,0
113642620,0,-0.09512716,0.16667789,0.24466991,48,0.0015,44.246536,263202,29,-251,387,0
113651421,0,-0.0842219,0.15944096,0.23455568,48,0.0015,44.249306,263202,23,-247,381,0
113662621,0,-0.0842219,0.15944096,0.23455568,48,0.0015,44.213295,263202,23,-247,381,0
113672221,0,-0.09330961,0.16486867,0.2396128,48,0.0015,44.213295,263202,28,-250,384,0
113682620,0,-0.10421486,0.17572407,0.23624139,48,0.0015,44.216064,263202,34,-256,382,0
113692221,0,-0.10239732,0.17391485,0.23118427,48,0.0015,44.213295,263202,33,-255,379,0
113702628,0,-0.10784995,0.17210561,0.23286998,48,0.0015,44.224377,263202,36,-254,380,0
113714620,0,-0.1060324,0.17029637,0.23118427,48,0.0015,44.218838,263202,35,-253,379,0
113723421,0,-0.0969447,0.17572407,0.2429842,48,0.0015,44.227146,263202,30,-256,386,0
113734620,0,-0.10057978,0.17210561,0.23286998,48,0.0015,44.229916,263202,32,-254,380,0
113743422,0,-0.09876224,0.17029637,0.24129851,48,0.0015,44.218838,263202,31,-253,385,0
113754621,0,-0.09876224,0.17029637,0.24129851,48,0.0015,44.229916,263202,31,-253,385,0
113764221,0,-0.09149207,0.18477027,0.23455568,48,0.0015,44.213295,263202,27,-261,381,0
113774620,0,-0.10239732,0.15944096,0.24129851,48,0.0015,44.224377,263202,33,-247,385,0
113784220,0,-0.10784995,0.18296102,0.22949858,48,0.0015,44.202217,263202,36,-260,378,0
113794620,0,-0.0969447,0.17210561,0.2396128,48,0.0015,44.23546,263202,30,-254,384,0
113815421,0,-0.09330961,0.17572407,0.2429842,48,0.0015,44.229916,263202,28,-256,386,0
113825021,0,-0.09512716,0.17572407,0.2429842,48,0.0015,44.227146,263202,29,-256,386,0
113826620,0,-0.09512716,0.16305944,0.22781287,48,0.0015,44.218838,263202,29,-249,377,0
113835421,0,-0.10239732,0.17391485,0.23118427,48,0.0015,44.185596,263202,33,-255,379,0
113846620,0,-0.08967453,0.16486867,0.22275577,48,0.0015,44.210526,263202,26,-250,374,0
113856251,0,-0.10966749,0.17029637,0.22107007,48,0.0015,44.216064,263202,37,-253,373,0
113866621,0,-0.09512716,0.15944096,0.22781287,48,0.0015,44.202217,263202,29,-247,377,0
113876221,0,-0.1060324,0.17391485,0.23455568,48,0.0015,44.185596,263202,35,-255,381,0
113886620,0,-0.08603944,0.16848715,0.23624139,48,0.0015,44.221607,263202,24,-252,382,0
113897021,0,-0.08603944,0.16848715,0.23624139,48,0.0015,44.216064,263202,24,-252,382,0
113907421,0,-0.09330961,0.16848715,0.23286998,48,0.0015,44.246536,263202,28,-252,380,0
113917078,0,-0.09330961,0.19019796,0.23286998,48,0.0015,44.218838,263202,28,-264,380,0
113927421,0,-0.11330257,0.16667789,0.22444147,48,0.0015,44.216064,263202,39,-251,375,0
113937040,0,-0.08785698,0.17391485,0.22444147,48,0.0015,44.23546,263202,25,-255,375,0
113938630,0,-0.08785698,0.17391485,0.22781287,48,0.0015,44.246536,263202,25,-255,377,0
113948222,0,-0.08785698,0.17391485,0.22781287,48,0.0015,44.210526,263202,25,-255,377,0
113958630,0,-0.09876224,0.15944096,0.23455568,48,0.0015,44.202217,263202,31,-247,381,0
113968221,0,-0.09876224,0.17753331,0.22444147,48,0.0015,44.213295,263202,31,-257,375,0
113978630,0,-0.10784995,0.16486867,0.2396128,48,0.0015,44.221607,263202,36,-250,384,0
113988236,0,-0.10239732,0.18115179,0.22781287,48,0.0015,44.229916,263202,33,-259,377,0
113999420,0,-0.09512716,0.17391485,0.24129851,48,0.0015,44.199448,263202,29,-255,385,0
114009021,0,-0.09330961,0.16486867,0.24129851,48,0.0015,44.224377,263202,28,-250,385,0
114010621,0,-0.09330961,0.16486867,0.23624139,48,0.0015,44.221607,263202,28,-250,382,0
114019420,0,-0.10057978,0.18296102,0.22949858,48,0.0015,44.218838,263202,32,-260,378,0
114029021,0,-0.10239732,0.63707906,0.22949858,48,0.0015,44.210526,263202,33,-511,378,0
114030623,0,-0.10239732,0.17391485,0.24129851,48,0.0015,44.207756,263202,33,-255,385,0
114040222,0,-0.10239732,0.17391485,0.24129851,48,0.0015,44.210526,263202,33,-255,385,0
114050620,0,-0.10057978,0.16848715,0.24972701,48,0.0015,44.249306,263202,32,-252,390,0
114060221,0,-0.1060324,0.18477027,0.22781287,48,0.0015,44.263157,263202,35,-261,377,0
114071422,0,-0.09876224,0.16667789,0.2480413,48,0.0015,44.207756,263202,31,-251,389,0
114080221,0,-0.10239732,0.17029637,0.22444147,48,0.0015,44.218838,263202,33,-253,375,0
114091421,0,-0.10239732,0.17029637,0.22444147,48,0.0015,44.263157,263202,33,-253,375,0
114101021,0,-0.10421486,0.16848715,0.23286998,48,0.0015,44.25485,263202,34,-252,380,0
114111420,0,-0.0969447,0.17934255,0.24635562,48,0.0015,44.224377,263202,30,-258,388,0
114121021,0,-0.0969447,0.17572407,0.23624139,48,0.0015,44.243767,263202,30,-256,382,0
114131420,0,-0.10239732,0.16305944,0.2379271,48,0.0015,44.23546,263202,33,-249,383,0
114143420,0,-0.0969447,0.17572407,0.23286998,48,0.0015,44.227146,263202,30,-256,380,0
114152249,0,-0.09876224,0.16667789,0.22781287,48,0.0015,44.243767,263202,31,-251,377,0
114163420,0,-0.10057978,0.17210561,0.2396128,48,0.0015,44.227146,263202,32,-254,384,0
114172223,0,-0.10784995,0.17210561,0.24635562,48,0.0015,44.204987,263202,36,-254,388,0
114183421,0,-0.10784995,0.17210561,0.24635562,48,0.0015,44.232685,263202,36,-254,388,0
114193067,0,-0.10239732,0.17029637,0.24466991,48,0.0015,44.240997,263202,33,-253,387,0
114203420,0,-0.10784995,0.1612502,0.23624139,48,0.0015,44.221607,263202,36,-248,382,0
114213032,0,-0.08785698,0.17391485,0.2379271,48,0.0015,44.227146,263202,25,-255,383,0
114223420,0,-0.09512716,0.18115179,0.23455568,48,0.0015,44.23546,263202,29,-259,381,0
114244221,0,-0.10057978,0.17572407,0.2396128,48,0.0015,44.25208,263202,32,-256,384,0
114255421,0,-0.09876224,0.17029637,0.22781287,48,0.0015,44.240997,263202,31,-253,377,0
114264221,0,-0.10421486,0.17210561,0.2396128,48,0.0015,44.224377,263202,34,-254,384,0
114273869,0,-0.09149207,0.17210561,0.2396128,48,0.0015,44.243767,263202,27,-254,384,0
114275420,0,-0.09149207,0.1558225,0.23455568,48,0.0015,44.232685,263202,27,-245,381,0
114285030,0,-0.10784995,0.16848715,0.2396128,48,0.0015,44.210526,263202,36,-252,384,0
114295420,0,-0.0969447,0.17572407,0.2396128,48,0.0015,44.229916,263202,30,-256,384,0
114305021,0,-0.10421486,0.16848715,0.23624139,48,0.0015,44.260387,263202,34,-252,382,0
114315428,0,-0.1060324,0.17753331,0.23455568,48,0.0015,44.260387,263202,35,-257,381,0
114336221,0,-0.08058681,0.17391485,0.23118427,48,0.0015,44.249306,263202,21,-255,379,0
114347453,0,-0.09876224,0.18115179,0.25141272,48,0.0015,44.238228,263202,31,-259,391,0
114356221,0,-0.10057978,0.16486867,0.22612718,48,0.0015,44.232685,263202,32,-250,376,0
114367420,0,-0.09149207,0.16667789,0.2379271,48,0.0015,44.232685,263202,27,-251,383,0
114377058,0,-0.09149207,0.16667789,0.2379271,48,0.0015,44.246536,263202,27,-251,383,0
114387422,0,-0.09149207,0.17391485,0.2379271,48,0.0015,44.27424,263202,27,-255,383,0
114397035,0,-0.08785698,0.17753331,0.24129851,48,0.0015,44.227146,263202,25,-257,385,0
114407420,0,-0.09149207,0.17753331,0.24466991,48,0.0015,44.221607,263202,27,-257,387,0
114417021,0,-0.0969447,0.1865795,0.22949858,48,0.0015,44.249306,263202,30,-262,378,0
114428232,0,-0.10421486,0.16848715,0.24635562,48,0.0015,44.224377,263202,34,-252,388,0
114437830,0,-0.09512716,0.16848715,0.24635562,48,0.0015,44.213295,263202,29,-252,388,0
114439420,0,-0.09512716,0.17029637,0.23118427,48,0.0015,44.213295,263202,29,-253,379,0
114448221,0,-0.10057978,0.15763173,0.22612718,48,0.0015,44.257618,263202,32,-246,376,0
114459420,0,-0.10239732,0.16667789,0.23118427,48,0.0015,44.196674,263202,33,-251,379,0
114469039,0,-0.10239732,0.16667789,0.23118427,48,0.0015,44.249306,263202,33,-251,379,0
114479420,0,-0.10966749,0.16667789,0.23118427,48,0.0015,44.213295,263202,37,-251,379,0
114489020,0,-0.09876224,0.1558225,0.24466991,48,0.0015,44.224377,263202,31,-245,387,0
114499420,0,-0.10057978,0.16848715,0.2396128,48,0.0015,44.224377,263202,32,-252,384,0
114509027,0,-0.0969447,0.17210561,0.23286998,48,0.0015,44.210526,263202,30,-254,380,0
114520221,0,-0.0969447,0.17210561,0.23286998,48,0.0015,44.240997,263202,30,-254,380,0
114529828,0,-0.12057274,-0.27839395,0.23286998,48,0.0015,44.243767,263202,43,-5,380,0
114531421,0,-0.12057274,0.18477027,0.22444147,48,0.0015,44.243767,263202,43,-261,375,0
114540220,0,-0.10421486,0.15401326,0.23286998,48,0.0015,44.243767,263202,34,-244,380,0
114549850,0,-0.09512716,0.16305944,0.23286998,48,0.0015,44.243767,263202,29,-249,380,0
114551421,0,-0.09512716,0.16305944,0.22444147,48,0.0015,44.243767,263202,29,-249,375,0
114560222,0,-0.10784995,0.15763173,0.22612718,48,0.0015,44.260387,263202,36,-246,376,0
114571420,0,-0.09149207,0.17029637,0.2379271,48,0.0015,44.213295,263202,27,-253,383,0
114581021,0,-0.1060324,0.17391485,0.22444147,48,0.0015,44.224377,263202,35,-255,375,0
114591420,0,-0.10784995,0.1865795,0.24635562,48,0.0015,44.221607,263202,36,-262,388,0
114601021,0,-0.09512716,0.17029637,0.22107007,48,0.0015,44.23546,263202,29,-253,373,0
114612223,0,-0.09512716,0.17029637,0.22107007,48,0.0015,44.224377,263202,29,-253,373,0
114622669,0,-0.10784995,0.17210561,0.23624139,48,0.0015,44.207756,263202,36,-254,382,0
114632220,0,-0.0969447,0.1612502,0.2429842,48,0.0015,44.23546,263202,30,-248,386,0
114641821,0,-0.08967453,0.17210561,0.2429842,48,0.0015,44.227146,263202,26,-254,386,0
114642622,0,-0.08967453,0.17210561,0.22275577,48,0.0015,44.213295,263202,26,-254,374,0
114652220,0,-0.10239732,0.16667789,0.24129851,48,0.0015,44.227146,263202,33,-251,385,0
114673057,0,-0.09330961,0.1612502,0.24972701,48,0.0015,44.221607,263202,28,-248,390,0
114684258,0,-0.10421486,0.17572407,0.22949858,48,0.0015,44.232685,263202,34,-256,378,0
114693023,0,-0.09512716,0.18115179,0.2547841,48,0.0015,44.224377,263202,29,-259,393,0
114704234,0,-0.0842219,0.18115179,0.2379271,48,0.0015,44.232685,263202,23,-259,383,0
114713821,0,-0.09330961,0.17210561,0.22612718,48,0.0015,44.249306,263202,28,-254,376,0
114724241,0,-0.10057978,0.16486867,0.22949858,48,0.0015,44.199448,263202,32,-250,378,0
114733821,0,-0.11693765,0.15944096,0.2480413,48,0.0015,44.257618,263202,41,-247,389,0
114744220,0,-0.10057978,0.17210561,0.23624139,48,0.0015,44.279778,263202,32,-254,382,0
114765061,0,-0.09330961,0.17572407,0.24635562,48,0.0015,44.224377,263202,28,-256,388,0
114776220,0,-0.10421486,0.17934255,0.22612718,48,0.0015,44.249306,263202,34,-258,376,0
114785069,0,-0.09330961,0.16848715,0.2396128,48,0.0015,44.277008,263202,28,-252,384,0
114796220,0,-0.1060324,0.17391485,0.23118427,48,0.0015,44.238228,263202,35,-255,379,0
114805821,0,-0.1060324,0.17391485,0.23118427,48,0.0015,44.257618,263202,35,-255,379,0
114806621,0,-0.1060324,0.17391485,0.23118427,48,0.0015,44.243767,263202,35,-255,379,0
114816220,0,-0.10966749,0.15220402,0.23118427,48,0.0015,44.2687,263202,37,-243,379,0
114825826,0,-0.10784995,0.17934255,0.24972701,48,0.0015,44.249306,263202,36,-258,390,0
114836220,0,-0.08785698,0.18115179,0.23455568,48,0.0015,44.210526,263202,25,-259,381,0
114845866,0,-0.10784995,0.17572407,0.23286998,48,0.0015,44.23546,263202,36,-256,380,0
114857021,0,-0.09149207,0.17391485,0.23455568,48,0.0015,44.246536,263202,27,-255,381,0
114868220,0,-0.10057978,0.18296102,0.23624139,48,0.0015,44.238228,263202,32,-260,382,0
114877021,0,-0.0969447,0.17210561,0.2396128,48,0.0015,44.232685,263202,30,-254,384,0
114888220,0,-0.08967453,0.1612502,0.2396128,48,0.0015,44.224377,263202,26,-248,384,0
114897822,0,-0.08967453,0.1612502,0.2396128,48,0.0015,44.227146,263202,26,-248,384,0
114898638,0,-0.08967453,0.1612502,0.2396128,48,0.0015,44.243767,263202,26,-248,384,0
114908259,0,-0.10239732,0.17391485,0.23455568,48,0.0015,44.238228,263202,33,-255,381,0
114917821,0,-0.0969447,0.17210561,0.23286998,48,0.0015,44.227146,263202,30,-254,380,0
114928222,0,-0.10239732,0.17753331,0.23455568,48,0.0015,44.263157,263202,33,-257,381,0
114937821,0,-0.0969447,0.16486867,0.2396128,48,0.0015,44.238228,263202,30,-250,384,0
114949022,0,-0.0969447,0.16486867,0.2396128,48,0.0015,44.240997,263202,30,-250,384,0
114960220,0,-0.09330961,0.17934255,0.22612718,48,0.0015,44.27424,263202,28,-258,376,0
114969021,0,-0.09512716,0.16667789,0.2379271,48,0.0015,44.25208,263202,29,-251,383,0
114980263,0,-0.0969447,0.16848715,0.23286998,48,0.0015,44.246536,263202,30,-252,380,0
114989021,0,-0.078769274,0.16848715,0.2396128,48,0.0015,44.25485,263202,20,-252,384,0
115000244,0,-0.11330257,0.17029637,0.2379271,48,0.0015,44.25485,263202,39,-253,383,0
115009821,0,-0.11330257,0.17391485,0.23118427,48,0.0015,44.240997,263202,39,-255,379,0
115020220,0,-0.09512716,0.17753331,0.24129851,48,0.0015,44.238228,263202,29,-257,385,0
115029821,0,-0.09876224,0.1920072,0.2379271,48,0.0015,44.243767,263202,31,-265,383,0
115041039,0,-0.09876224,0.1920072,0.2379271,48,0.0015,44.25485,263202,31,-265,383,0
115050621,0,-0.08967453,0.1920072,0.2379271,48,0.0015,44.249306,263202,26,-265,383,0
115052220,0,-0.08967453,0.17934255,0.23286998,48,0.0015,44.25208,263202,26,-258,380,0
115061024,0,-0.09512716,0.18477027,0.23455568,48,0.0015,44.263157,263202,29,-261,381,0
115072220,0,-0.10784995,0.17572407,0.23286998,48,0.0015,44.232685,263202,36,-256,380,0
115081027,0,-0.11148503,0.16486867,0.23624139,48,0.0015,44.229916,263202,38,-250,382,0
115092221,0,-0.11148503,0.16486867,0.23624139,48,0.0015,44.240997,263202,38,-250,382,0
115101821,0,-0.09876224,0.17391485,0.24129851,48,0.0015,44.25485,263202,31,-255,385,0
115112220,0,-0.09512716,0.17391485,0.2379271,48,0.0015,44.240997,263202,29,-255,383,0
115121847,0,-0.10239732,0.17029637,0.22107007,48,0.0015,44.257618,263202,33,-253,373,0
115132220,0,-0.10057978,0.1612502,0.23624139,48,0.0015,44.240997,263202,32,-248,382,0
115142621,0,-0.10784995,0.16848715,0.23624139,48,0.0015,44.246536,263202,36,-252,382,0
115153021,0,-0.0969447,0.16486867,0.22949858,48,0.0015,44.25208,263202,30,-250,378,0
115162626,0,-0.09876224,0.15944096,0.22949858,48,0.0015,44.240997,263202,31,-247,378,0
115164221,0,-0.09876224,0.15944096,0.23118427,48,0.0015,44.25485,263202,31,-247,379,0
115173021,0,-0.0969447,0.19019796,0.2429842,48,0.0015,44.265926,263202,30,-264,386,0
115184221,0,-0.0969447,0.19019796,0.2429842,48,0.0015,44.260387,263202,30,-264,386,0
115193822,0,-0.10421486,0.16486867,0.2429842,48,0.0015,44.260387,263202,34,-250,386,0
115204220,0,-0.08967453,0.16486867,0.22949858,48,0.0015,44.2687,263202,26,-250,378,0
115213823,0,-0.10239732,0.16305944,0.2379271,48,0.0015,44.249306,263202,33,-249,383,0
115225020,0,-0.09149207,0.16305944,0.2480413,48,0.0015,44.221607,263202,27,-249,389,0
115234623,0,-0.09149207,0.16305944,0.2480413,48,0.0015,44.257618,263202,27,-249,389,0
115235421,0,-0.09149207,0.16305944,0.2480413,48,0.0015,44.27147,263202,27,-249,389,0
115245020,0,-0.10239732,0.16667789,0.24129851,48,0.0015,44.260387,263202,33,-251,385,0
115254624,0,-0.0969447,0.1612502,0.2429842,48,0.0015,44.260387,263202,30,-248,386,0
115265020,0,-0.10057978,0.1612502,0.23624139,48,0.0015,44.229916,263202,32,-248,382,0
115274621,0,-0.10239732,0.18115179,0.24129851,48,0.0015,44.25208,263202,33,-259,385,0
115285821,0,-0.09330961,0.18296102,0.22275577,48,0.0015,44.279778,263202,28,-260,374,0
115297036,0,-0.10784995,0.17934255,0.23286998,48,0.0015,44.265926,263202,36,-258,380,0
115305821,0,-0.10421486,0.16486867,0.23286998,48,0.0015,44.249306,263202,34,-250,380,0
115317055,0,-0.09330961,0.17572407,0.2396128,48,0.0015,44.246536,263202,28,-256,384,0
115327421,0,-0.09330961,0.17572407,0.2396128,48,0.0015,44.249306,263202,28,-256,384,0
115337038,0,-0.0842219,0.17753331,0.2379271,48,0.0015,44.265926,263202,23,-257,383,0
115346621,0,-0.09330961,0.17934255,0.2396128,48,0.0015,44.243767,263202,28,-258,384,0
115357051,0,-0.09149207,0.17029637,0.23455568,48,0.0015,44.25485,263202,27,-253,381,0
115366657,0,-0.10421486,0.1612502,0.23286998,48,0.0015,44.25485,263202,34,-248,380,0
115377822,0,-0.10421486,0.1612502,0.23286998,48,0.0015,44.246536,263202,34,-248,380,0
115389020,0,-0.09876224,0.17029637,0.2547841,48,0.0015,44.285316,263202,31,-253,393,0
115397824,0,-0.09876224,0.18477027,0.22781287,48,0.0015,44.243767,263202,31,-261,377,0
115409020,0,-0.0969447,0.17210561,0.22949858,48,0.0015,44.301937,263202,30,-254,378,0
115417856,0,-0.09149207,0.19562566,0.23118427,48,0.0015,44.263157,263202,27,-267,379,0
115429022,0,-0.10057978,0.17210561,0.23286998,48,0.0015,44.257618,263202,32,-254,380,0
115438667,0,-0.10421486,0.17934255,0.2429842,48,0.0015,44.249306,263202,34,-258,386,0
115449020,0,-0.09512716,0.16667789,0.23455568,48,0.0015,44.27147,263202,29,-251,381,0
115458668,0,-0.09512716,0.16667789,0.24466991,48,0.0015,44.282547,263202,29,-251,387,0
115469822,0,-0.09512716,0.16667789,0.24466991,48,0.0015,44.218838,263202,29,-251,387,0
115481021,0,-0.09512716,0.18477027,0.2480413,48,0.0015,44.257618,263202,29,-261,389,0
115489821,0,-0.09876224,0.17029637,0.21769866,48,0.0015,44.257618,263202,31,-253,371,0
115501020,0,-0.09330961,0.18296102,0.23624139,48,0.0015,44.25208,263202,28,-260,382,0
115509821,0,-0.10057978,0.16486867,0.24635562,48,0.0015,44.249306,263202,32,-250,388,0
115521021,0,-0.10057978,0.16486867,0.24635562,48,0.0015,44.2687,263202,32,-250,388,0
115530621,0,-0.09149207,0.17029637,0.24466991,48,0.0015,44.246536,263202,27,-253,387,0
115541021,0,-0.09876224,0.18115179,0.22781287,48,0.0015,44.2687,263202,31,-259,377,0
115550621,0,-0.10784995,0.16848715,0.2429842,48,0.0015,44.260387,263202,36,-252,386,0
115561020,0,-0.09876224,0.1558225,0.2379271,48,0.0015,44.263157,263202,31,-245,383,0
115571421,0,-0.08967453,0.1558225,0.2379271,48,0.0015,44.249306,263202,26,-245,383,0
115573021,0,-0.08967453,0.1612502,0.2429842,48,0.0015,44.23546,263202,26,-248,386,0
115581821,0,-0.08603944,0.16848715,0.23286998,48,0.0015,44.238228,263202,24,-252,380,0
115593035,0,-0.09512716,0.17753331,0.24466991,48,0.0015,44.240997,263202,29,-257,387,0
115601837,0,-0.10057978,0.16848715,0.23286998,48,0.0015,44.224377,263202,32,-252,380,0
115613055,0,-0.10057978,0.16848715,0.23286998,48,0.0015,44.25208,263202,32,-252,380,0
115622620,0,-0.09149207,0.17391485,0.23455568,48,0.0015,44.29086,263202,27,-255,381,0
115633058,0,-0.10421486,0.17934255,0.2429842,48,0.0015,44.25208,263202,34,-258,386,0
115642621,0,-0.09512716,0.16667789,0.25141272,48,0.0015,44.232685,263202,29,-251,391,0
115653039,0,-0.10966749,0.16667789,0.23455568,48,0.0015,44.285316,263202,37,-251,381,0
115663421,0,-0.10966749,0.16667789,0.23455568,48,0.0015,44.23546,263202,37,-251,381,0
115673834,0,-0.0969447,0.15763173,0.22949858,48,0.0015,44.265926,263202,30,-246,378,0
115683421,0,-0.09330961,0.15763173,0.22949858,48,0.0015,44.246536,263202,28,-246,378,0
115685020,0,-0.09330961,0.17210561,0.23286998,48,0.0015,44.246536,263202,28,-254,380,0
115693833,0,-0.0842219,0.17753331,0.24129851,48,0.0015,44.25485,263202,23,-257,385,0
115705022,0,-0.09876224,0.18838872,0.23455568,48,0.0015,44.25485,263202,31,-263,381,0
115714670,0,-0.0969447,0.17572407,0.22275577,48,0.0015,44.238228,263202,30,-256,374,0
115725020,0,-0.08785698,0.18115179,0.23118427,48,0.0015,44.249306,263202,25,-259,379,0
115734655,0,-0.09512716,0.17753331,0.24129851,48,0.0015,44.277008,263202,29,-257,385,0
115745020,0,-0.10421486,0.16848715,0.23624139,48,0.0015,44.246536,263202,34,-252,382,0
115755422,0,-0.10421486,0.16848715,0.23624139,48,0.0015,44.257618,263202,34,-252,382,0
115765821,0,-0.10421486,0.16486867,0.2396128,48,0.0015,44.277008,263202,34,-250,384,0
115775421,0,-0.10966749,0.15220402,0.2396128,48,0.0015,44.260387,263202,37,-243,384,0
115777021,0,-0.10966749,0.15220402,0.22781287,48,0.0015,44.279778,263202,37,-243,377,0
115785821,0,-0.09330961,0.16486867,0.23286998,48,0.0015,44.25208,263202,28,-250,380,0
115795421,0,-0.1060324,-0.28201243,0.23286998,48,0.0015,44.265926,263202,35,-3,380,0
115797021,0,-0.1060324,0.18115179,0.22107007,48,0.0015,44.243767,263202,35,-259,373,0
115806622,0,-0.1060324,0.18115179,0.22107007,48,0.0015,44.263157,263202,35,-259,373,0
115817020,0,-0.10057978,0.17934255,0.2429842,48,0.0015,44.285316,263202,32,-258,386,0
115826621,0,-0.09876224,0.17391485,0.2379271,48,0.0015,44.27424,263202,31,-255,383,0
115837821,0,-0.09876224,0.17753331,0.22107007,48,0.0015,44.25485,263202,31,-257,373,0
115846621,0,-0.09330961,0.17934255,0.23286998,48,0.0015,44.2687,263202,28,-258,380,0
115857821,0,-0.09330961,0.17572407,0.24635562,48,0.0015,44.25485,263202,28,-256,388,0
115867421,0,-0.08967453,0.18296102,0.23624139,48,0.0015,44.257618,263202,26,-260,382,0
115877820,0,-0.10239732,0.16667789,0.24129851,48,0.0015,44.279778,263202,33,-251,385,0
115887421,0,-0.09876224,0.18115179,0.2379271,48,0.0015,44.277008,263202,31,-259,383,0
115898631,0,-0.09876224,0.18115179,0.2379271,48,0.0015,44.246536,263202,31,-259,383,0
115909820,0,-0.10057978,0.17210561,0.23624139,48,0.0015,44.249306,263202,32,-254,382,0
115918630,0,-0.09876224,0.18115179,0.24466991,48,0.0015,44.29086,263202,31,-259,387,0
115929821,0,-0.10057978,0.18296102,0.2429842,48,0.0015,44.246536,263202,32,-260,386,0
115938630,0,-0.09512716,0.18115179,0.23455568,48,0.0015,44.265926,263202,29,-259,381,0
115949857,0,-0.09512716,0.18115179,0.23455568,48,0.0015,44.265926,263202,29,-259,381,0
115959421,0,-0.09149207,0.16305944,0.23455568,48,0.0015,44.246536,263202,27,-249,381,0
115969862,0,-0.10239732,0.17029637,0.24129851,48,0.0015,44.25485,263202,33,-253,385,0
115979435,0,-0.11330257,0.16667789,0.25141272,48,0.0015,44.2687,263202,39,-251,391,0
115989845,0,-0.09330961,0.17572407,0.22612718,48,0.0015,44.25485,263202,28,-256,376,0
116001820,0,-0.09876224,0.17391485,0.23455568,48,0.0015,44.279778,263202,31,-255,381,0
116010621,0,-0.11148503,0.15763173,0.22949858,48,0.0015,44.260387,263202,38,-246,378,0
116021820,0,-0.09876224,0.18115179,0.23118427,48,0.0015,44.29086,263202,31,-259,379,0
116030632,0,-0.09876224,0.17029637,0.24466991,48,0.0015,44.2687,263202,31,-253,387,0
116041821,0,-0.09876224,0.17029637,0.24466991,48,0.0015,44.299168,263202,31,-253,387,0
116051435,0,-0.1060324,0.15944096,0.23455568,48,0.0015,44.29086,263202,35,-247,381,0
116061820,0,-0.11693765,0.18115179,0.2379271,48,0.0015,44.2964,263202,41,-259,383,0
116071421,0,-0.09512716,0.17029637,0.24466991,48,0.0015,44.27424,263202,29,-253,387,0
116081820,0,-0.09876224,0.15944096,0.22781287,48,0.0015,44.27147,263202,31,-247,377,0
116102621,0,-0.10966749,0.18838872,0.23455568,48,0.0015,44.282547,263202,37,-263,381,0
116113821,0,-0.0969447,0.17210561,0.22275577,48,0.0015,44.30471,263202,30,-254,374,0
116122621,0,-0.09149207,0.16667789,0.24129851,48,0.0015,44.277008,263202,27,-251,385,0
116133820,0,-0.10239732,0.17753331,0.23455568,48,0.0015,44.29086,263202,33,-257,381,0
116143421,0,-0.09149207,0.17753331,0.24129851,48,0.0015,44.279778,263202,27,-257,385,0
116153821,0,-0.10784995,0.1865795,0.22949858,48,0.0015,44.23546,263202,36,-262,378,0
116163421,0,-0.09149207,0.17753331,0.2379271,48,0.0015,44.285316,263202,27,-257,383,0
116173828,0,-0.1060324,0.17753331,0.22781287,48,0.0015,44.285316,263202,35,-257,377,0
116184235,0,-0.1060324,0.17753331,0.22781287,48,0.0015,44.29086,263202,35,-257,377,0
116194621,0,-0.11512011,0.19019796,0.22949858,48,0.0015,44.29086,263202,40,-264,378,0
116205821,0,-0.09512716,0.17753331,0.24129851,48,0.0015,44.282547,263202,29,-257,385,0
116214621,0,-0.09512716,0.17029637,0.22781287,48,0.0015,44.282547,263202,29,-253,377,0
116225821,0,-0.0969447,0.1612502,0.24972701,48,0.0015,44.279778,263202,30,-248,390,0
116235423,0,-0.0969447,0.1612502,0.24972701,48,0.0015,44.260387,263202,30,-248,390,0
116245827,0,-0.11512011,0.1865795,0.23286998,48,0.0015,44.2687,263202,40,-262,380,0
116255421,0,-0.1060324,0.18115179,0.23455568,48,0.0015,44.279778,263202,35,-259,381,0
116265841,0,-0.09330961,0.17572407,0.23286998,48,0.0015,44.25208,263202,28,-256,380,0
116275421,0,-0.09512716,0.17753331,0.2480413,48,0.0015,44.263157,263202,29,-257,389,0
116286621,0,-0.10966749,0.17029637,0.23118427,48,0.0015,44.282547,263202,37,-253,379,0
116296221,0,-0.0969447,0.16486867,0.23118427,48,0.0015,44.25208,263202,30,-250,379,0
116297821,0,-0.0969447,0.16486867,0.24972701,48,0.0015,44.246536,263202,30,-250,390,0
116306621,0,-0.10239732,0.16667789,0.23118427,48,0.0015,44.27147,263202,33,-251,379,0
116317821,0,-0.0969447,0.19381644,0.23624139,48,0.0015,44.263157,263202,30,-266,382,0
116327422,0,-0.0969447,0.19381644,0.23624139,48,0.0015,44.265926,263202,30,-266,382,0
116337820,0,-0.10239732,0.1558225,0.25141272,48,0.0015,44.27424,263202,33,-245,391,0
116347421,0,-0.0969447,0.17934255,0.2396128,48,0.0015,44.301937,263202,30,-258,384,0
116357821,0,-0.08240435,0.17572407,0.23286998,48,0.0015,44.277008,263202,22,-256,380,0
116367421,0,-0.09330961,0.15763173,0.22949858,48,0.0015,44.263157,263202,28,-246,378,0
116378631,0,-0.09330961,0.15763173,0.22949858,48,0.0015,44.31025,263202,28,-246,378,0
116388221,0,-0.09876224,0.17029637,0.22949858,48,0.0015,44.277008,263202,31,-253,378,0
116389829,0,-0.09876224,0.17029637,0.2480413,48,0.0015,44.27424,263202,31,-253,389,0
116398630,0,-0.1060324,0.1920072,0.22107007,48,0.0015,44.285316,263202,35,-265,373,0
116409021,0,-0.11148503,0.19019796,0.23624139,48,0.0015,44.25208,263202,38,-264,382,0
116418631,0,-0.09330961,0.17572407,0.22949858,48,0.0015,44.28809,263202,28,-256,378,0
116430621,0,-0.09330961,0.17572407,0.24972701,48,0.0015,44.29363,263202,28,-256,390,0
116439422,0,-0.10421486,0.17210561,0.2396128,48,0.0015,44.285316,263202,34,-254,384,0
116450620,0,-0.10057978,0.1612502,0.2429842,48,0.0015,44.27147,263202,32,-248,386,0
116459421,0,-0.10057978,0.17934255,0.24972701,48,0.0015,44.299168,263202,32,-258,390,0
116470631,0,-0.10057978,0.17934255,0.24972701,48,0.0015,44.282547,263202,32,-258,390,0
116480221,0,-0.11330257,0.17391485,0.23118427,48,0.0015,44.279778,263202,39,-255,379,0
116490620,0,-0.08785698,0.17391485,0.24466991,48,0.0015,44.2964,263202,25,-255,387,0
116500221,0,-0.08785698,0.17029637,0.24466991,48,0.0015,44.260387,263202,25,-253,387,0
116510620,0,-0.09876224,0.18115179,0.2480413,48,0.0015,44.260387,263202,31,-259,389,0
116531421,0,-0.10057978,0.17572407,0.2429842,48,0.0015,44.29363,263202,32,-256,386,0
116542621,0,-0.09512716,0.17029637,0.23455568,48,0.0015,44.277008,263202,29,-253,381,0
116551421,0,-0.08785698,0.18477027,0.23118427,48,0.0015,44.263157,263202,25,-261,379,0
116562621,0,-0.11512011,0.17934255,0.2429842,48,0.0015,44.27147,263202,40,-258,386,0
116572221,0,-0.08967453,0.16848715,0.2396128,48,0.0015,44.27147,263202,26,-252,384,0
116582620,0,-0.11330257,0.18115179,0.2379271,48,0.0015,44.285316,263202,39,-259,383,0
116592220,0,-0.08967453,0.17210561,0.23286998,48,0.0015,44.30748,263202,26,-254,380,0
116602621,0,-0.11148503,0.1612502,0.22612718,48,0.0015,44.2687,263202,38,-248,376,0
116623421,0,-0.10966749,0.16667789,0.24129851,48,0.0015,44.299168,263202,37,-251,385,0
116634659,0,-0.10057978,0.18296102,0.2429842,48,0.0015,44.2964,263202,32,-260,386,0
116643421,0,-0.10966749,0.18115179,0.22781287,48,0.0015,44.282547,263202,37,-259,377,0
116654620,0,-0.10421486,0.18296102,0.23286998,48,0.0015,44.2687,263202,34,-260,380,0
116664238,0,-0.10421486,0.18296102,0.23286998,48,0.0015,44.263157,263202,34,-260,380,0
116665021,0,-0.10421486,0.18296102,0.23286998,48,0.0015,44.260387,263202,34,-260,380,0
116674620,0,-0.09512716,0.17029637,0.23118427,48,0.0015,44.301937,263202,29,-253,379,0
116684221,0,-0.11512011,0.18296102,0.24972701,48,0.0015,44.282547,263202,40,-260,390,0
116694620,0,-0.10239732,0.15220402,0.2379271,48,0.0015,44.260387,263202,33,-243,383,0
116704221,0,-0.12239028,0.17210561,0.22949858,48,0.0015,44.279778,263202,44,-254,378,0
116715421,0,-0.09876224,0.18115179,0.23118427,48,0.0015,44.277008,263202,31,-259,379,0
116726621,0,-0.10239732,0.18115179,0.23455568,48,0.0015,44.29086,263202,33,-259,381,0
116735421,0,-0.10239732,0.17391485,0.2379271,48,0.0015,44.282547,263202,33,-255,383,0
116746620,0,-0.12239028,0.16486867,0.24635562,48,0.0015,44.285316,263202,44,-250,388,0
116756220,0,-0.12239028,0.16486867,0.24635562,48,0.0015,44.29363,263202,44,-250,388,0
116766620,0,-0.0969447,0.16486867,0.23286998,48,0.0015,44.30748,263202,30,-250,380,0
116776221,0,-0.09876224,0.16305944,0.2379271,48,0.0015,44.27424,263202,31,-249,383,0
116786620,0,-0.09512716,0.15944096,0.2379271,48,0.0015,44.28809,263202,29,-247,383,0
116796229,0,-0.10966749,0.16305944,0.23118427,48,0.0015,44.29363,263202,37,-249,379,0
116807422,0,-0.10966749,0.16305944,0.23118427,48,0.0015,44.279778,263202,37,-249,379,0
116818630,0,-0.09149207,0.17029637,0.24129851,48,0.0015,44.27424,263202,27,-253,385,0
116827421,0,-0.10057978,0.17934255,0.2429842,48,0.0015,44.30748,263202,32,-258,386,0
116838630,0,-0.10784995,0.17210561,0.2429842,48,0.0015,44.263157,263202,36,-254,386,0
116847421,0,-0.10239732,0.18115179,0.2379271,48,0.0015,44.29086,263202,33,-259,383,0
116858638,0,-0.10057978,0.17210561,0.2396128,48,0.0015,44.28809,263202,32,-254,384,0
116868221,0,-0.11148503,0.17934255,0.21938437,48,0.0015,44.28809,263202,38,-258,372,0
116878645,0,-0.09149207,0.18115179,0.2480413,48,0.0015,44.285316,263202,27,-259,389,0
116888221,0,-0.08603944,0.1612502,0.22612718,48,0.0015,44.28809,263202,24,-248,376,0
116899421,0,-0.08603944,0.1612502,0.22612718,48,0.0015,44.27424,263202,24,-248,376,0
116909029,0,-0.08603944,0.16848715,0.22612718,48,0.0015,44.301937,263202,24,-252,376,0
116910621,0,-0.08603944,0.16848715,0.23624139,48,0.0015,44.30748,263202,24,-252,382,0
116919421,0,-0.09512716,0.16667789,0.23455568,48,0.0015,44.285316,263202,29,-251,381,0
116930621,0,-0.10239732,0.16667789,0.22444147,48,0.0015,44.30471,263202,33,-251,375,0
116939421,0,-0.09149207,0.16667789,0.22781287,48,0.0015,44.30748,263202,27,-251,377,0
116950621,0,-0.09149207,0.16667789,0.22781287,48,0.0015,44.265926,263202,27,-251,377,0
116960221,0,-0.0969447,0.17572407,0.23624139,48,0.0015,44.2964,263202,30,-256,382,0
116970620,0,-0.10057978,0.16848715,0.2429842,48,0.0015,44.29363,263202,32,-252,386,0
116980221,0,-0.10057978,0.18296102,0.24635562,48,0.0015,44.25208,263202,32,-260,388,0
116990633,0,-0.10784995,0.17210561,0.23286998,48,0.0015,44.2687,263202,36,-254,380,0
117001821,0,-0.10239732,0.17753331,0.2379271,48,0.0015,44.27147,263202,33,-257,383,0
117011453,0,-0.12239028,0.15763173,0.23286998,48,0.0015,44.277008,263202,44,-246,380,0
117021021,0,-0.10421486,0.17572407,0.2396128,48,0.0015,44.27424,263202,34,-256,384,0
117031420,0,-0.09512716,0.17391485,0.21769866,48,0.0015,44.282547,263202,29,-255,371,0
117052221,0,-0.08785698,0.1558225,0.23118427,48,0.0015,44.31025,263202,25,-245,379,0
117063420,0,-0.09876224,0.16667789,0.24466991,48,0.0015,44.30471,263202,31,-251,387,0
117072221,0,-0.10239732,0.18115179,0.23455568,48,0.0015,44.282547,263202,33,-259,381,0
117083420,0,-0.1060324,0.18115179,0.22781287,48,0.0015,44.301937,263202,35,-259,377,0
117093050,0,-0.1060324,0.18115179,0.22781287,48,0.0015,44.28809,263202,35,-259,377,0
117093869,0,-0.1060324,0.18115179,0.22781287,48,0.0015,44.28809,263202,35,-259,377,0
117103420,0,-0.09149207,0.17753331,0.2379271,48,0.0015,44.32133,263202,27,-257,383,0
117113020,0,-0.0969447,0.16848715,0.24635562,48,0.0015,44.31025,263202,30,-252,388,0
117123420,0,-0.09149207,0.17029637,0.24129851,48,0.0015,44.27424,263202,27,-253,385,0
117133031,0,-0.10057978,0.16848715,0.23286998,48,0.0015,44.285316,263202,32,-252,380,0
117144221,0,-0.10966749,0.17753331,0.23455568,48,0.0015,44.31025,263202,37,-257,381,0
117155420,0,-0.10057978,0.16848715,0.24972701,48,0.0015,44.277008,263202,32,-252,390,0
117164221,0,-0.10057978,0.18296102,0.23624139,48,0.0015,44.32133,263202,32,-260,382,0
117175420,0,-0.09149207,0.17753331,0.2379271,48,0.0015,44.279778,263202,27,-257,383,0
117185821,0,-0.09149207,0.17753331,0.2379271,48,0.0015,44.318558,263202,27,-257,383,0
117195420,0,-0.10966749,0.17391485,0.24466991,48,0.0015,44.299168,263202,37,-255,387,0
117205021,0,-0.09330961,0.18296102,0.2429842,48,0.0015,44.31302,263202,28,-260,386,0
117215421,0,-0.09330961,0.17210561,0.2396128,48,0.0015,44.30748,263202,28,-254,384,0
117225021,0,-0.10239732,0.16667789,0.23118427,48,0.0015,44.29363,263202,33,-251,379,0
117236222,0,-0.10239732,0.16667789,0.23118427,48,0.0015,44.2687,263202,33,-251,379,0
117247420,0,-0.08240435,0.17210561,0.22612718,48,0.0015,44.2964,263202,22,-254,376,0
117256233,0,-0.08603944,0.18296102,0.2396128,48,0.0015,44.31302,263202,24,-260,384,0
117267420,0,-0.0969447,0.17934255,0.2429842,48,0.0015,44.28809,263202,30,-258,386,0
117276221,0,-0.09876224,0.18115179,0.24129851,48,0.0015,44.31025,263202,31,-259,385,0
117287420,0,-0.09149207,0.17753331,0.2379271,48,0.0015,44.3241,263202,27,-257,383,0
117297049,0,-0.10784995,0.17210561,0.2396128,48,0.0015,44.246536,263202,36,-254,384,0
117307420,0,-0.09876224,0.15944096,0.23118427,48,0.0015,44.31302,263202,31,-247,379,0
117317020,0,-0.1060324,0.17391485,0.24129851,48,0.0015,44.279778,263202,35,-255,385,0
117328222,0,-0.1060324,0.17391485,0.24129851,48,0.0015,44.31579,263202,35,-255,385,0
117339421,0,-0.1060324,0.17753331,0.22444147,48,0.0015,44.31302,263202,35,-257,375,0
117348221,0,-0.09149207,0.17753331,0.23118427,48,0.0015,44.3241,263202,27,-257,379,0
117357835,0,-0.10239732,0.17753331,0.23118427,48,0.0015,44.29363,263202,33,-257,379,0
117368221,0,-0.09876224,0.15944096,0.22781287,48,0.0015,44.30471,263202,31,-247,377,0
117379421,0,-0.09876224,0.15944096,0.22781287,48,0.0015,44.263157,263202,31,-247,377,0
117389021,0,-0.10057978,0.16486867,0.23286998,48,0.0015,44.282547,263202,32,-250,380,0
117399420,0,-0.1060324,0.16667789,0.2379271,48,0.0015,44.299168,263202,35,-251,383,0
117409021,0,-0.10784995,0.1865795,0.2396128,48,0.0015,44.29086,263202,36,-262,384,0
117419420,0,-0.1060324,0.17391485,0.23118427,48,0.0015,44.28809,263202,35,-255,379,0
117431421,0,-0.1060324,0.18477027,0.23118427,48,0.0015,44.31579,263202,35,-261,379,0
117440221,0,-0.09876224,0.16667789,0.22444147,48,0.0015,44.28809,263202,31,-251,375,0
117451420,0,-0.08967453,0.1612502,0.23286998,48,0.0015,44.30471,263202,26,-248,380,0
117460221,0,-0.0969447,0.1865795,0.23624139,48,0.0015,44.279778,263202,30,-262,382,0
117471421,0,-0.0969447,0.1865795,0.23624139,48,0.0015,44.31025,263202,30,-262,382,0
117481021,0,-0.08058681,0.15944096,0.23455568,48,0.0015,44.31579,263202,21,-247,381,0
117491420,0,-0.0969447,0.17572407,0.21938437,48,0.0015,44.30748,263202,30,-256,372,0
117501021,0,-0.08785698,0.17391485,0.23118427,48,0.0015,44.29363,263202,25,-255,379,0
117511443,0,-0.11330257,0.18115179,0.22444147,48,0.0015,44.29363,263202,39,-259,375,0
117521821,0,-0.11330257,0.18115179,0.22444147,48,0.0015,44.2687,263202,39,-259,375,0
117532222,0,-0.0969447,0.1865795,0.22275577,48,0.0015,44.318558,263202,30,-262,374,0
117541828,0,-0.10421486,0.19381644,0.22275577,48,0.0015,44.31025,263202,34,-266,374,0
117543421,0,-0.10421486,0.19381644,0.23286998,48,0.0015,44.31302,263202,34,-266,380,0
117552221,0,-0.09512716,0.16667789,0.23118427,48,0.0015,44.30471,263202,29,-251,379,0
117561821,0,-0.0969447,-0.27296627,0.23118427,48,0.0015,44.2964,263202,30,-8,379,0
117562643,0,-0.0969447,0.19019796,0.23286998,48,0.0015,44.31302,263202,30,-264,380,0
117573021,0,-0.09330961,0.1865795,0.22949858,48,0.0015,44.30748,263202,28,-262,378,0
117584241,0,-0.10239732,0.1920072,0.22781287,48,0.0015,44.285316,263202,33,-265,377,0
117593021,0,-0.09512716,0.17391485,0.23118427,48,0.0015,44.2964,263202,29,-255,379,0
117604220,0,-0.09876224,0.18115179,0.2480413,48,0.0015,44.279778,263202,31,-259,389,0
117614621,0,-0.09876224,0.18115179,0.2480413,48,0.0015,44.27424,263202,31,-259,389,0
117624220,0,-0.08967453,0.16486867,0.21601297,48,0.0015,44.30471,263202,26,-250,370,0
117633821,0,-0.09330961,0.16848715,0.23624139,48,0.0015,44.30471,263202,28,-252,382,0
117644220,0,-0.1060324,0.18115179,0.23455568,48,0.0015,44.2964,263202,35,-259,381,0
117653827,0,-0.10784995,0.17934255,0.23624139,48,0.0015,44.33241,263202,36,-258,382,0
117665038,0,-0.10784995,0.17934255,0.23624139,48,0.0015,44.318558,263202,36,-258,382,0
117676220,0,-0.10421486,0.16486867,0.23286998,48,0.0015,44.28809,263202,34,-250,380,0
117685021,0,-0.09330961,0.17572407,0.2429842,48,0.0015,44.31579,263202,28,-256,386,0
117696220,0,-0.09512716,0.16667789,0.2480413,48,0.0015,44.34903,263202,29,-251,389,0
117705021,0,-0.0842219,0.17391485,0.23455568,48,0.0015,44.301937,263202,23,-255,381,0
117716220,0,-0.09330961,0.1865795,0.2429842,48,0.0015,44.32687,263202,28,-262,386,0
117725864,0,-0.09512716,0.15944096,0.24129851,48,0.0015,44.299168,263202,29,-247,385,0
117736220,0,-0.10057978,0.17210561,0.23286998,48,0.0015,44.301937,263202,32,-254,380,0
117745845,0,-0.0842219,0.18115179,0.22781287,48,0.0015,44.31025,263202,23,-259,377,0
117757022,0,-0.0842219,0.18115179,0.22781287,48,0.0015,44.31025,263202,23,-259,377,0
117768220,0,-0.09330961,0.17210561,0.23624139,48,0.0015,44.32133,263202,28,-254,382,0
117777021,0,-0.0969447,0.16848715,0.23624139,48,0.0015,44.301937,263202,30,-252,382,0
117788220,0,-0.08967453,0.1612502,0.23286998,48,0.0015,44.285316,263202,26,-248,380,0
117797021,0,-0.08967453,0.17210561,0.23624139,48,0.0015,44.31579,263202,26,-254,382,0
117808221,0,-0.08967453,0.17210561,0.23624139,48,0.0015,44.31302,263202,26,-254,382,0
117817821,0,-0.08058681,0.18115179,0.24129851,48,0.0015,44.318558,263202,21,-259,385,0
117828220,0,-0.09149207,0.15944096,0.22107007,48,0.0015,44.31579,263202,27,-247,373,0
117837822,0,-0.09330961,0.17572407,0.23624139,48,0.0015,44.299168,263202,28,-256,382,0
117848259,0,-0.09149207,0.18115179,0.24129851,48,0.0015,44.30748,263202,27,-259,385,0
117860244,0,-0.09149207,0.17753331,0.24129851,48,0.0015,44.2964,263202,27,-257,385,0
117869027,0,-0.10239732,0.16667789,0.24129851,48,0.0015,44.30471,263202,33,-251,385,0
117880220,0,-0.09149207,0.18477027,0.2379271,48,0.0015,44.34626,263202,27,-261,383,0
117889021,0,-0.1060324,0.1558225,0.22444147,48,0.0015,44.279778,263202,35,-245,375,0
117900221,0,-0.1060324,0.1558225,0.22444147,48,0.0015,44.31025,263202,35,-245,375,0
117909821,0,-0.09149207,0.17753331,0.2379271,48,0.0015,44.31025,263202,27,-257,383,0
117920220,0,-0.09512716,0.17029637,0.22444147,48,0.0015,44.33241,263202,29,-253,375,0
117929821,0,-0.09512716,0.17753331,0.23118427,48,0.0015,44.299168,263202,29,-257,379,0
117940220,0,-0.10421486,0.17572407,0.23624139,48,0.0015,44.30748,263202,34,-256,382,0
117950621,0,-0.10421486,0.17572407,0.23624139,48,0.0015,44.31302,263202,34,-256,382,0
117961021,0,-0.08058681,0.17391485,0.23455568,48,0.0015,44.33241,263202,21,-255,381,0
117972220,0,-0.10057978,0.16486867,0.22949858,48,0.0015,44.3241,263202,32,-250,378,0
117981021,0,-0.09876224,0.17753331,0.22781287,48,0.0015,44.34072,263202,31,-257,377,0
117990621,0,-0.09512716,0.17753331,0.22781287,48,0.0015,44.318558,263202,29,-257,377,0
117992220,0,-0.09512716,0.16305944,0.21769866,48,0.0015,44.299168,263202,29,-249,371,0
118001836,0,-0.10784995,0.18296102,0.2396128,48,0.0015,44.31579,263202,36,-260,384,0
118012220,0,-0.1060324,0.17753331,0.22781287,48,0.0015,44.2964,263202,35,-257,377,0
118021822,0,-0.09149207,0.16305944,0.24129851,48,0.0015,44.34072,263202,27,-249,385,0
118032222,0,-0.10421486,0.17934255,0.23286998,48,0.0015,44.299168,263202,34,-258,380,0
118042631,0,-0.10421486,0.17934255,0.23286998,48,0.0015,44.29086,263202,34,-258,380,0
118053021,0,-0.1060324,0.16305944,0.24466991,48,0.0015,44.34349,263202,35,-249,387,0
118064221,0,-0.08967453,0.19381644,0.2429842,48,0.0015,44.277008,263202,26,-266,386,0
118073021,0,-0.10239732,0.17029637,0.22781287,48,0.0015,44.31302,263202,33,-253,377,0
118082656,0,-0.09512716,0.16305944,0.22781287,48,0.0015,44.33241,263202,29,-249,377,0
118093822,0,-0.09512716,0.16305944,0.22781287,48,0.0015,44.32964,263202,29,-249,377,0
118104220,0,-0.10057978,0.16486867,0.23624139,48,0.0015,44.3241,263202,32,-250,382,0
118113821,0,-0.1060324,0.16305944,0.21769866,48,0.0015,44.33241,263202,35,-249,371,0
118125020,0,-0.10239732,0.16305944,0.2480413,48,0.0015,44.33518,263202,33,-249,389,0
118133883,0,-0.08967453,0.1612502,0.23286998,48,0.0015,44.31302,263202,26,-248,380,0
118145020,0,-0.09512716,0.17753331,0.23455568,48,0.0015,44.30748,263202,29,-257,381,0
118154621,0,-0.10421486,0.17572407,0.23455568,48,0.0015,44.31579,263202,34,-256,381,0
118156258,0,-0.10421486,0.17572407,0.2396128,48,0.0015,44.31302,263202,34,-256,384,0
118165020,0,-0.10057978,0.16848715,0.22612718,48,0.0015,44.31579,263202,32,-252,376,0
118175422,0,-0.11330257,0.17753331,0.22781287,48,0.0015,44.32133,263202,39,-257,377,0
118185822,0,-0.11330257,0.17753331,0.22781287,48,0.0015,44.32133,263202,39,-257,377,0
118197038,0,-0.10966749,0.16667789,0.22444147,48,0.0015,44.32687,263202,37,-251,375,0
118205821,0,-0.08603944,0.17934255,0.23286998,48,0.0015,44.318558,263202,24,-258,380,0
118217052,0,-0.1060324,0.18115179,0.24466991,48,0.0015,44.33241,263202,35,-259,387,0
118225821,0,-0.1187552,0.16848715,0.24972701,48,0.0015,44.2964,263202,42,-252,390,0
118237039,0,-0.1187552,0.16848715,0.24972701,48,0.0015,44.318558,263202,42,-252,390,0
