timestamp,error_count,x,y,z,range_ga,scaling,temperature,device_id,x_raw,y_raw,z_raw,is_external
109426908,0,-0.14201891,0.1819466,0.22109437,2,8.00E-05,30.625,131618,-3283,-2911,3079,0
109436909,0,-0.14503512,0.1826627,0.22085147,2,8.00E-05,30.625,131618,-3292,-2949,3076,0
109446907,0,-0.14559074,0.18067354,0.2223089,2,8.00E-05,30.625,131618,-3267,-2956,3094,0
109456907,0,-0.1474957,0.18138964,0.22109437,2,8.00E-05,30.625,131618,-3276,-2980,3079,0
109466907,0,-0.1463051,0.18489057,0.22311857,2,8.00E-05,30.375,131618,-3320,-2965,3104,0
110266919,0,-0.14257453,0.18290141,0.22336148,2,8.00E-05,30.625,131618,-3295,-2918,3107,0
110276916,0,-0.1429714,0.18043484,0.22125632,2,8.00E-05,30.625,131618,-3264,-2923,3081,0
110286926,0,-0.14733694,0.18011658,0.22198503,2,8.00E-05,30.625,131618,-3260,-2978,3090,0
110296907,0,-0.14725758,0.18592495,0.22149922,2,8.00E-05,30.625,131618,-3333,-2977,3084,0
110306918,0,-0.1478132,0.18250358,0.22190405,2,8.00E-05,30.75,131618,-3290,-2984,3089,0
110316907,0,-0.1466226,0.1805144,0.21915112,2,8.00E-05,30.5,131618,-3265,-2969,3055,0
110326907,0,-0.14614636,0.18258314,0.219475,2,8.00E-05,30.5,131618,-3291,-2963,3059,0
110336907,0,-0.143527,0.18186703,0.22125632,2,8.00E-05,30.5,131618,-3282,-2930,3081,0
110346907,0,-0.1496388,0.18298097,0.22068954,2,8.00E-05,30.5,131618,-3296,-3007,3074,0
110356907,0,-0.1432889,0.18210575,0.22060856,2,8.00E-05,30.625,131618,-3285,-2927,3073,0
110366930,0,-0.14360638,0.18345839,0.21955597,2,8.00E-05,30.625,131618,-3302,-2931,3060,0
110376907,0,-0.14622572,0.18115094,0.2207705,2,8.00E-05,30.625,131618,-3273,-2964,3075,0
110386948,0,-0.143527,0.17948003,0.22020371,2,8.00E-05,30.625,131618,-3252,-2930,3068,0
110516925,0,-0.14519386,0.18353795,0.22190405,2,8.00E-05,30.5,131618,-3303,-2951,3089,0
110536908,0,-0.1466226,0.18178748,0.22141825,2,8.00E-05,30.5,131618,-3281,-2969,3083,0
110546920,0,-0.14463824,0.1860045,0.22141825,2,8.00E-05,30.5,131618,-3334,-2944,3083,0
110556907,0,-0.14360638,0.18234445,0.21817952,2,8.00E-05,30.5,131618,-3288,-2931,3043,0
110566907,0,-0.14559074,0.18091224,0.22141825,2,8.00E-05,30.5,131618,-3270,-2956,3083,0
110576941,0,-0.14392388,0.17717262,0.2197179,2,8.00E-05,30.5,131618,-3223,-2935,3062,0
110586907,0,-0.14590824,0.18131007,0.22085147,2,8.00E-05,30.75,131618,-3275,-2960,3076,0
110596947,0,-0.1459876,0.18465187,0.22093244,2,8.00E-05,30.5,131618,-3317,-2961,3077,0
110606907,0,-0.14432074,0.18202618,0.21987984,2,8.00E-05,30.5,131618,-3284,-2940,3064,0
110616956,0,-0.14424138,0.18337882,0.22133727,2,8.00E-05,30.5,131618,-3301,-2939,3082,0
110626907,0,-0.14606698,0.18059397,0.22182308,2,8.00E-05,30.5,131618,-3266,-2962,3088,0
110636950,0,-0.14432074,0.18162833,0.22425213,2,8.00E-05,30.5,131618,-3279,-2940,3118,0
110646915,0,-0.1474957,0.17581998,0.22263277,2,8.00E-05,30.5,131618,-3206,-2980,3098,0
110656945,0,-0.1466226,0.18178748,0.22222793,2,8.00E-05,30.5,131618,-3281,-2969,3093,0
110666909,0,-0.14709884,0.18202618,0.22271372,2,8.00E-05,30.5,131618,-3284,-2975,3099,0
110676951,0,-0.14844818,0.18258314,0.22149922,2,8.00E-05,30.5,131618,-3291,-2992,3084,0
110686909,0,-0.14336826,0.18123052,0.22109437,2,8.00E-05,30.5,131618,-3274,-2928,3079,0
110696950,0,-0.1499563,0.18035528,0.22117534,2,8.00E-05,30.5,131618,-3263,-3011,3080,0
110706921,0,-0.14376512,0.18067354,0.22222793,2,8.00E-05,30.5,131618,-3267,-2933,3093,0
110716913,0,-0.14733694,0.17924134,0.22044662,2,8.00E-05,30.625,131618,-3249,-2978,3071,0
110726908,0,-0.14844818,0.18345839,0.22271372,2,8.00E-05,30.5,131618,-3302,-2992,3099,0
110736929,0,-0.14789256,0.17812741,0.22117534,2,8.00E-05,30.5,131618,-3235,-2985,3080,0
110746924,0,-0.1444795,0.18107137,0.22133727,2,8.00E-05,30.5,131618,-3272,-2942,3082,0
110756920,0,-0.14590824,0.18154877,0.22028469,2,8.00E-05,30.5,131618,-3278,-2960,3069,0
110766912,0,-0.14582886,0.18027571,0.22036566,2,8.00E-05,30.5,131618,-3262,-2959,3070,0
110776968,0,-0.14368576,0.18274227,0.22117534,2,8.00E-05,30.5,131618,-3293,-2932,3080,0
110796939,0,-0.15059128,0.18226488,0.22109437,2,8.00E-05,30.75,131618,-3287,-3019,3079,0
110806944,0,-0.1499563,0.1778887,0.2210134,2,8.00E-05,30.75,131618,-3232,-3011,3078,0
110816910,0,-0.14408262,0.1786048,0.22149922,2,8.00E-05,30.75,131618,-3241,-2937,3084,0
110826911,0,-0.14535262,0.17589954,0.22182308,2,8.00E-05,30.75,131618,-3207,-2953,3088,0
110836955,0,-0.14408262,0.18059397,0.22198503,2,8.00E-05,30.625,131618,-3266,-2937,3090,0
110846914,0,-0.1438445,0.17765,0.22190405,2,8.00E-05,30.625,131618,-3229,-2934,3089,0
110856952,0,-0.1451145,0.18592495,0.22133727,2,8.00E-05,30.75,131618,-3333,-2950,3082,0
110866907,0,-0.14559074,0.17908221,0.22125632,2,8.00E-05,30.625,131618,-3247,-2956,3081,0
110876950,0,-0.14360638,0.18115094,0.22044662,2,8.00E-05,30.625,131618,-3273,-2931,3071,0
110886927,0,-0.1420983,0.18202618,0.222066,2,8.00E-05,30.625,131618,-3284,-2912,3091,0
111116919,0,-0.1456701,0.18123052,0.22149922,2,8.00E-05,30.625,131618,-3274,-2957,3084,0
111126907,0,-0.14797194,0.18226488,0.22174212,2,8.00E-05,30.625,131618,-3287,-2986,3087,0
111136907,0,-0.1459876,0.17772958,0.21979888,2,8.00E-05,30.625,131618,-3230,-2961,3063,0
111146907,0,-0.14320952,0.18425405,0.22060856,2,8.00E-05,30.625,131618,-3312,-2926,3073,0
111156907,0,-0.14233641,0.1819466,0.22044662,2,8.00E-05,30.5,131618,-3283,-2915,3071,0
111166910,0,-0.14154267,0.18369707,0.22020371,2,8.00E-05,30.625,131618,-3305,-2905,3068,0
111176917,0,-0.14582886,0.18329924,0.22028469,2,8.00E-05,30.625,131618,-3300,-2959,3069,0
111186907,0,-0.14074893,0.17804784,0.22093244,2,8.00E-05,30.625,131618,-3234,-2895,3077,0
111196913,0,-0.144797,0.18035528,0.22166115,2,8.00E-05,30.625,131618,-3263,-2946,3086,0
111206942,0,-0.14709884,0.18138964,0.22028469,2,8.00E-05,30.75,131618,-3276,-2975,3069,0
111216907,0,-0.14654322,0.18306054,0.22182308,2,8.00E-05,30.5,131618,-3297,-2968,3088,0
111226948,0,-0.14471762,0.1821853,0.22068954,2,8.00E-05,30.5,131618,-3286,-2945,3074,0
111236907,0,-0.13892333,0.18242401,0.22247083,2,8.00E-05,30.5,131618,-3289,-2872,3096,0
111246907,0,-0.14606698,0.17749086,0.21979888,2,8.00E-05,30.5,131618,-3227,-2962,3063,0
111256907,0,-0.14186016,0.18290141,0.22060856,2,8.00E-05,30.5,131618,-3295,-2909,3073,0
111266907,0,-0.14376512,0.18107137,0.22255181,2,8.00E-05,30.5,131618,-3272,-2933,3097,0
111276907,0,-0.15273438,0.180037,0.22182308,2,8.00E-05,30.625,131618,-3259,-3046,3088,0
111286907,0,-0.14535262,0.1819466,0.22020371,2,8.00E-05,30.625,131618,-3283,-2953,3068,0
111296907,0,-0.14400326,0.18512927,0.22149922,2,8.00E-05,30.625,131618,-3323,-2936,3084,0
111306907,0,-0.14320952,0.18083267,0.22271372,2,8.00E-05,30.625,131618,-3269,-2926,3099,0
111316907,0,-0.14559074,0.1817079,0.22174212,2,8.00E-05,30.625,131618,-3280,-2956,3087,0
111326915,0,-0.1451145,0.17948003,0.22149922,2,8.00E-05,30.5,131618,-3252,-2950,3084,0
111336907,0,-0.14844818,0.18441318,0.22182308,2,8.00E-05,30.75,131618,-3314,-2992,3088,0
111346907,0,-0.14440012,0.18465187,0.21987984,2,8.00E-05,30.625,131618,-3317,-2941,3064,0
111356907,0,-0.14789256,0.18298097,0.22125632,2,8.00E-05,30.625,131618,-3296,-2985,3081,0
111366907,0,-0.14924192,0.18107137,0.22028469,2,8.00E-05,30.625,131618,-3272,-3002,3069,0
111376907,0,-0.143527,0.18489057,0.22068954,2,8.00E-05,30.625,131618,-3320,-2930,3074,0
111386907,0,-0.14487636,0.18154877,0.21939403,2,8.00E-05,30.625,131618,-3278,-2947,3058,0
111396907,0,-0.14495574,0.18377663,0.21996081,2,8.00E-05,30.625,131618,-3306,-2948,3065,0
111406907,0,-0.1469401,0.18091224,0.22068954,2,8.00E-05,30.625,131618,-3270,-2973,3074,0
111416929,0,-0.14455888,0.18019614,0.21907015,2,8.00E-05,30.625,131618,-3261,-2943,3054,0
111426907,0,-0.14392388,0.17812741,0.22166115,2,8.00E-05,30.625,131618,-3235,-2935,3086,0
111436931,0,-0.15011504,0.17908221,0.22125632,2,8.00E-05,30.75,131618,-3247,-3013,3081,0
111446907,0,-0.14376512,0.18226488,0.22133727,2,8.00E-05,30.75,131618,-3287,-2933,3082,0
111586911,0,-0.14543198,0.17940046,0.22190405,2,8.00E-05,30.75,131618,-3251,-2954,3089,0
111596907,0,-0.14678134,0.18162833,0.21996081,2,8.00E-05,30.625,131618,-3279,-2971,3065,0
111606907,0,-0.14916256,0.18107137,0.22174212,2,8.00E-05,30.625,131618,-3272,-3001,3087,0
111616910,0,-0.14590824,0.18425405,0.22255181,2,8.00E-05,30.5,131618,-3312,-2960,3097,0
111626946,0,-0.1432889,0.17916177,0.21979888,2,8.00E-05,30.625,131618,-3248,-2927,3063,0
111636914,0,-0.14519386,0.17924134,0.22247083,2,8.00E-05,30.625,131618,-3249,-2951,3096,0
111646945,0,-0.14773382,0.18178748,0.22109437,2,8.00E-05,30.5,131618,-3281,-2983,3079,0
111656918,0,-0.14638448,0.18027571,0.22214696,2,8.00E-05,30.5,131618,-3262,-2966,3092,0
111666927,0,-0.14225703,0.17709304,0.22068954,2,8.00E-05,30.5,131618,-3222,-2914,3074,0
111676908,0,-0.14186016,0.18329924,0.2207705,2,8.00E-05,30.5,131618,-3300,-2909,3075,0
111686947,0,-0.14741632,0.17987788,0.22190405,2,8.00E-05,30.5,131618,-3257,-2979,3089,0
111696906,0,-0.14289203,0.18314011,0.22085147,2,8.00E-05,30.625,131618,-3298,-2922,3076,0
111706932,0,-0.14725758,0.1821853,0.2207705,2,8.00E-05,30.5,131618,-3286,-2977,3075,0
111716939,0,-0.14828944,0.18138964,0.21987984,2,8.00E-05,30.625,131618,-3276,-2990,3064,0
111726907,0,-0.14765444,0.17844567,0.22085147,2,8.00E-05,30.625,131618,-3239,-2982,3076,0
111736907,0,-0.14336826,0.1788435,0.22012275,2,8.00E-05,30.625,131618,-3244,-2928,3067,0
111746907,0,-0.14368576,0.18298097,0.2197179,2,8.00E-05,30.375,131618,-3296,-2932,3062,0
111866907,0,-0.1451145,0.18146922,0.22036566,2,8.00E-05,30.5,131618,-3277,-2950,3070,0
111876907,0,-0.1478132,0.17757043,0.21979888,2,8.00E-05,30.5,131618,-3228,-2984,3063,0
111886907,0,-0.15122627,0.17916177,0.2223089,2,8.00E-05,30.5,131618,-3248,-3027,3094,0
112326920,0,-0.14638448,0.18258314,0.22068954,2,8.00E-05,30.625,131618,-3291,-2966,3074,0
112336907,0,-0.14455888,0.17908221,0.22263277,2,8.00E-05,30.625,131618,-3247,-2943,3098,0
112346935,0,-0.14709884,0.1755017,0.22133727,2,8.00E-05,30.75,131618,-3202,-2975,3082,0
112356919,0,-0.14249516,0.18202618,0.22133727,2,8.00E-05,30.625,131618,-3284,-2917,3082,0
112366913,0,-0.14186016,0.1807531,0.22068954,2,8.00E-05,30.625,131618,-3268,-2909,3074,0
112376923,0,-0.14606698,0.18314011,0.22141825,2,8.00E-05,30.625,131618,-3298,-2962,3083,0
112386954,0,-0.14757507,0.1821853,0.22036566,2,8.00E-05,30.625,131618,-3286,-2981,3070,0
112396960,0,-0.15352812,0.18178748,0.22117534,2,8.00E-05,30.75,131618,-3281,-3056,3080,0
112406914,0,-0.14773382,0.18019614,0.22125632,2,8.00E-05,30.625,131618,-3261,-2983,3081,0
112416911,0,-0.14487636,0.18059397,0.22068954,2,8.00E-05,30.625,131618,-3266,-2947,3074,0
112426932,0,-0.14336826,0.18489057,0.22085147,2,8.00E-05,30.625,131618,-3320,-2928,3076,0
112436943,0,-0.14249516,0.18091224,0.22141825,2,8.00E-05,30.75,131618,-3270,-2917,3083,0
112446907,0,-0.14844818,0.17908221,0.22158018,2,8.00E-05,30.5,131618,-3247,-2992,3085,0
112456907,0,-0.1466226,0.18059397,0.22060856,2,8.00E-05,30.625,131618,-3266,-2969,3073,0
112466957,0,-0.14574948,0.17948003,0.22109437,2,8.00E-05,30.625,131618,-3252,-2958,3079,0
112476907,0,-0.14281265,0.18274227,0.22117534,2,8.00E-05,30.625,131618,-3293,-2921,3080,0
112486932,0,-0.14979754,0.17892307,0.22028469,2,8.00E-05,30.625,131618,-3245,-3009,3069,0
112496907,0,-0.14463824,0.1826627,0.22190405,2,8.00E-05,30.625,131618,-3292,-2944,3089,0
112506918,0,-0.14535262,0.1788435,0.22085147,2,8.00E-05,30.625,131618,-3244,-2953,3076,0
112516907,0,-0.143527,0.17995743,0.22036566,2,8.00E-05,30.625,131618,-3258,-2930,3070,0
112526907,0,-0.14003456,0.18489057,0.21955597,2,8.00E-05,30.625,131618,-3320,-2886,3060,0
112766907,0,-0.14828944,0.18131007,0.22068954,2,8.00E-05,30.625,131618,-3275,-2990,3074,0
112776907,0,-0.1478132,0.18107137,0.22028469,2,8.00E-05,30.625,131618,-3272,-2984,3069,0
112786907,0,-0.14551136,0.17757043,0.21866532,2,8.00E-05,30.625,131618,-3228,-2955,3049,0
112796907,0,-0.14265391,0.18425405,0.22085147,2,8.00E-05,30.625,131618,-3312,-2919,3076,0
112806907,0,-0.14090768,0.18353795,0.2207705,2,8.00E-05,30.625,131618,-3303,-2897,3075,0
112816907,0,-0.1456701,0.17725217,0.222066,2,8.00E-05,30.625,131618,-3224,-2957,3091,0
112826909,0,-0.14408262,0.18091224,0.22068954,2,8.00E-05,30.625,131618,-3270,-2937,3074,0
112836907,0,-0.14670198,0.18115094,0.22052759,2,8.00E-05,30.625,131618,-3273,-2970,3072,0
112846907,0,-0.1486863,0.1821853,0.22044662,2,8.00E-05,30.5,131618,-3286,-2995,3071,0
112856908,0,-0.14519386,0.17629737,0.22085147,2,8.00E-05,30.5,131618,-3212,-2951,3076,0
112866907,0,-0.1459876,0.17757043,0.22198503,2,8.00E-05,30.5,131618,-3228,-2961,3090,0
112876907,0,-0.1466226,0.17932092,0.22085147,2,8.00E-05,30.5,131618,-3250,-2969,3076,0
112886942,0,-0.14432074,0.18552712,0.22133727,2,8.00E-05,30.625,131618,-3328,-2940,3082,0
112896907,0,-0.14289203,0.18202618,0.2227947,2,8.00E-05,30.625,131618,-3284,-2922,3100,0
112906944,0,-0.144162,0.1805144,0.22198503,2,8.00E-05,30.5,131618,-3265,-2938,3090,0
112916907,0,-0.1469401,0.1774113,0.22166115,2,8.00E-05,30.5,131618,-3226,-2973,3086,0
112926907,0,-0.14797194,0.18131007,0.22085147,2,8.00E-05,30.5,131618,-3275,-2986,3076,0
112936907,0,-0.1459876,0.18138964,0.22166115,2,8.00E-05,30.625,131618,-3276,-2961,3086,0
112946907,0,-0.14368576,0.18083267,0.21987984,2,8.00E-05,30.625,131618,-3269,-2932,3064,0
112956907,0,-0.14805132,0.1783661,0.2197179,2,8.00E-05,30.625,131618,-3238,-2987,3062,0
112966907,0,-0.13836771,0.18457231,0.21979888,2,8.00E-05,30.625,131618,-3316,-2865,3063,0
112976907,0,-0.14289203,0.18274227,0.22028469,2,8.00E-05,30.5,131618,-3293,-2922,3069,0
112986907,0,-0.14551136,0.18314011,0.22085147,2,8.00E-05,30.5,131618,-3298,-2955,3076,0
112996907,0,-0.14424138,0.18306054,0.21963693,2,8.00E-05,30.5,131618,-3297,-2939,3061,0
113006907,0,-0.1502738,0.18274227,0.2210134,2,8.00E-05,30.75,131618,-3293,-3015,3078,0
113016907,0,-0.14821006,0.18202618,0.21979888,2,8.00E-05,30.5,131618,-3284,-2989,3063,0
113026908,0,-0.14741632,0.18178748,0.22068954,2,8.00E-05,30.5,131618,-3281,-2979,3074,0
113036907,0,-0.14273328,0.1797983,0.22174212,2,8.00E-05,30.5,131618,-3256,-2920,3087,0
113046908,0,-0.14233641,0.17892307,0.22214696,2,8.00E-05,30.5,131618,-3245,-2915,3092,0
113056907,0,-0.14725758,0.17995743,0.22271372,2,8.00E-05,30.75,131618,-3258,-2977,3099,0
113066907,0,-0.14654322,0.18146922,0.22214696,2,8.00E-05,30.625,131618,-3277,-2968,3092,0
113076921,0,-0.15011504,0.18298097,0.22238986,2,8.00E-05,30.625,131618,-3296,-3013,3095,0
113086939,0,-0.14678134,0.1797983,0.22166115,2,8.00E-05,30.625,131618,-3256,-2971,3086,0
113096965,0,-0.14170142,0.18393578,0.222066,2,8.00E-05,30.625,131618,-3308,-2907,3091,0
113106938,0,-0.14614636,0.18528841,0.22109437,2,8.00E-05,30.625,131618,-3325,-2963,3079,0
113116935,0,-0.1478132,0.18290141,0.22182308,2,8.00E-05,30.5,131618,-3295,-2984,3088,0
113126931,0,-0.1511469,0.1795596,0.22166115,2,8.00E-05,30.5,131618,-3253,-3026,3086,0
113136932,0,-0.14463824,0.18417448,0.2197179,2,8.00E-05,30.625,131618,-3311,-2944,3062,0
113146927,0,-0.1463051,0.18234445,0.22012275,2,8.00E-05,30.625,131618,-3288,-2965,3067,0
113156907,0,-0.14011393,0.1807531,0.21987984,2,8.00E-05,30.625,131618,-3268,-2887,3064,0
113166907,0,-0.14313015,0.17765,0.21963693,2,8.00E-05,30.625,131618,-3229,-2925,3061,0
113176911,0,-0.14717822,0.17987788,0.22068954,2,8.00E-05,30.75,131618,-3257,-2976,3074,0
113186907,0,-0.14765444,0.18393578,0.22060856,2,8.00E-05,30.75,131618,-3308,-2982,3073,0
113196907,0,-0.14773382,0.18123052,0.22190405,2,8.00E-05,30.75,131618,-3274,-2983,3089,0
113206907,0,-0.14305077,0.17900264,0.2210134,2,8.00E-05,30.5,131618,-3246,-2924,3078,0
113216907,0,-0.14503512,0.17892307,0.22125632,2,8.00E-05,30.75,131618,-3245,-2949,3081,0
113226907,0,-0.14217766,0.18146922,0.22117534,2,8.00E-05,30.625,131618,-3277,-2913,3080,0
113236907,0,-0.14376512,0.1819466,0.22149922,2,8.00E-05,30.625,131618,-3283,-2933,3084,0
113246916,0,-0.14646386,0.18138964,0.22287567,2,8.00E-05,30.625,131618,-3276,-2967,3101,0
113256907,0,-0.14400326,0.18138964,0.22255181,2,8.00E-05,30.625,131618,-3276,-2936,3097,0
113266907,0,-0.14368576,0.1807531,0.22117534,2,8.00E-05,30.625,131618,-3268,-2932,3080,0
113276911,0,-0.14606698,0.17772958,0.22060856,2,8.00E-05,30.625,131618,-3230,-2962,3073,0
113286910,0,-0.14828944,0.17733173,0.22141825,2,8.00E-05,30.625,131618,-3225,-2990,3083,0
113296907,0,-0.14463824,0.17940046,0.22109437,2,8.00E-05,30.625,131618,-3251,-2944,3079,0
113306943,0,-0.14376512,0.180037,0.22149922,2,8.00E-05,30.625,131618,-3259,-2933,3084,0
113316907,0,-0.14400326,0.18321967,0.22141825,2,8.00E-05,30.625,131618,-3299,-2936,3083,0
113326954,0,-0.1502738,0.17677477,0.22060856,2,8.00E-05,30.625,131618,-3218,-3015,3073,0
113336907,0,-0.14471762,0.18282184,0.22036566,2,8.00E-05,30.5,131618,-3294,-2945,3070,0
113346907,0,-0.1444795,0.17717262,0.2210134,2,8.00E-05,30.5,131618,-3223,-2942,3078,0
113356908,0,-0.14305077,0.17948003,0.22060856,2,8.00E-05,30.625,131618,-3252,-2924,3073,0
113366907,0,-0.14654322,0.18306054,0.21996081,2,8.00E-05,30.625,131618,-3297,-2968,3065,0
113376907,0,-0.1474957,0.18146922,0.222066,2,8.00E-05,30.625,131618,-3277,-2980,3091,0
113386907,0,-0.14281265,0.17995743,0.22149922,2,8.00E-05,30.625,131618,-3258,-2921,3084,0
113396907,0,-0.14717822,0.18123052,0.22044662,2,8.00E-05,30.625,131618,-3274,-2976,3071,0
113406907,0,-0.14828944,0.18035528,0.22052759,2,8.00E-05,30.75,131618,-3263,-2990,3072,0
113416913,0,-0.14440012,0.1826627,0.22109437,2,8.00E-05,30.75,131618,-3292,-2941,3079,0
113426907,0,-0.14535262,0.17924134,0.2207705,2,8.00E-05,30.625,131618,-3249,-2953,3075,0
113436907,0,-0.1456701,0.18186703,0.22214696,2,8.00E-05,30.625,131618,-3282,-2957,3092,0
113446907,0,-0.14392388,0.18242401,0.2210134,2,8.00E-05,30.5,131618,-3289,-2935,3078,0
113456911,0,-0.14471762,0.18497014,0.22093244,2,8.00E-05,30.625,131618,-3321,-2945,3077,0
113466907,0,-0.1469401,0.18099181,0.22182308,2,8.00E-05,30.625,131618,-3271,-2973,3088,0
113476907,0,-0.1469401,0.18019614,0.22158018,2,8.00E-05,30.625,131618,-3261,-2973,3085,0
113486907,0,-0.1463051,0.18123052,0.22052759,2,8.00E-05,30.5,131618,-3274,-2965,3072,0
113496907,0,-0.1438445,0.18321967,0.22198503,2,8.00E-05,30.625,131618,-3299,-2934,3090,0
113506923,0,-0.15051192,0.18186703,0.22190405,2,8.00E-05,30.5,131618,-3282,-3018,3089,0
113516947,0,-0.1456701,0.18019614,0.21996081,2,8.00E-05,30.5,131618,-3261,-2957,3065,0
113526908,0,-0.14320952,0.180037,0.22004178,2,8.00E-05,30.625,131618,-3259,-2926,3066,0
113536945,0,-0.144797,0.17725217,0.22117534,2,8.00E-05,30.625,131618,-3224,-2946,3080,0
113546908,0,-0.14741632,0.18298097,0.22117534,2,8.00E-05,30.625,131618,-3296,-2979,3080,0
113556934,0,-0.14559074,0.1805144,0.22052759,2,8.00E-05,30.625,131618,-3265,-2956,3072,0
113566921,0,-0.14281265,0.1821853,0.22117534,2,8.00E-05,30.5,131618,-3286,-2921,3080,0
113576952,0,-0.1444795,0.18043484,0.22085147,2,8.00E-05,30.5,131618,-3264,-2942,3076,0
113586921,0,-0.14924192,0.1797983,0.22149922,2,8.00E-05,30.5,131618,-3256,-3002,3084,0
113596944,0,-0.14186016,0.18314011,0.22052759,2,8.00E-05,30.625,131618,-3298,-2909,3072,0
113606909,0,-0.1463051,0.1817079,0.2210134,2,8.00E-05,30.625,131618,-3280,-2965,3078,0
113616935,0,-0.14487636,0.17765,0.22020371,2,8.00E-05,30.625,131618,-3229,-2947,3068,0
113626909,0,-0.14765444,0.18258314,0.22133727,2,8.00E-05,30.625,131618,-3291,-2982,3082,0
113636939,0,-0.14233641,0.18433361,0.22149922,2,8.00E-05,30.625,131618,-3313,-2915,3084,0
113646907,0,-0.14924192,0.18321967,0.22198503,2,8.00E-05,30.625,131618,-3299,-3002,3090,0
113656914,0,-0.14805132,0.18019614,0.22125632,2,8.00E-05,30.625,131618,-3261,-2987,3081,0
113666907,0,-0.14924192,0.17932092,0.2207705,2,8.00E-05,30.625,131618,-3250,-3002,3075,0
113676907,0,-0.14646386,0.18449275,0.22141825,2,8.00E-05,30.625,131618,-3315,-2967,3083,0
113686918,0,-0.14432074,0.18027571,0.22198503,2,8.00E-05,30.5,131618,-3262,-2940,3090,0
113696940,0,-0.1429714,0.18035528,0.22263277,2,8.00E-05,30.5,131618,-3263,-2923,3098,0
113706908,0,-0.14701948,0.18115094,0.22004178,2,8.00E-05,30.625,131618,-3273,-2974,3066,0
113716939,0,-0.14908318,0.18425405,0.22174212,2,8.00E-05,30.625,131618,-3312,-3000,3087,0
113726930,0,-0.14424138,0.17820698,0.22044662,2,8.00E-05,30.625,131618,-3236,-2939,3071,0
113736946,0,-0.14638448,0.18210575,0.21890822,2,8.00E-05,30.625,131618,-3285,-2966,3052,0
113746923,0,-0.14789256,0.1836175,0.22174212,2,8.00E-05,30.625,131618,-3304,-2985,3087,0
113756946,0,-0.15043254,0.17971873,0.22068954,2,8.00E-05,30.625,131618,-3255,-3017,3074,0
113766953,0,-0.1451145,0.1817079,0.22052759,2,8.00E-05,30.625,131618,-3280,-2950,3072,0
113776906,0,-0.1429714,0.17987788,0.22117534,2,8.00E-05,30.625,131618,-3257,-2923,3080,0
113786926,0,-0.14543198,0.180037,0.2210134,2,8.00E-05,30.625,131618,-3259,-2954,3078,0
113796914,0,-0.1490038,0.18369707,0.22060856,2,8.00E-05,30.625,131618,-3305,-2999,3073,0
113806942,0,-0.14527324,0.18131007,0.22004178,2,8.00E-05,30.625,131618,-3275,-2952,3066,0
113816952,0,-0.14289203,0.18011658,0.22068954,2,8.00E-05,30.625,131618,-3260,-2922,3074,0
113826943,0,-0.14336826,0.17685434,0.22085147,2,8.00E-05,30.625,131618,-3219,-2928,3076,0
113836966,0,-0.14138392,0.18099181,0.22166115,2,8.00E-05,30.625,131618,-3271,-2903,3086,0
113846927,0,-0.14582886,0.17932092,0.22222793,2,8.00E-05,30.75,131618,-3250,-2959,3093,0
113856975,0,-0.14400326,0.17892307,0.22271372,2,8.00E-05,30.625,131618,-3245,-2936,3099,0
113866931,0,-0.14320952,0.17908221,0.22109437,2,8.00E-05,30.5,131618,-3247,-2926,3079,0
113876942,0,-0.14257453,0.1817079,0.2210134,2,8.00E-05,30.5,131618,-3280,-2918,3078,0
113886907,0,-0.1429714,0.17995743,0.22238986,2,8.00E-05,30.5,131618,-3258,-2923,3095,0
113896927,0,-0.14432074,0.18274227,0.22133727,2,8.00E-05,30.625,131618,-3293,-2940,3082,0
113906907,0,-0.14360638,0.18146922,0.21963693,2,8.00E-05,30.625,131618,-3277,-2931,3061,0
113916907,0,-0.14582886,0.1817079,0.22052759,2,8.00E-05,30.625,131618,-3280,-2959,3072,0
113926907,0,-0.13820897,0.17717262,0.21907015,2,8.00E-05,30.625,131618,-3223,-2863,3054,0
113936946,0,-0.144162,0.18369707,0.22068954,2,8.00E-05,30.5,131618,-3305,-2938,3074,0
113946907,0,-0.14717822,0.18083267,0.22060856,2,8.00E-05,30.625,131618,-3269,-2976,3073,0
113956944,0,-0.14376512,0.18234445,0.22028469,2,8.00E-05,30.625,131618,-3288,-2933,3069,0
113966907,0,-0.1432889,0.18242401,0.2197179,2,8.00E-05,30.625,131618,-3289,-2927,3062,0
113976907,0,-0.14503512,0.18011658,0.21915112,2,8.00E-05,30.625,131618,-3260,-2949,3055,0
113986919,0,-0.14170142,0.17900264,0.22028469,2,8.00E-05,30.625,131618,-3246,-2907,3069,0
113996907,0,-0.144797,0.18393578,0.22028469,2,8.00E-05,30.625,131618,-3308,-2946,3069,0
114006907,0,-0.1469401,0.17876394,0.2207705,2,8.00E-05,30.625,131618,-3243,-2973,3075,0
114016907,0,-0.14733694,0.18234445,0.22125632,2,8.00E-05,30.625,131618,-3288,-2978,3081,0
114026907,0,-0.14789256,0.18282184,0.22166115,2,8.00E-05,30.625,131618,-3294,-2985,3086,0
114036907,0,-0.1429714,0.17924134,0.2207705,2,8.00E-05,30.625,131618,-3249,-2923,3075,0
114046907,0,-0.14233641,0.17900264,0.22174212,2,8.00E-05,30.625,131618,-3246,-2915,3087,0
114056907,0,-0.144162,0.18019614,0.22052759,2,8.00E-05,30.625,131618,-3261,-2938,3072,0
114066907,0,-0.14773382,0.18345839,0.21979888,2,8.00E-05,30.625,131618,-3302,-2983,3063,0
114076907,0,-0.1463051,0.18202618,0.22060856,2,8.00E-05,30.625,131618,-3284,-2965,3073,0
114086907,0,-0.14257453,0.17844567,0.22044662,2,8.00E-05,30.625,131618,-3239,-2918,3071,0
114096907,0,-0.1420983,0.18274227,0.22190405,2,8.00E-05,30.625,131618,-3293,-2912,3089,0
114106907,0,-0.144162,0.18011658,0.22093244,2,8.00E-05,30.625,131618,-3260,-2938,3077,0
114116907,0,-0.1432889,0.17828654,0.22125632,2,8.00E-05,30.625,131618,-3237,-2927,3081,0
114126907,0,-0.14670198,0.17653607,0.22052759,2,8.00E-05,30.75,131618,-3215,-2970,3072,0
114136907,0,-0.1463051,0.1786048,0.22028469,2,8.00E-05,30.75,131618,-3241,-2965,3069,0
114146942,0,-0.14590824,0.1805144,0.22012275,2,8.00E-05,30.625,131618,-3265,-2960,3067,0
114156907,0,-0.1459876,0.17780913,0.21996081,2,8.00E-05,30.625,131618,-3231,-2961,3065,0
114166948,0,-0.1429714,0.18202618,0.22068954,2,8.00E-05,30.75,131618,-3284,-2923,3074,0
114176907,0,-0.144797,0.18345839,0.21987984,2,8.00E-05,30.5,131618,-3302,-2946,3064,0
114186907,0,-0.1417808,0.18329924,0.22109437,2,8.00E-05,30.5,131618,-3300,-2908,3079,0
114196907,0,-0.14471762,0.1821853,0.22166115,2,8.00E-05,30.625,131618,-3286,-2945,3086,0
114206907,0,-0.14320952,0.1826627,0.219475,2,8.00E-05,30.625,131618,-3292,-2926,3059,0
114216907,0,-0.14828944,0.1805144,0.222066,2,8.00E-05,30.625,131618,-3265,-2990,3091,0
114226907,0,-0.14709884,0.18154877,0.22198503,2,8.00E-05,30.625,131618,-3278,-2975,3090,0
114236907,0,-0.14614636,0.18019614,0.22158018,2,8.00E-05,30.625,131618,-3261,-2963,3085,0
114246907,0,-0.14035206,0.18027571,0.22158018,2,8.00E-05,30.625,131618,-3262,-2890,3085,0
114256907,0,-0.14614636,0.17717262,0.22263277,2,8.00E-05,30.625,131618,-3223,-2963,3098,0
114266907,0,-0.14654322,0.18369707,0.22214696,2,8.00E-05,30.625,131618,-3305,-2968,3092,0
114276907,0,-0.14186016,0.18226488,0.2210134,2,8.00E-05,30.625,131618,-3287,-2909,3078,0
114286907,0,-0.14773382,0.1838562,0.22255181,2,8.00E-05,30.625,131618,-3307,-2983,3097,0
114296908,0,-0.14225703,0.17804784,0.22190405,2,8.00E-05,30.625,131618,-3234,-2914,3089,0
114306907,0,-0.14463824,0.18457231,0.22068954,2,8.00E-05,30.5,131618,-3316,-2944,3074,0
114316916,0,-0.14376512,0.18154877,0.22149922,2,8.00E-05,30.5,131618,-3278,-2933,3084,0
114326907,0,-0.14027268,0.18059397,0.21996081,2,8.00E-05,30.5,131618,-3266,-2889,3065,0
114336907,0,-0.14376512,0.1783661,0.22125632,2,8.00E-05,30.5,131618,-3238,-2933,3081,0
114346921,0,-0.1451145,0.18226488,0.22174212,2,8.00E-05,30.5,131618,-3287,-2950,3087,0
114356944,0,-0.143527,0.18226488,0.2223089,2,8.00E-05,30.625,131618,-3287,-2930,3094,0
114366907,0,-0.14463824,0.18512927,0.22020371,2,8.00E-05,30.625,131618,-3323,-2944,3068,0
114376949,0,-0.1478132,0.18449275,0.22263277,2,8.00E-05,30.625,131618,-3315,-2984,3098,0
114386907,0,-0.14455888,0.1805144,0.22125632,2,8.00E-05,30.625,131618,-3265,-2943,3081,0
114396917,0,-0.14217766,0.18011658,0.22020371,2,8.00E-05,30.625,131618,-3260,-2913,3068,0
114406907,0,-0.14701948,0.1840949,0.22044662,2,8.00E-05,30.625,131618,-3310,-2974,3071,0
114416907,0,-0.14646386,0.18345839,0.22085147,2,8.00E-05,30.625,131618,-3302,-2967,3076,0
114426907,0,-0.14773382,0.18178748,0.22247083,2,8.00E-05,30.625,131618,-3281,-2983,3096,0
114436907,0,-0.14614636,0.18035528,0.22093244,2,8.00E-05,30.5,131618,-3263,-2963,3077,0
114446907,0,-0.14424138,0.18528841,0.2223089,2,8.00E-05,30.625,131618,-3325,-2939,3094,0
114456907,0,-0.144162,0.180037,0.22060856,2,8.00E-05,30.625,131618,-3259,-2938,3073,0
114466917,0,-0.14606698,0.18067354,0.22247083,2,8.00E-05,30.625,131618,-3267,-2962,3096,0
114476909,0,-0.14249516,0.17772958,0.22117534,2,8.00E-05,30.625,131618,-3230,-2917,3080,0
114486909,0,-0.1466226,0.18226488,0.22085147,2,8.00E-05,30.625,131618,-3287,-2969,3076,0
114496919,0,-0.14440012,0.18536799,0.22093244,2,8.00E-05,30.625,131618,-3326,-2941,3077,0
114506908,0,-0.14884506,0.18027571,0.21996081,2,8.00E-05,30.75,131618,-3262,-2997,3065,0
114516918,0,-0.1429714,0.18115094,0.22141825,2,8.00E-05,30.75,131618,-3273,-2923,3083,0
114526945,0,-0.14765444,0.1821853,0.22012275,2,8.00E-05,30.5,131618,-3286,-2982,3067,0
114536954,0,-0.14432074,0.17900264,0.21963693,2,8.00E-05,30.5,131618,-3246,-2940,3061,0
114546909,0,-0.14741632,0.17963918,0.2207705,2,8.00E-05,30.75,131618,-3254,-2979,3075,0
114556906,0,-0.1490038,0.1797983,0.22158018,2,8.00E-05,30.625,131618,-3256,-2999,3085,0
114566953,0,-0.14551136,0.18672061,0.22166115,2,8.00E-05,30.625,131618,-3343,-2955,3086,0
114576939,0,-0.14336826,0.18178748,0.21931306,2,8.00E-05,30.625,131618,-3281,-2928,3057,0
114586948,0,-0.1438445,0.18321967,0.22311857,2,8.00E-05,30.75,131618,-3299,-2934,3104,0
114596907,0,-0.14368576,0.18059397,0.22085147,2,8.00E-05,30.75,131618,-3266,-2932,3076,0
114606921,0,-0.14471762,0.17995743,0.22085147,2,8.00E-05,30.75,131618,-3258,-2945,3076,0
114616907,0,-0.14686072,0.17932092,0.22117534,2,8.00E-05,30.75,131618,-3250,-2972,3080,0
114626907,0,-0.1469401,0.17924134,0.22319955,2,8.00E-05,30.75,131618,-3249,-2973,3105,0
114636907,0,-0.14463824,0.18282184,0.22133727,2,8.00E-05,30.5,131618,-3294,-2944,3082,0
114646907,0,-0.1459876,0.1826627,0.21987984,2,8.00E-05,30.5,131618,-3292,-2961,3064,0
114656907,0,-0.14463824,0.18123052,0.22174212,2,8.00E-05,30.5,131618,-3274,-2944,3087,0
114666907,0,-0.14582886,0.18131007,0.2207705,2,8.00E-05,30.5,131618,-3275,-2959,3075,0
114676910,0,-0.14606698,0.17780913,0.22158018,2,8.00E-05,30.75,131618,-3231,-2962,3085,0
114686907,0,-0.14773382,0.18154877,0.21996081,2,8.00E-05,30.75,131618,-3278,-2983,3065,0
114696916,0,-0.14249516,0.18210575,0.22182308,2,8.00E-05,30.625,131618,-3285,-2917,3088,0
114706907,0,-0.14059018,0.18640235,0.22182308,2,8.00E-05,30.625,131618,-3339,-2893,3088,0
114716907,0,-0.13884395,0.17804784,0.22060856,2,8.00E-05,30.75,131618,-3234,-2871,3073,0
114726907,0,-0.14622572,0.18059397,0.22004178,2,8.00E-05,30.5,131618,-3266,-2964,3066,0
114736907,0,-0.14852756,0.18115094,0.21915112,2,8.00E-05,30.625,131618,-3273,-2993,3055,0
114746907,0,-0.14455888,0.18011658,0.22263277,2,8.00E-05,30.625,131618,-3260,-2943,3098,0
114756907,0,-0.14003456,0.18131007,0.22093244,2,8.00E-05,30.625,131618,-3275,-2886,3077,0
114766907,0,-0.14709884,0.18059397,0.22052759,2,8.00E-05,30.625,131618,-3266,-2975,3072,0
114776930,0,-0.14638448,0.18011658,0.22085147,2,8.00E-05,30.625,131618,-3260,-2966,3076,0
114786907,0,-0.14535262,0.17820698,0.21907015,2,8.00E-05,30.625,131618,-3236,-2953,3054,0
114796931,0,-0.14836882,0.1757404,0.22044662,2,8.00E-05,30.625,131618,-3205,-2991,3071,0
114806907,0,-0.1459876,0.1778887,0.22020371,2,8.00E-05,30.75,131618,-3232,-2961,3068,0
114816907,0,-0.14519386,0.17987788,0.21979888,2,8.00E-05,30.625,131618,-3257,-2951,3063,0
114826907,0,-0.144162,0.1805144,0.22182308,2,8.00E-05,30.625,131618,-3265,-2938,3088,0
114836907,0,-0.14471762,0.18123052,0.22222793,2,8.00E-05,30.5,131618,-3274,-2945,3093,0
114846907,0,-0.14725758,0.17932092,0.22141825,2,8.00E-05,30.5,131618,-3250,-2977,3083,0
114856907,0,-0.14717822,0.18162833,0.22182308,2,8.00E-05,30.5,131618,-3279,-2976,3088,0
114866907,0,-0.14281265,0.1826627,0.22174212,2,8.00E-05,30.5,131618,-3292,-2921,3087,0
114876907,0,-0.14709884,0.17987788,0.22182308,2,8.00E-05,30.75,131618,-3257,-2975,3088,0
114886907,0,-0.14543198,0.18353795,0.22158018,2,8.00E-05,30.625,131618,-3303,-2954,3085,0
114896907,0,-0.1414633,0.18035528,0.22214696,2,8.00E-05,30.625,131618,-3263,-2904,3092,0
114906910,0,-0.14495574,0.18115094,0.22093244,2,8.00E-05,30.625,131618,-3273,-2948,3077,0
114916911,0,-0.14193954,0.18146922,0.22044662,2,8.00E-05,30.625,131618,-3277,-2910,3071,0
114926907,0,-0.1438445,0.17995743,0.22125632,2,8.00E-05,30.75,131618,-3258,-2934,3081,0
114936909,0,-0.14535262,0.18178748,0.22149922,2,8.00E-05,30.625,131618,-3281,-2953,3084,0
114946907,0,-0.14876568,0.18043484,0.22004178,2,8.00E-05,30.625,131618,-3264,-2996,3066,0
114956907,0,-0.1474957,0.1778887,0.22028469,2,8.00E-05,30.625,131618,-3232,-2980,3069,0
114966907,0,-0.14360638,0.18146922,0.22085147,2,8.00E-05,30.625,131618,-3277,-2931,3076,0
114976907,0,-0.14670198,0.18234445,0.22085147,2,8.00E-05,30.625,131618,-3288,-2970,3076,0
114986929,0,-0.14186016,0.1805144,0.2210134,2,8.00E-05,30.625,131618,-3265,-2909,3078,0
114996907,0,-0.14701948,0.17948003,0.21963693,2,8.00E-05,30.625,131618,-3252,-2974,3061,0
115006948,0,-0.14670198,0.18019614,0.22068954,2,8.00E-05,30.625,131618,-3261,-2970,3074,0
115016907,0,-0.14463824,0.18146922,0.22036566,2,8.00E-05,30.75,131618,-3277,-2944,3070,0
115026917,0,-0.14590824,0.18425405,0.22255181,2,8.00E-05,30.75,131618,-3312,-2960,3097,0
115036907,0,-0.1474957,0.18099181,0.22190405,2,8.00E-05,30.75,131618,-3271,-2980,3089,0
115046907,0,-0.14424138,0.1797983,0.22020371,2,8.00E-05,30.75,131618,-3256,-2939,3068,0
115056907,0,-0.14654322,0.1807531,0.22255181,2,8.00E-05,30.625,131618,-3268,-2968,3097,0
115066907,0,-0.14797194,0.17908221,0.2210134,2,8.00E-05,30.75,131618,-3247,-2986,3078,0
115076907,0,-0.14646386,0.18107137,0.22158018,2,8.00E-05,30.625,131618,-3272,-2967,3085,0
115086907,0,-0.14574948,0.17701347,0.2210134,2,8.00E-05,30.875,131618,-3221,-2958,3078,0
115096907,0,-0.14543198,0.18290141,0.22319955,2,8.00E-05,30.625,131618,-3295,-2954,3105,0
115106907,0,-0.14360638,0.18131007,0.22020371,2,8.00E-05,30.5,131618,-3275,-2931,3068,0
115116907,0,-0.14305077,0.1805144,0.22020371,2,8.00E-05,30.5,131618,-3265,-2924,3068,0
115126907,0,-0.1408283,0.18115094,0.22085147,2,8.00E-05,30.625,131618,-3273,-2896,3076,0
115136907,0,-0.1456701,0.18019614,0.22060856,2,8.00E-05,30.625,131618,-3261,-2957,3073,0
115146907,0,-0.14971818,0.18457231,0.22117534,2,8.00E-05,30.625,131618,-3316,-3008,3080,0
115156907,0,-0.14701948,0.17932092,0.22125632,2,8.00E-05,30.625,131618,-3250,-2974,3081,0
115166907,0,-0.1466226,0.18011658,0.22149922,2,8.00E-05,30.625,131618,-3260,-2969,3084,0
115176907,0,-0.144797,0.18107137,0.2210134,2,8.00E-05,30.625,131618,-3272,-2946,3078,0
115186907,0,-0.14320952,0.18592495,0.2210134,2,8.00E-05,30.5,131618,-3333,-2926,3078,0
115196942,0,-0.14971818,0.17605868,0.222066,2,8.00E-05,30.75,131618,-3209,-3008,3091,0
115206907,0,-0.14860694,0.18298097,0.22060856,2,8.00E-05,30.75,131618,-3296,-2994,3073,0
115216952,0,-0.14503512,0.1817079,0.22133727,2,8.00E-05,30.75,131618,-3280,-2949,3082,0
115226936,0,-0.14313015,0.18282184,0.2207705,2,8.00E-05,30.75,131618,-3294,-2925,3075,0
115236924,0,-0.14987692,0.18520884,0.22085147,2,8.00E-05,30.625,131618,-3324,-3010,3076,0
115246933,0,-0.14519386,0.18345839,0.22044662,2,8.00E-05,30.625,131618,-3302,-2951,3071,0
115256966,0,-0.14519386,0.18011658,0.22158018,2,8.00E-05,30.75,131618,-3260,-2951,3085,0
115266918,0,-0.14098705,0.1819466,0.22166115,2,8.00E-05,30.875,131618,-3283,-2898,3086,0
115276923,0,-0.1474957,0.1774113,0.22012275,2,8.00E-05,30.625,131618,-3226,-2980,3067,0
115286921,0,-0.14543198,0.18138964,0.22133727,2,8.00E-05,30.625,131618,-3276,-2954,3082,0
115296931,0,-0.14646386,0.18091224,0.22044662,2,8.00E-05,30.625,131618,-3270,-2967,3071,0
115306911,0,-0.14670198,0.18274227,0.22141825,2,8.00E-05,30.625,131618,-3293,-2970,3083,0
115316907,0,-0.1490038,0.18329924,0.219475,2,8.00E-05,30.625,131618,-3300,-2999,3059,0
115326907,0,-0.14670198,0.18178748,0.22004178,2,8.00E-05,30.625,131618,-3281,-2970,3066,0
115336907,0,-0.14892444,0.18027571,0.22198503,2,8.00E-05,30.625,131618,-3262,-2998,3090,0
115346907,0,-0.14574948,0.17796828,0.22044662,2,8.00E-05,30.625,131618,-3233,-2958,3071,0
115356907,0,-0.14606698,0.18441318,0.22109437,2,8.00E-05,30.625,131618,-3314,-2962,3079,0
115366907,0,-0.14535262,0.18138964,0.2192321,2,8.00E-05,30.5,131618,-3276,-2953,3056,0
115376907,0,-0.14924192,0.18298097,0.22133727,2,8.00E-05,30.625,131618,-3296,-3002,3082,0
115386907,0,-0.15106754,0.1805144,0.21987984,2,8.00E-05,30.75,131618,-3265,-3025,3064,0
115396908,0,-0.14455888,0.17820698,0.22125632,2,8.00E-05,30.625,131618,-3236,-2943,3081,0
115406947,0,-0.14773382,0.1817079,0.22166115,2,8.00E-05,30.625,131618,-3280,-2983,3086,0
115416907,0,-0.14646386,0.18131007,0.21987984,2,8.00E-05,30.625,131618,-3275,-2967,3064,0
115426905,0,-0.14186016,0.1795596,0.22085147,2,8.00E-05,30.875,131618,-3253,-2909,3076,0
115436907,0,-0.14559074,0.17772958,0.22117534,2,8.00E-05,30.625,131618,-3230,-2956,3080,0
115446910,0,-0.14495574,0.18250358,0.22125632,2,8.00E-05,30.75,131618,-3290,-2948,3081,0
115456907,0,-0.14440012,0.18369707,0.22068954,2,8.00E-05,30.75,131618,-3305,-2941,3074,0
115466907,0,-0.14582886,0.1783661,0.22012275,2,8.00E-05,30.75,131618,-3238,-2959,3067,0
115476907,0,-0.1490038,0.18497014,0.22190405,2,8.00E-05,30.75,131618,-3321,-2999,3089,0
115486907,0,-0.14813069,0.18321967,0.22109437,2,8.00E-05,30.75,131618,-3299,-2988,3079,0
115496907,0,-0.14336826,0.18425405,0.22174212,2,8.00E-05,30.75,131618,-3312,-2928,3087,0
115506907,0,-0.15170251,0.18226488,0.22068954,2,8.00E-05,30.625,131618,-3287,-3033,3074,0
115516907,0,-0.14471762,0.17772958,0.22060856,2,8.00E-05,30.625,131618,-3230,-2945,3073,0
115526907,0,-0.14860694,0.180037,0.21987984,2,8.00E-05,30.75,131618,-3259,-2994,3064,0
115536907,0,-0.14368576,0.18210575,0.22044662,2,8.00E-05,30.75,131618,-3285,-2932,3071,0
115546907,0,-0.14320952,0.18226488,0.22133727,2,8.00E-05,30.75,131618,-3287,-2926,3082,0
115556907,0,-0.14614636,0.18353795,0.22036566,2,8.00E-05,30.75,131618,-3303,-2963,3070,0
115566907,0,-0.1429714,0.18282184,0.21915112,2,8.00E-05,30.75,131618,-3294,-2923,3055,0
115576907,0,-0.14392388,0.18146922,0.22004178,2,8.00E-05,30.75,131618,-3277,-2935,3066,0
115586907,0,-0.14725758,0.1795596,0.22068954,2,8.00E-05,30.75,131618,-3253,-2977,3074,0
115596907,0,-0.14289203,0.1819466,0.2210134,2,8.00E-05,30.75,131618,-3283,-2922,3078,0
115606907,0,-0.14733694,0.1786048,0.22093244,2,8.00E-05,30.75,131618,-3241,-2978,3077,0
115616942,0,-0.14233641,0.18234445,0.21987984,2,8.00E-05,30.75,131618,-3288,-2915,3064,0
115626907,0,-0.14487636,0.18321967,0.22198503,2,8.00E-05,30.75,131618,-3299,-2947,3090,0
115636943,0,-0.14789256,0.18067354,0.22222793,2,8.00E-05,30.75,131618,-3267,-2985,3093,0
115646907,0,-0.14487636,0.17932092,0.22198503,2,8.00E-05,30.75,131618,-3250,-2947,3090,0
115656907,0,-0.14717822,0.18298097,0.22133727,2,8.00E-05,30.75,131618,-3296,-2976,3082,0
115666907,0,-0.14590824,0.1840949,0.22263277,2,8.00E-05,30.75,131618,-3310,-2960,3098,0
115676907,0,-0.14281265,0.17948003,0.22214696,2,8.00E-05,30.75,131618,-3252,-2921,3092,0
115686918,0,-0.14860694,0.18290141,0.22222793,2,8.00E-05,30.75,131618,-3295,-2994,3093,0
115696907,0,-0.144797,0.18226488,0.22117534,2,8.00E-05,30.75,131618,-3287,-2946,3080,0
115706907,0,-0.1417808,0.18377663,0.2223089,2,8.00E-05,30.75,131618,-3306,-2908,3094,0
115716907,0,-0.14606698,0.18536799,0.22036566,2,8.00E-05,30.75,131618,-3326,-2962,3070,0
115726907,0,-0.14313015,0.18027571,0.22020371,2,8.00E-05,30.75,131618,-3262,-2925,3068,0
115736907,0,-0.1463051,0.18202618,0.22109437,2,8.00E-05,30.75,131618,-3284,-2965,3079,0
115746907,0,-0.14741632,0.18329924,0.22125632,2,8.00E-05,30.75,131618,-3300,-2979,3081,0
115756907,0,-0.14519386,0.18258314,0.22020371,2,8.00E-05,30.75,131618,-3291,-2951,3068,0
115766907,0,-0.14701948,0.18202618,0.22158018,2,8.00E-05,30.75,131618,-3284,-2974,3085,0
115776907,0,-0.14463824,0.18186703,0.22109437,2,8.00E-05,30.75,131618,-3282,-2944,3079,0
115786907,0,-0.14471762,0.18146922,0.2207705,2,8.00E-05,30.75,131618,-3277,-2945,3075,0
115796907,0,-0.14281265,0.18186703,0.22060856,2,8.00E-05,30.75,131618,-3282,-2921,3073,0
115806907,0,-0.14892444,0.18186703,0.22117534,2,8.00E-05,30.625,131618,-3282,-2998,3080,0
115816907,0,-0.144797,0.17820698,0.2207705,2,8.00E-05,30.625,131618,-3236,-2946,3075,0
115826946,0,-0.14440012,0.18091224,0.22149922,2,8.00E-05,30.625,131618,-3270,-2941,3084,0
115836913,0,-0.144162,0.18011658,0.22255181,2,8.00E-05,30.625,131618,-3260,-2938,3097,0
115846931,0,-0.14265391,0.18298097,0.22158018,2,8.00E-05,30.75,131618,-3296,-2919,3085,0
115856907,0,-0.14821006,0.18059397,0.222066,2,8.00E-05,30.75,131618,-3266,-2989,3091,0
115866911,0,-0.14725758,0.17637692,0.22125632,2,8.00E-05,30.75,131618,-3213,-2977,3081,0
115876907,0,-0.14273328,0.1788435,0.22133727,2,8.00E-05,30.75,131618,-3244,-2920,3082,0
115886917,0,-0.14574948,0.18306054,0.2207705,2,8.00E-05,30.75,131618,-3297,-2958,3075,0
115896907,0,-0.13971706,0.18131007,0.22125632,2,8.00E-05,30.75,131618,-3275,-2882,3081,0
115906917,0,-0.144162,0.17780913,0.2207705,2,8.00E-05,30.75,131618,-3231,-2938,3075,0
115916907,0,-0.14535262,0.18242401,0.22093244,2,8.00E-05,30.75,131618,-3289,-2953,3077,0
115926916,0,-0.1429714,0.1838562,0.22109437,2,8.00E-05,30.75,131618,-3307,-2923,3079,0
115936908,0,-0.14813069,0.18377663,0.22036566,2,8.00E-05,30.625,131618,-3306,-2988,3070,0
115946936,0,-0.14757507,0.18059397,0.22109437,2,8.00E-05,30.625,131618,-3266,-2981,3079,0
115956944,0,-0.14455888,0.18043484,0.21979888,2,8.00E-05,30.625,131618,-3264,-2943,3063,0
115966941,0,-0.14519386,0.18107137,0.21979888,2,8.00E-05,30.625,131618,-3272,-2951,3063,0
115976948,0,-0.14654322,0.180037,0.22012275,2,8.00E-05,30.625,131618,-3259,-2968,3067,0
115986919,0,-0.14686072,0.18027571,0.22068954,2,8.00E-05,30.625,131618,-3262,-2972,3074,0
115996933,0,-0.14757507,0.18314011,0.2192321,2,8.00E-05,30.625,131618,-3298,-2981,3056,0
116006926,0,-0.1405108,0.18099181,0.22028469,2,8.00E-05,30.625,131618,-3271,-2892,3069,0
116016907,0,-0.144162,0.18107137,0.22044662,2,8.00E-05,30.625,131618,-3272,-2938,3071,0
116026907,0,-0.14376512,0.18123052,0.22222793,2,8.00E-05,30.75,131618,-3274,-2933,3093,0
116036929,0,-0.15090878,0.17987788,0.22182308,2,8.00E-05,30.75,131618,-3257,-3023,3088,0
116046907,0,-0.14503512,0.17852524,0.22198503,2,8.00E-05,30.75,131618,-3240,-2949,3090,0
116056947,0,-0.15122627,0.18210575,0.22214696,2,8.00E-05,30.75,131618,-3285,-3027,3092,0
116066907,0,-0.1486863,0.18258314,0.22149922,2,8.00E-05,30.75,131618,-3291,-2995,3084,0
116076908,0,-0.14876568,0.18433361,0.22141825,2,8.00E-05,30.75,131618,-3313,-2996,3083,0
116086907,0,-0.14186016,0.18186703,0.22149922,2,8.00E-05,30.625,131618,-3282,-2909,3084,0
116096907,0,-0.14122517,0.18465187,0.222066,2,8.00E-05,30.625,131618,-3317,-2901,3091,0
116106907,0,-0.14392388,0.18441318,0.2207705,2,8.00E-05,30.625,131618,-3314,-2935,3075,0
116116907,0,-0.1432889,0.18083267,0.2207705,2,8.00E-05,30.625,131618,-3269,-2927,3075,0
116126908,0,-0.14400326,0.18059397,0.22020371,2,8.00E-05,30.625,131618,-3266,-2936,3068,0
116136911,0,-0.14670198,0.18417448,0.2207705,2,8.00E-05,30.625,131618,-3311,-2970,3075,0
116146907,0,-0.14844818,0.17876394,0.22068954,2,8.00E-05,30.625,131618,-3243,-2992,3074,0
116156907,0,-0.14487636,0.1805144,0.22020371,2,8.00E-05,30.625,131618,-3265,-2947,3068,0
116166907,0,-0.14828944,0.17900264,0.22093244,2,8.00E-05,30.75,131618,-3246,-2990,3077,0
116176907,0,-0.1432889,0.17987788,0.22044662,2,8.00E-05,30.625,131618,-3257,-2927,3071,0
116186907,0,-0.1429714,0.17844567,0.22068954,2,8.00E-05,30.625,131618,-3239,-2923,3074,0
116196907,0,-0.1459876,0.18115094,0.2197179,2,8.00E-05,30.625,131618,-3273,-2961,3062,0
116206907,0,-0.14821006,0.18202618,0.21955597,2,8.00E-05,30.625,131618,-3284,-2989,3060,0
116216913,0,-0.144162,0.18035528,0.22182308,2,8.00E-05,30.625,131618,-3263,-2938,3088,0
116226907,0,-0.14733694,0.18353795,0.22117534,2,8.00E-05,30.875,131618,-3303,-2978,3080,0
116236907,0,-0.1499563,0.18457231,0.22028469,2,8.00E-05,30.625,131618,-3316,-3011,3069,0
116246943,0,-0.1478132,0.18035528,0.22093244,2,8.00E-05,30.625,131618,-3263,-2984,3077,0
116256907,0,-0.1444795,0.18083267,0.22263277,2,8.00E-05,30.5,131618,-3269,-2942,3098,0
116266944,0,-0.144797,0.18099181,0.22093244,2,8.00E-05,30.75,131618,-3271,-2946,3077,0
116276907,0,-0.14622572,0.18274227,0.22190405,2,8.00E-05,30.75,131618,-3293,-2964,3089,0
116286922,0,-0.1444795,0.18298097,0.22255181,2,8.00E-05,30.625,131618,-3296,-2942,3097,0
116296907,0,-0.14440012,0.180037,0.22004178,2,8.00E-05,30.625,131618,-3259,-2941,3066,0
116306910,0,-0.1474957,0.1805144,0.22287567,2,8.00E-05,30.625,131618,-3265,-2980,3101,0
116316917,0,-0.14701948,0.18306054,0.22060856,2,8.00E-05,30.625,131618,-3297,-2974,3073,0
116326907,0,-0.14455888,0.18345839,0.22093244,2,8.00E-05,30.625,131618,-3302,-2943,3077,0
116336908,0,-0.14273328,0.18481101,0.22068954,2,8.00E-05,30.625,131618,-3319,-2920,3074,0
116346907,0,-0.14106642,0.18091224,0.22060856,2,8.00E-05,30.625,131618,-3270,-2899,3073,0
116356909,0,-0.14543198,0.18282184,0.21979888,2,8.00E-05,30.625,131618,-3294,-2954,3063,0
116366907,0,-0.14471762,0.18329924,0.22004178,2,8.00E-05,30.75,131618,-3300,-2945,3066,0
116376918,0,-0.13979644,0.18393578,0.22247083,2,8.00E-05,30.75,131618,-3308,-2883,3096,0
116386921,0,-0.14527324,0.17868437,0.22085147,2,8.00E-05,30.625,131618,-3242,-2952,3076,0
116396907,0,-0.14344764,0.18226488,0.22149922,2,8.00E-05,30.625,131618,-3287,-2929,3084,0
116406907,0,-0.14241578,0.18067354,0.2197179,2,8.00E-05,30.625,131618,-3267,-2916,3062,0
116416908,0,-0.14098705,0.18091224,0.22141825,2,8.00E-05,30.75,131618,-3270,-2898,3083,0
116426907,0,-0.1463051,0.18242401,0.22214696,2,8.00E-05,30.75,131618,-3289,-2965,3092,0
116436907,0,-0.14201891,0.18210575,0.22036566,2,8.00E-05,30.75,131618,-3285,-2911,3070,0
116446907,0,-0.14217766,0.18274227,0.2223089,2,8.00E-05,30.75,131618,-3293,-2913,3094,0
116456942,0,-0.14622572,0.1836175,0.22141825,2,8.00E-05,30.75,131618,-3304,-2964,3083,0
116466908,0,-0.14495574,0.18393578,0.22295663,2,8.00E-05,30.75,131618,-3308,-2948,3102,0
116476948,0,-0.14686072,0.18234445,0.22182308,2,8.00E-05,30.75,131618,-3288,-2972,3088,0
116486916,0,-0.1459876,0.18282184,0.22117534,2,8.00E-05,30.75,131618,-3294,-2961,3080,0
116496907,0,-0.1438445,0.18632278,0.22158018,2,8.00E-05,30.75,131618,-3338,-2934,3085,0
116506907,0,-0.14670198,0.18250358,0.22125632,2,8.00E-05,30.75,131618,-3290,-2970,3081,0
116516914,0,-0.14805132,0.18146922,0.22093244,2,8.00E-05,30.625,131618,-3277,-2987,3077,0
116526914,0,-0.14495574,0.17661564,0.22036566,2,8.00E-05,30.875,131618,-3216,-2948,3070,0
116536944,0,-0.14892444,0.18282184,0.22166115,2,8.00E-05,30.875,131618,-3294,-2998,3086,0
116546907,0,-0.14813069,0.1807531,0.22020371,2,8.00E-05,30.875,131618,-3268,-2988,3068,0
116556952,0,-0.14646386,0.18433361,0.22052759,2,8.00E-05,30.625,131618,-3313,-2967,3072,0
116566908,0,-0.14590824,0.18027571,0.21874629,2,8.00E-05,30.75,131618,-3262,-2960,3050,0
116576934,0,-0.14733694,0.1797983,0.22004178,2,8.00E-05,30.75,131618,-3256,-2978,3066,0
116586907,0,-0.1469401,0.18321967,0.22093244,2,8.00E-05,30.625,131618,-3299,-2973,3077,0
116596914,0,-0.14376512,0.18091224,0.22036566,2,8.00E-05,30.875,131618,-3270,-2933,3070,0
116606918,0,-0.14376512,0.17868437,0.22028469,2,8.00E-05,30.875,131618,-3242,-2933,3069,0
116616955,0,-0.14789256,0.17963918,0.22117534,2,8.00E-05,30.625,131618,-3254,-2985,3080,0
116626915,0,-0.13939956,0.1805144,0.22068954,2,8.00E-05,30.625,131618,-3265,-2878,3074,0
116636907,0,-0.15051192,0.1774113,0.22109437,2,8.00E-05,30.625,131618,-3226,-3018,3079,0
116646921,0,-0.14400326,0.1805144,0.22085147,2,8.00E-05,30.625,131618,-3265,-2936,3076,0
116656914,0,-0.1451145,0.1766952,0.22247083,2,8.00E-05,30.5,131618,-3217,-2950,3096,0
116666974,0,-0.1459876,0.18417448,0.22158018,2,8.00E-05,30.5,131618,-3311,-2961,3085,0
116676946,0,-0.14860694,0.17685434,0.22271372,2,8.00E-05,30.875,131618,-3219,-2994,3099,0
116686935,0,-0.14376512,0.18210575,0.22125632,2,8.00E-05,30.875,131618,-3285,-2933,3081,0
116696954,0,-0.1469401,0.1788435,0.2232805,2,8.00E-05,30.875,131618,-3244,-2973,3106,0
116706946,0,-0.1478132,0.17908221,0.22247083,2,8.00E-05,30.625,131618,-3247,-2984,3096,0
116716932,0,-0.15098816,0.18298097,0.22020371,2,8.00E-05,30.625,131618,-3296,-3024,3068,0
116726943,0,-0.1432889,0.1774113,0.22109437,2,8.00E-05,30.625,131618,-3226,-2927,3079,0
116736956,0,-0.14487636,0.17971873,0.22141825,2,8.00E-05,30.625,131618,-3255,-2947,3083,0
116746910,0,-0.14495574,0.17852524,0.22028469,2,8.00E-05,30.75,131618,-3240,-2948,3069,0
116756945,0,-0.14273328,0.18306054,0.21987984,2,8.00E-05,30.625,131618,-3297,-2920,3064,0
116766907,0,-0.14527324,0.1826627,0.21987984,2,8.00E-05,30.625,131618,-3292,-2952,3064,0
116776949,0,-0.14686072,0.18258314,0.22068954,2,8.00E-05,30.625,131618,-3291,-2972,3074,0
116786908,0,-0.14733694,0.18107137,0.21858434,2,8.00E-05,30.625,131618,-3272,-2978,3048,0
116796939,0,-0.15067066,0.18115094,0.22093244,2,8.00E-05,30.625,131618,-3273,-3020,3077,0
116806908,0,-0.14828944,0.18115094,0.21826048,2,8.00E-05,30.625,131618,-3273,-2990,3044,0
116816945,0,-0.14455888,0.18274227,0.22052759,2,8.00E-05,30.625,131618,-3293,-2943,3072,0
116826907,0,-0.14487636,0.1821853,0.22012275,2,8.00E-05,30.625,131618,-3286,-2947,3067,0
116836907,0,-0.14368576,0.17629737,0.22149922,2,8.00E-05,30.625,131618,-3212,-2932,3084,0
116846907,0,-0.14527324,0.180037,0.22141825,2,8.00E-05,30.75,131618,-3259,-2952,3083,0
116856919,0,-0.14725758,0.18099181,0.22214696,2,8.00E-05,30.75,131618,-3271,-2977,3092,0
116866907,0,-0.14828944,0.18067354,0.22068954,2,8.00E-05,30.625,131618,-3267,-2990,3074,0
116876946,0,-0.14789256,0.17987788,0.21996081,2,8.00E-05,30.625,131618,-3257,-2985,3065,0
116886907,0,-0.14908318,0.18242401,0.22012275,2,8.00E-05,30.75,131618,-3289,-3000,3067,0
116896935,0,-0.14725758,0.1821853,0.2210134,2,8.00E-05,30.625,131618,-3286,-2977,3078,0
116906907,0,-0.14281265,0.17844567,0.22052759,2,8.00E-05,30.625,131618,-3239,-2921,3072,0
116916907,0,-0.14709884,0.17932092,0.22068954,2,8.00E-05,30.75,131618,-3250,-2975,3074,0
116926907,0,-0.14654322,0.18242401,0.21963693,2,8.00E-05,30.75,131618,-3289,-2968,3061,0
116936907,0,-0.1486863,0.18115094,0.22020371,2,8.00E-05,30.75,131618,-3273,-2995,3068,0
116946907,0,-0.14670198,0.18123052,0.21979888,2,8.00E-05,30.75,131618,-3274,-2970,3063,0
116956907,0,-0.14701948,0.1819466,0.22068954,2,8.00E-05,30.625,131618,-3283,-2974,3074,0
116966907,0,-0.14717822,0.18083267,0.22004178,2,8.00E-05,30.625,131618,-3269,-2976,3066,0
116976922,0,-0.14979754,0.18465187,0.22117534,2,8.00E-05,30.625,131618,-3317,-3009,3080,0
116986907,0,-0.14797194,0.17876394,0.22166115,2,8.00E-05,30.75,131618,-3243,-2986,3086,0
116996907,0,-0.14440012,0.1764565,0.2210134,2,8.00E-05,30.75,131618,-3214,-2941,3078,0
117006907,0,-0.1456701,0.18321967,0.22093244,2,8.00E-05,30.75,131618,-3299,-2957,3077,0
117016913,0,-0.144797,0.18234445,0.22198503,2,8.00E-05,30.75,131618,-3288,-2946,3090,0
117026907,0,-0.14487636,0.18019614,0.222066,2,8.00E-05,30.75,131618,-3261,-2947,3091,0
117036907,0,-0.14590824,0.18019614,0.2210134,2,8.00E-05,30.75,131618,-3261,-2960,3078,0
117046907,0,-0.14821006,0.18282184,0.22247083,2,8.00E-05,30.75,131618,-3294,-2989,3096,0
117056907,0,-0.14638448,0.18536799,0.22158018,2,8.00E-05,30.625,131618,-3326,-2966,3085,0
117066907,0,-0.1432889,0.18321967,0.22028469,2,8.00E-05,30.625,131618,-3299,-2927,3069,0
117076907,0,-0.1438445,0.18560669,0.2207705,2,8.00E-05,30.625,131618,-3329,-2934,3075,0
117086930,0,-0.14884506,0.17828654,0.22044662,2,8.00E-05,30.625,131618,-3237,-2997,3071,0
117096907,0,-0.14908318,0.1821853,0.22182308,2,8.00E-05,30.625,131618,-3286,-3000,3088,0
117106944,0,-0.14797194,0.18274227,0.22109437,2,8.00E-05,30.625,131618,-3293,-2986,3079,0
117116907,0,-0.14606698,0.18298097,0.22036566,2,8.00E-05,30.625,131618,-3296,-2962,3070,0
117126907,0,-0.14471762,0.18123052,0.22044662,2,8.00E-05,30.625,131618,-3274,-2945,3071,0
117136907,0,-0.14535262,0.1805144,0.21955597,2,8.00E-05,30.625,131618,-3265,-2953,3060,0
117146907,0,-0.14019331,0.17948003,0.22036566,2,8.00E-05,30.875,131618,-3252,-2888,3070,0
117156907,0,-0.14249516,0.18027571,0.22052759,2,8.00E-05,30.875,131618,-3262,-2917,3072,0
117166907,0,-0.14503512,0.18210575,0.22190405,2,8.00E-05,30.875,131618,-3285,-2949,3089,0
117176907,0,-0.14281265,0.18154877,0.22109437,2,8.00E-05,30.875,131618,-3278,-2921,3079,0
117186907,0,-0.14257453,0.18441318,0.22141825,2,8.00E-05,30.75,131618,-3314,-2918,3083,0
117196911,0,-0.14614636,0.18329924,0.22125632,2,8.00E-05,30.75,131618,-3300,-2963,3081,0
117206907,0,-0.14487636,0.1826627,0.22044662,2,8.00E-05,30.75,131618,-3292,-2947,3071,0
117216907,0,-0.14495574,0.180037,0.22117534,2,8.00E-05,30.75,131618,-3259,-2948,3080,0
117226907,0,-0.14813069,0.17844567,0.22036566,2,8.00E-05,30.75,131618,-3239,-2988,3070,0
117236907,0,-0.14813069,0.17844567,0.22036566,2,8.00E-05,30.75,131618,-3239,-2988,3070,0
117246907,0,-0.14273328,0.17995743,0.22052759,2,8.00E-05,30.75,131618,-3258,-2920,3072,0
117256908,0,-0.14503512,0.18162833,0.22149922,2,8.00E-05,30.75,131618,-3279,-2949,3084,0
117266907,0,-0.14654322,0.17406951,0.22255181,2,8.00E-05,30.5,131618,-3184,-2968,3097,0
117276907,0,-0.14519386,0.1836175,0.22020371,2,8.00E-05,30.75,131618,-3304,-2951,3068,0
117286907,0,-0.14217766,0.18011658,0.22117534,2,8.00E-05,30.75,131618,-3260,-2913,3080,0
117296942,0,-0.14463824,0.18393578,0.22198503,2,8.00E-05,30.75,131618,-3308,-2944,3090,0
117306907,0,-0.14432074,0.18154877,0.22174212,2,8.00E-05,30.75,131618,-3278,-2940,3087,0
117316909,0,-0.1438445,0.18027571,0.2230376,2,8.00E-05,30.75,131618,-3262,-2934,3103,0
117326907,0,-0.1474957,0.18759584,0.22004178,2,8.00E-05,30.75,131618,-3354,-2980,3066,0
117336919,0,-0.14765444,0.18290141,0.22020371,2,8.00E-05,30.875,131618,-3295,-2982,3068,0
117346907,0,-0.14701948,0.18353795,0.2197179,2,8.00E-05,30.875,131618,-3303,-2974,3062,0
117356934,0,-0.14241578,0.18107137,0.22044662,2,8.00E-05,30.875,131618,-3272,-2916,3071,0
117366924,0,-0.15122627,0.17844567,0.22141825,2,8.00E-05,30.625,131618,-3239,-3027,3083,0
117376922,0,-0.14170142,0.17940046,0.22036566,2,8.00E-05,30.625,131618,-3251,-2907,3070,0
117386928,0,-0.14289203,0.18306054,0.22149922,2,8.00E-05,30.625,131618,-3297,-2922,3084,0
117396911,0,-0.14638448,0.18146922,0.22117534,2,8.00E-05,30.875,131618,-3277,-2966,3080,0
117406913,0,-0.14320952,0.17995743,0.22060856,2,8.00E-05,30.875,131618,-3258,-2926,3073,0
117416918,0,-0.14836882,0.18528841,0.22036566,2,8.00E-05,30.75,131618,-3325,-2991,3070,0
117426916,0,-0.14527324,0.18107137,0.22174212,2,8.00E-05,30.75,131618,-3272,-2952,3087,0
117436927,0,-0.1432889,0.17844567,0.22295663,2,8.00E-05,30.75,131618,-3239,-2927,3102,0
117446907,0,-0.14717822,0.18011658,0.22190405,2,8.00E-05,30.75,131618,-3260,-2976,3089,0
117456911,0,-0.14686072,0.18019614,0.22085147,2,8.00E-05,30.75,131618,-3261,-2972,3076,0
117466907,0,-0.14320952,0.18035528,0.22085147,2,8.00E-05,30.75,131618,-3263,-2926,3076,0
117476907,0,-0.14233641,0.18123052,0.22133727,2,8.00E-05,30.75,131618,-3274,-2915,3082,0
117486907,0,-0.14670198,0.18242401,0.22182308,2,8.00E-05,30.75,131618,-3289,-2970,3088,0
117496907,0,-0.13836771,0.18210575,0.22166115,2,8.00E-05,30.75,131618,-3285,-2865,3086,0
117506942,0,-0.1478132,0.1821853,0.22166115,2,8.00E-05,30.75,131618,-3286,-2984,3086,0
117516907,0,-0.14543198,0.1805144,0.21996081,2,8.00E-05,30.75,131618,-3265,-2954,3065,0
117526944,0,-0.14638448,0.18202618,0.22004178,2,8.00E-05,30.75,131618,-3284,-2966,3066,0
117536907,0,-0.14186016,0.17844567,0.22117534,2,8.00E-05,30.875,131618,-3239,-2909,3080,0
117546907,0,-0.14011393,0.18329924,0.21955597,2,8.00E-05,30.625,131618,-3300,-2887,3060,0
117556907,0,-0.1456701,0.1819466,0.22028469,2,8.00E-05,30.75,131618,-3283,-2957,3069,0
117566923,0,-0.144797,0.1788435,0.22158018,2,8.00E-05,30.75,131618,-3244,-2946,3085,0
117576916,0,-0.14686072,0.17995743,0.22174212,2,8.00E-05,30.75,131618,-3258,-2972,3087,0
117586907,0,-0.14582886,0.17677477,0.21817952,2,8.00E-05,30.625,131618,-3218,-2959,3043,0
117596907,0,-0.14360638,0.18592495,0.219475,2,8.00E-05,30.625,131618,-3333,-2931,3059,0
117606907,0,-0.14225703,0.1838562,0.21987984,2,8.00E-05,30.625,131618,-3307,-2914,3064,0
117616907,0,-0.14559074,0.18536799,0.2210134,2,8.00E-05,30.625,131618,-3326,-2956,3078,0
117626907,0,-0.14852756,0.18162833,0.22182308,2,8.00E-05,30.625,131618,-3279,-2993,3088,0
117636907,0,-0.1459876,0.1838562,0.22093244,2,8.00E-05,30.625,131618,-3307,-2961,3077,0
117646907,0,-0.14376512,0.18099181,0.22214696,2,8.00E-05,30.625,131618,-3271,-2933,3092,0
117656907,0,-0.1459876,0.1778887,0.2210134,2,8.00E-05,30.875,131618,-3232,-2961,3078,0
117666907,0,-0.14559074,0.18425405,0.2210134,2,8.00E-05,30.75,131618,-3312,-2956,3078,0
117676907,0,-0.14487636,0.18393578,0.22109437,2,8.00E-05,30.75,131618,-3308,-2947,3079,0
117686908,0,-0.14948004,0.18457231,0.22141825,2,8.00E-05,30.75,131618,-3316,-3005,3083,0
117696907,0,-0.14987692,0.1819466,0.21996081,2,8.00E-05,30.75,131618,-3283,-3010,3065,0
117706907,0,-0.14249516,0.17916177,0.22198503,2,8.00E-05,30.75,131618,-3248,-2917,3090,0
117716946,0,-0.14535262,0.18067354,0.22149922,2,8.00E-05,30.75,131618,-3267,-2953,3084,0
117726907,0,-0.14884506,0.18210575,0.22052759,2,8.00E-05,30.75,131618,-3285,-2997,3072,0
117736944,0,-0.1444795,0.18067354,0.22158018,2,8.00E-05,30.625,131618,-3267,-2942,3085,0
117746908,0,-0.143527,0.1774113,0.21979888,2,8.00E-05,30.75,131618,-3226,-2930,3063,0
117756907,0,-0.14805132,0.18449275,0.22052759,2,8.00E-05,30.625,131618,-3315,-2987,3072,0
117766907,0,-0.14828944,0.18043484,0.21850339,2,8.00E-05,30.625,131618,-3264,-2990,3047,0
117776907,0,-0.14725758,0.18242401,0.21996081,2,8.00E-05,30.625,131618,-3289,-2977,3065,0
117786907,0,-0.14162204,0.1786048,0.22093244,2,8.00E-05,30.625,131618,-3241,-2906,3077,0
117796907,0,-0.13979644,0.1836175,0.21987984,2,8.00E-05,30.875,131618,-3304,-2883,3064,0
117806907,0,-0.1444795,0.1840949,0.2210134,2,8.00E-05,30.875,131618,-3310,-2942,3078,0
117816907,0,-0.14892444,0.18099181,0.22036566,2,8.00E-05,30.75,131618,-3271,-2998,3070,0
117826907,0,-0.14360638,0.18202618,0.22238986,2,8.00E-05,30.75,131618,-3284,-2931,3095,0
117836907,0,-0.14646386,0.18298097,0.22125632,2,8.00E-05,30.75,131618,-3296,-2967,3081,0
117846907,0,-0.14614636,0.18321967,0.22247083,2,8.00E-05,30.75,131618,-3299,-2963,3096,0
117856907,0,-0.1469401,0.18146922,0.22093244,2,8.00E-05,30.75,131618,-3277,-2973,3077,0
117866914,0,-0.14805132,0.18298097,0.2223089,2,8.00E-05,30.75,131618,-3296,-2987,3094,0
117876907,0,-0.14495574,0.18043484,0.22174212,2,8.00E-05,30.75,131618,-3264,-2948,3087,0
117886909,0,-0.14098705,0.17916177,0.2207705,2,8.00E-05,30.75,131618,-3248,-2898,3075,0
117896907,0,-0.1456701,0.18234445,0.22085147,2,8.00E-05,30.75,131618,-3288,-2957,3076,0
117906910,0,-0.14940068,0.1778887,0.22141825,2,8.00E-05,30.875,131618,-3232,-3004,3083,0
117916907,0,-0.1429714,0.18091224,0.22117534,2,8.00E-05,30.875,131618,-3270,-2923,3080,0
117926929,0,-0.1420983,0.18329924,0.21987984,2,8.00E-05,30.625,131618,-3300,-2912,3064,0
117936921,0,-0.14273328,0.17971873,0.22174212,2,8.00E-05,30.625,131618,-3255,-2920,3087,0
117946931,0,-0.14487636,0.1797983,0.21915112,2,8.00E-05,30.625,131618,-3256,-2947,3055,0
117956907,0,-0.14463824,0.17725217,0.22044662,2,8.00E-05,30.875,131618,-3224,-2944,3071,0
117966935,0,-0.1496388,0.18234445,0.22125632,2,8.00E-05,30.875,131618,-3288,-3007,3081,0
117976907,0,-0.14440012,0.17995743,0.22109437,2,8.00E-05,30.75,131618,-3258,-2941,3079,0
117986917,0,-0.14836882,0.18250358,0.21979888,2,8.00E-05,30.75,131618,-3290,-2991,3063,0
117996910,0,-0.14884506,0.17995743,0.2210134,2,8.00E-05,30.75,131618,-3258,-2997,3078,0
118006907,0,-0.1523375,0.1795596,0.22198503,2,8.00E-05,30.75,131618,-3253,-3041,3090,0
118016907,0,-0.14400326,0.18441318,0.22012275,2,8.00E-05,30.75,131618,-3314,-2936,3067,0
118026907,0,-0.14622572,0.17892307,0.22125632,2,8.00E-05,30.75,131618,-3245,-2964,3081,0
118036907,0,-0.14741632,0.18282184,0.22255181,2,8.00E-05,30.75,131618,-3294,-2979,3097,0
118046917,0,-0.14408262,0.18083267,0.22125632,2,8.00E-05,30.75,131618,-3269,-2937,3081,0
118056907,0,-0.14487636,0.18226488,0.22247083,2,8.00E-05,30.75,131618,-3287,-2947,3096,0
118066907,0,-0.14376512,0.18274227,0.22182308,2,8.00E-05,30.75,131618,-3293,-2933,3088,0
118076907,0,-0.14519386,0.18107137,0.22158018,2,8.00E-05,30.75,131618,-3272,-2951,3085,0
118086926,0,-0.14582886,0.17725217,0.22238986,2,8.00E-05,30.75,131618,-3224,-2959,3095,0
118096939,0,-0.14765444,0.18059397,0.219475,2,8.00E-05,30.75,131618,-3266,-2982,3059,0
118106936,0,-0.14265391,0.17900264,0.22214696,2,8.00E-05,30.75,131618,-3246,-2919,3092,0
118116943,0,-0.14273328,0.17772958,0.22117534,2,8.00E-05,30.75,131618,-3230,-2920,3080,0
118126914,0,-0.1463051,0.18242401,0.22028469,2,8.00E-05,30.75,131618,-3289,-2965,3069,0
118136980,0,-0.14376512,0.18337882,0.22044662,2,8.00E-05,30.75,131618,-3301,-2933,3071,0
