timestamp,error_count,pressure,temperature,device_id
109422918,0,986.87,29.17,3998498
109434185,0,986.93,29.17,3998498
109444471,0,986.89996,29.17,3998498
109466196,0,986.92,29.179998,3998498
110278124,0,986.91,29.199999,3998498
110288008,0,986.82996,29.199999,3998498
110299093,0,986.98,29.199999,3998498
110320475,0,986.94,29.199999,3998498
110331543,0,986.92,29.199999,3998498
110341468,0,986.94,29.199999,3998498
110363629,0,986.94,29.199999,3998498
110374200,0,986.93,29.199999,3998498
110383808,0,986.86,29.199999,3998498
110516337,0,986.92,29.21,3998498
110548514,0,986.94,29.21,3998498
110560179,0,986.94,29.21,3998498
110581834,0,986.88995,29.21,3998498
110592473,0,986.92,29.21,3998498
110605330,0,986.92,29.21,3998498
110628071,0,986.94,29.21,3998498
110637490,0,986.91,29.21,3998498
110648468,0,986.97,29.21,3998498
110670470,0,986.93,29.21,3998498
110681469,0,986.88,29.21,3998498
110692535,0,986.89996,29.21,3998498
110714539,0,986.93,29.21,3998498
110725474,0,986.92,29.21,3998498
110735783,0,986.91,29.21,3998498
110767827,0,986.97,29.21,3998498
110778558,0,986.94,29.21,3998498
110799873,0,986.92,29.21,3998498
110810481,0,986.89996,29.21,3998498
110821475,0,986.83997,29.21,3998498
110842529,0,986.94,29.21,3998498
110852542,0,986.94,29.21,3998498
110863830,0,986.94,29.21,3998498
110886480,0,986.95996,29.22,3998498
111125275,0,986.94,29.22,3998498
111136627,0,986.91,29.22,3998498
111160567,0,986.94,29.22,3998498
111173277,0,986.93,29.22,3998498
111184702,0,986.88995,29.22,3998498
111208726,0,986.92,29.21,3998498
111220973,0,986.88,29.21,3998498
111232653,0,986.93,29.21,3998498
111256666,0,986.93,29.21,3998498
111269256,0,986.88,29.21,3998498
111280620,0,986.92,29.21,3998498
111300958,0,986.88995,29.21,3998498
111312626,0,986.92,29.21,3998498
111324910,0,986.91,29.21,3998498
111349164,0,986.92,29.21,3998498
111360801,0,986.87,29.21,3998498
111372840,0,986.93,29.21,3998498
111396846,0,986.95996,29.22,3998498
111408863,0,986.93,29.22,3998498
111420820,0,986.88,29.22,3998498
111444791,0,986.92,29.21,3998498
111588931,0,986.87,29.21,3998498
111599554,0,986.91,29.21,3998498
111610480,0,986.89996,29.21,3998498
111631897,0,986.88,29.22,3998498
111642823,0,986.93,29.22,3998498
111653377,0,986.85,29.22,3998498
111673603,0,986.91,29.22,3998498
111685340,0,986.98,29.22,3998498
111695589,0,986.86,29.22,3998498
111717427,0,986.98,29.23,3998498
111727785,0,986.87,29.23,3998498
111738024,0,986.94,29.23,3998498
111871900,0,986.88995,29.23,3998498
111893306,0,986.91,29.23,3998498
112328474,0,986.94995,29.24,3998498
112339224,0,986.89996,29.24,3998498
112350512,0,986.92,29.24,3998498
112374558,0,986.98,29.24,3998498
112387132,0,986.89996,29.24,3998498
112398799,0,986.92,29.24,3998498
112422499,0,986.94,29.25,3998498
112434865,0,986.93,29.25,3998498
112446486,0,986.91,29.25,3998498
112470762,0,986.93,29.24,3998498
112483021,0,986.97,29.24,3998498
112494497,0,986.89996,29.24,3998498
112518811,0,986.87,29.24,3998498
112766328,0,986.82996,29.25,3998498
112787195,0,986.88995,29.25,3998498
112798218,0,986.94995,29.25,3998498
112808464,0,986.85,29.25,3998498
112830983,0,986.91,29.26,3998498
112841473,0,986.94995,29.26,3998498
112852468,0,986.92,29.26,3998498
112873480,0,986.92,29.26,3998498
112884470,0,986.94995,29.26,3998498
112895555,0,986.89996,29.26,3998498
112919165,0,986.94995,29.26,3998498
112928592,0,986.95996,29.26,3998498
112939626,0,986.89996,29.26,3998498
112960807,0,986.91,29.26,3998498
112971583,0,986.91,29.26,3998498
112983268,0,986.88995,29.26,3998498
113004396,0,986.92,29.26,3998498
113013501,0,986.88995,29.26,3998498
113024509,0,986.92,29.26,3998498
113047001,0,986.94,29.269999,3998498
113057481,0,986.94995,29.269999,3998498
113068476,0,986.95996,29.269999,3998498
113089470,0,986.93,29.269999,3998498
113100531,0,986.91,29.269999,3998498
113110966,0,986.89996,29.269999,3998498
113132469,0,986.94,29.269999,3998498
113143622,0,986.89996,29.269999,3998498
113155188,0,986.97,29.269999,3998498
113176469,0,986.98,29.269999,3998498
113187984,0,986.91,29.269999,3998498
113198981,0,986.89996,29.269999,3998498
113219711,0,986.93,29.269999,3998498
113231073,0,986.93,29.269999,3998498
113241531,0,986.91,29.269999,3998498
113263062,0,986.99,29.269999,3998498
113273522,0,986.89996,29.269999,3998498
113283649,0,986.93,29.269999,3998498
113306192,0,986.97,29.269999,3998498
113315722,0,986.93,29.269999,3998498
113327027,0,987.0,29.269999,3998498
113348481,0,986.91,29.269999,3998498
113359616,0,986.88995,29.269999,3998498
113369464,0,986.89996,29.269999,3998498
113391039,0,986.88995,29.269999,3998498
113403345,0,986.92,29.269999,3998498
113412720,0,986.92,29.269999,3998498
113435783,0,986.97,29.269999,3998498
113446940,0,986.91,29.269999,3998498
113456780,0,986.87,29.269999,3998498
113477478,0,986.94,29.279999,3998498
113488474,0,986.94,29.279999,3998498
113499877,0,986.87,29.279999,3998498
113521905,0,986.94995,29.269999,3998498
113531903,0,986.98,29.269999,3998498
113544463,0,986.91,29.269999,3998498
113568627,0,986.93,29.279999,3998498
113579808,0,986.94995,29.279999,3998498
113592076,0,986.91,29.279999,3998498
113611869,0,986.97,29.269999,3998498
113622469,0,986.95996,29.269999,3998498
113633505,0,986.88,29.269999,3998498
113654524,0,986.94995,29.279999,3998498
113665469,0,986.94995,29.279999,3998498
113675837,0,986.87,29.279999,3998498
113697603,0,986.92,29.279999,3998498
113708485,0,986.92,29.279999,3998498
113718563,0,986.93,29.279999,3998498
113739878,0,986.94,29.279999,3998498
113750498,0,986.88995,29.279999,3998498
113761464,0,986.89996,29.279999,3998498
113784105,0,986.94995,29.279999,3998498
113793746,0,986.95996,29.279999,3998498
113804481,0,986.95996,29.279999,3998498
113825490,0,986.95996,29.289999,3998498
113836469,0,986.97,29.289999,3998498
113846477,0,986.91,29.289999,3998498
113867842,0,986.97,29.279999,3998498
113880512,0,986.92,29.279999,3998498
113891816,0,986.86,29.279999,3998498
113915806,0,986.89996,29.289999,3998498
113928466,0,986.94,29.289999,3998498
113940596,0,986.91,29.289999,3998498
113964632,0,986.93,29.279999,3998498
113977507,0,986.95996,29.279999,3998498
113988764,0,986.93,29.279999,3998498
114011402,0,986.88,29.279999,3998498
114022436,0,986.91,29.279999,3998498
114033307,0,986.92,29.279999,3998498
114057332,0,986.93,29.279999,3998498
114068636,0,986.91,29.279999,3998498
114081524,0,986.95996,29.279999,3998498
114105278,0,986.94995,29.279999,3998498
114116587,0,986.92,29.279999,3998498
114129211,0,986.88,29.279999,3998498
114153156,0,986.95996,29.279999,3998498
114164572,0,986.87,29.279999,3998498
114177236,0,986.86,29.279999,3998498
114201192,0,986.97,29.279999,3998498
114212588,0,986.97,29.279999,3998498
114225175,0,986.94995,29.279999,3998498
114249192,0,986.91,29.279999,3998498
114260575,0,986.89996,29.279999,3998498
114273295,0,986.94995,29.279999,3998498
114297408,0,986.93,29.279999,3998498
114308639,0,986.91,29.279999,3998498
114321257,0,986.91,29.279999,3998498
114345154,0,986.95996,29.279999,3998498
114356739,0,986.91,29.279999,3998498
114369286,0,986.94,29.279999,3998498
114392964,0,986.94,29.279999,3998498
114404491,0,986.89996,29.279999,3998498
114417218,0,986.92,29.279999,3998498
114441166,0,986.89996,29.279999,3998498
114452614,0,986.91,29.279999,3998498
114464914,0,986.92,29.279999,3998498
114486435,0,986.87,29.279999,3998498
114496882,0,986.93,29.279999,3998498
114508620,0,986.86,29.279999,3998498
114532512,0,986.95996,29.289999,3998498
114543550,0,986.87,29.289999,3998498
114553580,0,986.89996,29.289999,3998498
114575585,0,986.92,29.289999,3998498
114586437,0,986.86,29.289999,3998498
114597393,0,986.94,29.289999,3998498
114618128,0,986.93,29.289999,3998498
114629495,0,986.93,29.289999,3998498
114642135,0,986.93,29.289999,3998498
114663862,0,986.94995,29.289999,3998498
114673686,0,986.95996,29.289999,3998498
114685430,0,986.85,29.289999,3998498
114706017,0,987.0,29.3,3998498
114717382,0,986.86,29.3,3998498
114727437,0,986.95996,29.3,3998498
114749472,0,986.93,29.3,3998498
114759751,0,986.88995,29.3,3998498
114770857,0,986.95996,29.3,3998498
114794311,0,986.94995,29.3,3998498
114805367,0,986.89996,29.3,3998498
114815458,0,986.89996,29.3,3998498
114837374,0,986.97,29.3,3998498
114847437,0,986.88995,29.3,3998498
114858021,0,986.94,29.3,3998498
114879852,0,986.93,29.3,3998498
114890269,0,986.93,29.3,3998498
114901375,0,986.97,29.3,3998498
114922440,0,986.89996,29.3,3998498
114933488,0,986.91,29.3,3998498
114943437,0,986.89996,29.3,3998498
114965358,0,986.92,29.31,3998498
114975915,0,986.92,29.31,3998498
114986072,0,986.92,29.31,3998498
115007497,0,986.94995,29.31,3998498
115018177,0,986.97,29.31,3998498
115029398,0,986.97,29.31,3998498
115053351,0,986.95996,29.31,3998498
115063441,0,986.91,29.31,3998498
115074099,0,986.94,29.31,3998498
115095756,0,986.95996,29.31,3998498
115106376,0,986.94,29.31,3998498
115117369,0,986.94,29.31,3998498
115137637,0,986.89996,29.31,3998498
115148446,0,986.89996,29.31,3998498
115159437,0,986.92,29.31,3998498
115182161,0,986.93,29.31,3998498
115192436,0,986.93,29.31,3998498
115202801,0,986.94,29.31,3998498
115224452,0,986.95996,29.31,3998498
115235579,0,986.95996,29.31,3998498
115246190,0,986.95996,29.31,3998498
115266811,0,986.94,29.32,3998498
115278174,0,986.95996,29.32,3998498
115288486,0,986.89996,29.32,3998498
115310238,0,986.94995,29.32,3998498
115319541,0,986.89996,29.32,3998498
115330486,0,986.97,29.32,3998498
115352753,0,986.93,29.32,3998498
115363307,0,986.93,29.32,3998498
115374127,0,986.94,29.32,3998498
115394448,0,986.93,29.32,3998498
115406159,0,986.89996,29.32,3998498
115415553,0,986.89996,29.32,3998498
115438231,0,986.93,29.32,3998498
115448761,0,986.88,29.32,3998498
115459031,0,986.95996,29.32,3998498
115480465,0,986.92,29.32,3998498
115490471,0,986.86,29.32,3998498
115502128,0,986.94995,29.32,3998498
115523110,0,986.98,29.32,3998498
115534178,0,986.88995,29.32,3998498
115544802,0,986.93,29.32,3998498
115566438,0,986.91,29.33,3998498
115579052,0,986.89996,29.33,3998498
115590172,0,986.92,29.33,3998498
115611780,0,986.95996,29.33,3998498
115622447,0,986.88995,29.33,3998498
115632440,0,986.93,29.33,3998498
115654171,0,986.92,29.33,3998498
115664747,0,986.91,29.33,3998498
115675364,0,986.87,29.33,3998498
115696436,0,986.95996,29.33,3998498
115707587,0,986.91,29.33,3998498
115719042,0,986.97,29.33,3998498
115740436,0,986.94,29.33,3998498
115750886,0,986.95996,29.33,3998498
115761436,0,986.93,29.33,3998498
115783582,0,986.94995,29.33,3998498
115795705,0,986.93,29.33,3998498
115806950,0,986.95996,29.33,3998498
115827873,0,986.94,29.33,3998498
115839089,0,986.93,29.33,3998498
115849761,0,986.88,29.33,3998498
115870979,0,986.97,29.33,3998498
115880463,0,986.88,29.33,3998498
115891578,0,986.94,29.33,3998498
115913447,0,986.98,29.33,3998498
115924457,0,987.00995,29.33,3998498
115934903,0,986.97,29.33,3998498
115956437,0,986.95996,29.33,3998498
115966985,0,986.94,29.33,3998498
115977452,0,986.94995,29.33,3998498
115999084,0,986.88995,29.33,3998498
116011344,0,986.93,29.33,3998498
116021447,0,986.88,29.33,3998498
116043568,0,986.93,29.34,3998498
116055305,0,986.94,29.34,3998498
116064646,0,986.94995,29.34,3998498
116086960,0,986.93,29.34,3998498
116097436,0,986.94,29.34,3998498
116107686,0,986.91,29.34,3998498
116129441,0,986.86,29.34,3998498
116140436,0,986.92,29.34,3998498
116151546,0,986.88995,29.34,3998498
116172446,0,986.89996,29.34,3998498
116183026,0,986.95996,29.34,3998498
116193760,0,986.92,29.34,3998498
116215065,0,986.97,29.34,3998498
116225462,0,986.93,29.34,3998498
116236490,0,986.97,29.34,3998498
116257453,0,986.95996,29.34,3998498
116268447,0,986.94995,29.34,3998498
116279858,0,986.89996,29.34,3998498
116300530,0,986.89996,29.34,3998498
116311816,0,986.94995,29.34,3998498
116321577,0,986.89996,29.34,3998498
116342526,0,986.95996,29.349998,3998498
116353761,0,986.97,29.349998,3998498
116364031,0,986.97,29.349998,3998498
116386446,0,986.95996,29.34,3998498
116396479,0,986.94,29.34,3998498
116407795,0,986.88995,29.34,3998498
116429435,0,986.94995,29.349998,3998498
116440436,0,986.89996,29.349998,3998498
116452160,0,986.91,29.349998,3998498
116473435,0,986.98,29.349998,3998498
116484439,0,986.89996,29.349998,3998498
116494436,0,986.93,29.349998,3998498
116516435,0,986.91,29.34,3998498
116527810,0,986.94995,29.34,3998498
116537451,0,986.89996,29.34,3998498
116559849,0,986.94,29.34,3998498
116569530,0,986.93,29.34,3998498
116580440,0,986.91,29.34,3998498
116602436,0,986.97,29.349998,3998498
116613553,0,986.93,29.349998,3998498
116623744,0,986.97,29.349998,3998498
116645436,0,986.92,29.349998,3998498
116655801,0,986.93,29.349998,3998498
116666446,0,986.99,29.349998,3998498
116688436,0,986.92,29.349998,3998498
116699981,0,986.98,29.349998,3998498
116710488,0,986.91,29.349998,3998498
116732439,0,986.98,29.349998,3998498
116743747,0,986.94,29.349998,3998498
116754449,0,986.94,29.349998,3998498
116776436,0,986.94,29.349998,3998498
116788023,0,986.89996,29.349998,3998498
116798486,0,986.88,29.349998,3998498
116820398,0,986.93,29.359999,3998498
116830446,0,986.85,29.359999,3998498
116841436,0,986.92,29.359999,3998498
116863774,0,986.94,29.349998,3998498
116874447,0,986.94,29.349998,3998498
116884823,0,986.94995,29.349998,3998498
116909253,0,986.93,29.349998,3998498
116920955,0,986.94995,29.349998,3998498
116933143,0,986.94995,29.349998,3998498
116957627,0,987.0,29.359999,3998498
116968818,0,987.0,29.359999,3998498
116981363,0,986.92,29.359999,3998498
117004946,0,986.92,29.349998,3998498
117016848,0,986.93,29.349998,3998498
117029290,0,986.97,29.349998,3998498
117052971,0,986.91,29.349998,3998498
117064918,0,986.86,29.349998,3998498
117076789,0,986.83997,29.349998,3998498
117101257,0,987.0,29.349998,3998498
117112849,0,986.92,29.349998,3998498
117125157,0,986.88995,29.349998,3998498
117149218,0,986.98,29.349998,3998498
117161165,0,986.88995,29.349998,3998498
117172838,0,986.91,29.349998,3998498
117197125,0,986.93,29.349998,3998498
117208968,0,986.91,29.349998,3998498
117220865,0,986.92,29.349998,3998498
117244900,0,986.98,29.349998,3998498
117256843,0,986.88,29.349998,3998498
117269259,0,986.97,29.349998,3998498
117293162,0,986.89996,29.349998,3998498
117304917,0,986.93,29.349998,3998498
117316945,0,986.95996,29.349998,3998498
117341277,0,986.92,29.349998,3998498
117353146,0,986.93,29.349998,3998498
117364766,0,986.92,29.349998,3998498
117389347,0,986.93,29.349998,3998498
117401182,0,986.93,29.349998,3998498
117413173,0,986.88,29.349998,3998498
117436787,0,986.87,29.349998,3998498
117448960,0,986.88995,29.349998,3998498
117461353,0,986.89996,29.349998,3998498
117483549,0,986.94995,29.349998,3998498
117493440,0,986.89996,29.349998,3998498
117503570,0,986.94,29.349998,3998498
117525315,0,986.87,29.359999,3998498
117535531,0,986.94995,29.359999,3998498
117546436,0,986.91,29.359999,3998498
117567958,0,986.88995,29.359999,3998498
117578245,0,986.91,29.359999,3998498
117589421,0,986.93,29.359999,3998498
117610508,0,986.89996,29.359999,3998498
117621314,0,986.92,29.359999,3998498
117631532,0,986.94995,29.359999,3998498
117653439,0,986.94,29.369999,3998498
117663594,0,986.94995,29.369999,3998498
117673770,0,986.91,29.369999,3998498
117695448,0,986.94,29.369999,3998498
117706440,0,986.93,29.369999,3998498
117717477,0,986.88995,29.369999,3998498
117738435,0,986.93,29.369999,3998498
117749542,0,986.88995,29.369999,3998498
117759867,0,986.93,29.369999,3998498
117781316,0,986.94995,29.369999,3998498
117791437,0,986.95996,29.369999,3998498
117801635,0,986.93,29.369999,3998498
117823437,0,986.93,29.38,3998498
117834475,0,986.99,29.38,3998498
117845374,0,986.94,29.38,3998498
117866577,0,986.93,29.369999,3998498
117877401,0,986.92,29.369999,3998498
117887553,0,986.93,29.369999,3998498
117909399,0,986.92,29.38,3998498
117921967,0,986.94,29.38,3998498
117933374,0,986.94,29.38,3998498
117953960,0,986.93,29.38,3998498
117963467,0,986.88995,29.38,3998498
117974436,0,986.91,29.38,3998498
117997398,0,986.93,29.38,3998498
118007437,0,986.91,29.38,3998498
118017636,0,986.93,29.38,3998498
118039447,0,986.91,29.39,3998498
118050782,0,986.91,29.39,3998498
118062162,0,986.93,29.39,3998498
118082763,0,986.97,29.38,3998498
118094465,0,986.93,29.38,3998498
118106823,0,986.92,29.38,3998498
118130777,0,986.95996,29.38,3998498
118142615,0,986.97,29.38,3998498
118154565,0,986.93,29.38,3998498
118179044,0,986.94,29.38,3998498
118190778,0,986.94,29.38,3998498
118202773,0,986.92,29.38,3998498
118224446,0,986.92,29.38,3998498
118235855,0,986.94995,29.38,3998498
118246446,0,986.89996,29.38,3998498
118266464,0,986.89996,29.38,3998498
118278182,0,986.93,29.38,3998498
118288436,0,986.91,29.38,3998498
118310213,0,986.91,29.38,3998498
118319535,0,986.88,29.38,3998498
118330445,0,986.88995,29.38,3998498
118352758,0,986.92,29.38,3998498
118363058,0,986.85,29.38,3998498
118374061,0,986.92,29.38,3998498
118394774,0,986.88995,29.39,3998498
118406114,0,986.88995,29.39,3998498
118416486,0,986.93,29.39,3998498
118438226,0,986.88995,29.39,3998498
118448808,0,986.93,29.39,3998498
118459001,0,986.86,29.39,3998498
118480451,0,986.94,29.39,3998498
118490511,0,986.92,29.39,3998498
118502138,0,986.93,29.39,3998498
118523576,0,986.97,29.4,3998498
118534197,0,986.98,29.4,3998498
118544784,0,986.97,29.4,3998498
118566186,0,986.94995,29.39,3998498
118575535,0,986.87,29.39,3998498
118586510,0,986.89996,29.39,3998498
118608499,0,986.94,29.4,3998498
118618732,0,986.92,29.4,3998498
118630161,0,986.94995,29.4,3998498
118650867,0,986.91,29.4,3998498
118662131,0,986.97,29.4,3998498
118671641,0,986.94,29.4,3998498
118693451,0,986.89996,29.4,3998498
118703743,0,986.89996,29.4,3998498
118714987,0,986.94,29.4,3998498
118735610,0,986.97,29.4,3998498
118747038,0,986.93,29.4,3998498
118756447,0,986.92,29.4,3998498
118779030,0,986.93,29.4,3998498
118789447,0,986.93,29.4,3998498
118799565,0,986.93,29.4,3998498
118821435,0,986.93,29.4,3998498
118832472,0,986.93,29.4,3998498
118843542,0,986.92,29.4,3998498
118864446,0,986.92,29.41,3998498
118874980,0,986.89996,29.41,3998498
118885747,0,986.94,29.41,3998498
118906947,0,986.92,29.4,3998498
118917499,0,986.92,29.4,3998498
118928450,0,986.94995,29.4,3998498
118949447,0,986.93,29.41,3998498
118959594,0,986.94995,29.41,3998498
118970995,0,986.93,29.41,3998498
118991734,0,987.02997,29.41,3998498
119003004,0,986.94,29.41,3998498
119013436,0,986.95996,29.41,3998498
119035521,0,986.94995,29.41,3998498
119047289,0,986.94,29.41,3998498
119057436,0,986.92,29.41,3998498
119079550,0,986.89996,29.41,3998498
119090972,0,986.95996,29.41,3998498
119101464,0,986.91,29.41,3998498
119123043,0,986.92,29.41,3998498
119133447,0,986.93,29.41,3998498
119143781,0,986.83997,29.41,3998498
119167518,0,986.94995,29.41,3998498
119179014,0,986.93,29.41,3998498
119189769,0,986.95996,29.41,3998498
119211026,0,986.94,29.41,3998498
119221450,0,986.87,29.41,3998498
119232450,0,986.92,29.41,3998498
119253435,0,986.91,29.41,3998498
119264461,0,986.89996,29.41,3998498
119274921,0,986.94,29.41,3998498
119296435,0,986.98,29.41,3998498
119308329,0,986.94,29.41,3998498
119318435,0,986.95996,29.41,3998498
119340447,0,986.94,29.42,3998498
119352596,0,986.91,29.42,3998498
119363711,0,986.94,29.42,3998498
119386436,0,986.93,29.41,3998498
119397826,0,986.93,29.41,3998498
119408418,0,986.93,29.41,3998498
119429480,0,986.89996,29.41,3998498
119440440,0,986.92,29.41,3998498
119451671,0,986.87,29.41,3998498
119473436,0,986.94,29.42,3998498
119483733,0,986.92,29.42,3998498
119494485,0,986.89996,29.42,3998498
119515818,0,986.92,29.41,3998498
119526446,0,986.89996,29.41,3998498
119537435,0,986.95996,29.41,3998498
119560016,0,986.89996,29.42,3998498
119570436,0,986.95996,29.42,3998498
119581748,0,986.88,29.42,3998498
119604099,0,986.89996,29.42,3998498
119614436,0,986.92,29.42,3998498
119625768,0,986.94995,29.42,3998498
119649616,0,986.94995,29.42,3998498
119659964,0,986.91,29.42,3998498
119670436,0,986.89996,29.42,3998498
119691705,0,986.93,29.42,3998498
119702476,0,986.97,29.42,3998498
119713436,0,986.95996,29.42,3998498
119734449,0,986.94,29.42,3998498
119745436,0,986.92,29.42,3998498
119756436,0,986.91,29.42,3998498
119778436,0,986.94,29.42,3998498
119789436,0,986.94,29.42,3998498
119800437,0,986.97,29.42,3998498
119822499,0,986.94,29.42,3998498
119833436,0,986.92,29.42,3998498
119843816,0,986.91,29.42,3998498
119865454,0,986.86,29.42,3998498
119876593,0,986.88,29.42,3998498
119889139,0,986.94995,29.42,3998498
119913346,0,986.94995,29.42,3998498
119924609,0,986.92,29.42,3998498
119937570,0,986.92,29.42,3998498
119961384,0,986.87,29.42,3998498
119972572,0,986.92,29.42,3998498
119985347,0,986.92,29.42,3998498
120008844,0,986.94995,29.42,3998498
120018850,0,986.89996,29.42,3998498
120028668,0,986.88995,29.42,3998498
120052570,0,986.93,29.42,3998498
120065279,0,986.88995,29.42,3998498
120076544,0,986.88995,29.42,3998498
120099847,0,986.89996,29.42,3998498
120110771,0,986.93,29.42,3998498
120121331,0,986.92,29.42,3998498
120142447,0,986.94,29.42,3998498
120152850,0,986.91,29.42,3998498
120164859,0,986.86,29.42,3998498
120188635,0,986.94995,29.42,3998498
120200850,0,986.95996,29.42,3998498
120210900,0,986.88995,29.42,3998498
120233118,0,986.95996,29.429998,3998498
120242436,0,986.93,29.429998,3998498
120252686,0,986.92,29.429998,3998498
120276559,0,986.88995,29.429998,3998498
120289234,0,986.93,29.429998,3998498
120300652,0,986.91,29.429998,3998498
120323772,0,986.97,29.429998,3998498
120334435,0,986.87,29.429998,3998498
120345151,0,986.92,29.429998,3998498
120369131,0,986.93,29.429998,3998498
120380606,0,986.95996,29.429998,3998498
120392930,0,986.99,29.429998,3998498
120416878,0,986.99,29.429998,3998498
120427545,0,986.89996,29.429998,3998498
120437488,0,986.98,29.429998,3998498
120461295,0,986.82,29.429998,3998498
120471548,0,986.99,29.429998,3998498
120482124,0,986.94,29.429998,3998498
120503597,0,986.93,29.429998,3998498
120514436,0,986.89996,29.429998,3998498
120525390,0,986.88995,29.429998,3998498
120545771,0,986.92,29.429998,3998498
120557386,0,986.92,29.429998,3998498
120567444,0,986.88,29.429998,3998498
120589446,0,986.85,29.439999,3998498
120603041,0,986.92,29.439999,3998498
120613440,0,986.91,29.439999,3998498
120634436,0,986.94995,29.439999,3998498
120645407,0,987.0,29.439999,3998498
120655756,0,986.93,29.439999,3998498
120677349,0,986.93,29.439999,3998498
120687524,0,986.91,29.439999,3998498
120697573,0,987.02997,29.439999,3998498
120719437,0,986.94995,29.449999,3998498
120730437,0,986.93,29.449999,3998498
120741419,0,986.94,29.449999,3998498
120762173,0,986.92,29.439999,3998498
120773305,0,986.88,29.439999,3998498
120783448,0,986.94995,29.439999,3998498
120805439,0,987.0,29.449999,3998498
120817629,0,986.89996,29.449999,3998498
120829387,0,986.92,29.449999,3998498
120850436,0,986.88995,29.439999,3998498
120861343,0,986.92,29.439999,3998498
120871802,0,986.88995,29.439999,3998498
120893319,0,986.94,29.449999,3998498
120903442,0,986.89996,29.449999,3998498
120914436,0,986.94,29.449999,3998498
120935545,0,986.91,29.449999,3998498
120946446,0,986.88995,29.449999,3998498
120957492,0,986.94995,29.449999,3998498
120981481,0,986.94,29.449999,3998498
120993950,0,986.99,29.449999,3998498
121005369,0,986.95996,29.449999,3998498
121026444,0,986.91,29.449999,3998498
121037418,0,986.91,29.449999,3998498
121047442,0,986.94995,29.449999,3998498
121070198,0,986.88,29.46,3998498
121080436,0,986.92,29.46,3998498
121091438,0,986.95996,29.46,3998498
121112762,0,986.91,29.449999,3998498
121123009,0,986.91,29.449999,3998498
121134217,0,986.95996,29.449999,3998498
121154458,0,986.88995,29.449999,3998498
121166128,0,986.93,29.449999,3998498
121176442,0,986.87,29.449999,3998498
121198153,0,986.86,29.449999,3998498
121208450,0,986.95996,29.449999,3998498
121218856,0,986.91,29.449999,3998498
121240449,0,986.92,29.449999,3998498
121250805,0,986.87,29.449999,3998498
121260450,0,986.89996,29.449999,3998498
121282439,0,986.92,29.46,3998498
121294480,0,986.94,29.46,3998498
121306366,0,986.99,29.46,3998498
121327510,0,986.94,29.46,3998498
121339569,0,986.91,29.46,3998498
121350461,0,986.95996,29.46,3998498
121374157,0,986.94995,29.46,3998498
121384818,0,986.95996,29.46,3998498
121394904,0,986.92,29.46,3998498
121416436,0,986.92,29.46,3998498
121427547,0,986.91,29.46,3998498
121438485,0,986.88,29.46,3998498
121459617,0,986.93,29.46,3998498
121470437,0,986.93,29.46,3998498
121480800,0,986.93,29.46,3998498
121502265,0,986.94995,29.47,3998498
121512439,0,986.94,29.47,3998498
121522511,0,986.89996,29.47,3998498
121543581,0,987.0,29.46,3998498
121554489,0,986.93,29.46,3998498
121564495,0,986.92,29.46,3998498
121587064,0,986.91,29.46,3998498
121598480,0,986.92,29.46,3998498
121608439,0,986.94,29.46,3998498
121628436,0,986.92,29.47,3998498
121639531,0,986.88995,29.47,3998498
121651320,0,986.93,29.47,3998498
121671531,0,986.93,29.47,3998498
121682962,0,986.95996,29.47,3998498
121693448,0,986.93,29.47,3998498
121714996,0,986.91,29.47,3998498
121725436,0,986.98,29.47,3998498
121736439,0,986.93,29.47,3998498
121758117,0,986.94,29.47,3998498
121767575,0,986.97,29.47,3998498
121778952,0,986.89996,29.47,3998498
121800033,0,986.91,29.48,3998498
121810970,0,986.94,29.48,3998498
121821436,0,986.93,29.48,3998498
121842911,0,986.94,29.48,3998498
121853534,0,986.92,29.48,3998498
121864482,0,986.97,29.48,3998498
121887613,0,986.93,29.47,3998498
121899102,0,986.88995,29.47,3998498
121909451,0,986.92,29.47,3998498
121930999,0,986.94,29.47,3998498
121941747,0,987.01996,29.47,3998498
121951709,0,986.94995,29.47,3998498
121973446,0,986.94995,29.47,3998498
121983562,0,986.92,29.47,3998498
121994910,0,986.97,29.47,3998498
122016439,0,986.98,29.48,3998498
122026936,0,986.88995,29.48,3998498
122038133,0,986.92,29.48,3998498
122059060,0,986.91,29.48,3998498
122068435,0,986.89996,29.48,3998498
122079582,0,986.89996,29.48,3998498
122100439,0,986.91,29.48,3998498
122111260,0,986.88995,29.48,3998498
122121447,0,986.91,29.48,3998498
122143814,0,986.95996,29.48,3998498
122154950,0,986.93,29.48,3998498
122164533,0,986.95996,29.48,3998498
122185494,0,986.93,29.48,3998498
122196761,0,986.95996,29.48,3998498
122206485,0,986.94,29.48,3998498
122227866,0,986.94995,29.49,3998498
122238436,0,986.94995,29.49,3998498
122248489,0,986.94,29.49,3998498
122270439,0,986.92,29.49,3998498
122280449,0,986.93,29.49,3998498
122291869,0,986.94995,29.49,3998498
122313435,0,986.89996,29.48,3998498
122323764,0,986.89996,29.48,3998498
122336009,0,986.94,29.48,3998498
122357753,0,986.93,29.48,3998498
122368473,0,986.85,29.48,3998498
122380097,0,986.89996,29.48,3998498
122401135,0,986.94995,29.48,3998498
122411706,0,986.89996,29.48,3998498
122422435,0,986.93,29.48,3998498
122443736,0,986.86,29.49,3998498
122454531,0,986.93,29.49,3998498
122465436,0,986.93,29.49,3998498
122486436,0,986.94,29.49,3998498
122496558,0,986.95996,29.49,3998498
122507880,0,986.91,29.49,3998498
122530436,0,986.95996,29.49,3998498
122541773,0,986.93,29.49,3998498
122552440,0,986.92,29.49,3998498
122574450,0,986.94995,29.49,3998498
122585911,0,986.89996,29.49,3998498
122596436,0,986.91,29.49,3998498
122619835,0,986.95996,29.49,3998498
122632174,0,986.94995,29.49,3998498
122642480,0,986.91,29.49,3998498
122664442,0,986.89996,29.49,3998498
122676098,0,986.87,29.49,3998498
122686467,0,986.97,29.49,3998498
122708436,0,986.95996,29.49,3998498
122720789,0,986.87,29.49,3998498
122731835,0,986.91,29.49,3998498
122754436,0,986.94995,29.49,3998498
122765751,0,986.93,29.49,3998498
122776439,0,986.97,29.49,3998498
122798447,0,986.91,29.49,3998498
122808441,0,986.94995,29.49,3998498
122819814,0,986.91,29.49,3998498
122841436,0,986.91,29.49,3998498
122852476,0,986.88995,29.49,3998498
122864914,0,986.88,29.49,3998498
122889270,0,986.94,29.5,3998498
122900533,0,986.95996,29.5,3998498
122912940,0,986.87,29.5,3998498
122936951,0,986.92,29.49,3998498
122948973,0,986.91,29.49,3998498
122961152,0,986.88995,29.49,3998498
122984956,0,986.93,29.49,3998498
122996586,0,986.92,29.49,3998498
123009273,0,986.88995,29.49,3998498
123030489,0,986.91,29.49,3998498
123040814,0,986.86,29.49,3998498
123052585,0,986.94,29.49,3998498
123076517,0,986.92,29.49,3998498
123088897,0,986.91,29.49,3998498
123100548,0,986.92,29.49,3998498
123124517,0,986.99,29.49,3998498
123136801,0,986.92,29.49,3998498
123148648,0,986.87,29.49,3998498
123172867,0,986.94995,29.5,3998498
123183776,0,986.92,29.5,3998498
123193433,0,986.95996,29.5,3998498
123217285,0,986.88995,29.49,3998498
123228654,0,986.88995,29.49,3998498
123241209,0,986.89996,29.49,3998498
123260531,0,986.89996,29.5,3998498
123273166,0,986.86,29.5,3998498
123284570,0,986.92,29.5,3998498
123304869,0,986.94,29.5,3998498
123316629,0,986.88,29.5,3998498
123329409,0,986.97,29.5,3998498
123353474,0,986.87,29.5,3998498
123365355,0,986.89996,29.5,3998498
123375554,0,986.89996,29.5,3998498
123397508,0,986.94995,29.5,3998498
123407819,0,986.93,29.5,3998498
123418523,0,986.95996,29.5,3998498
123439601,0,986.89996,29.5,3998498
123449672,0,986.87,29.5,3998498
123461355,0,986.88995,29.5,3998498
123482128,0,986.94,29.51,3998498
123493353,0,986.93,29.51,3998498
123503916,0,986.94995,29.51,3998498
123525378,0,986.94,29.51,3998498
123535446,0,986.91,29.51,3998498
123546440,0,986.91,29.51,3998498
123567437,0,986.92,29.51,3998498
123578440,0,986.93,29.51,3998498
123589500,0,986.88995,29.51,3998498
123610157,0,986.92,29.51,3998498
123621437,0,986.94,29.51,3998498
123631437,0,986.94,29.51,3998498
123653440,0,986.93,29.519999,3998498
123666067,0,986.98,29.519999,3998498
123677333,0,986.94,29.519999,3998498
123698436,0,986.92,29.51,3998498
123709500,0,986.93,29.51,3998498
123719802,0,986.92,29.51,3998498
123741347,0,986.97,29.519999,3998498
123751453,0,986.88,29.519999,3998498
123762436,0,986.91,29.519999,3998498
123785597,0,986.91,29.519999,3998498
123797342,0,986.93,29.519999,3998498
123806436,0,986.94995,29.519999,3998498
123829463,0,986.93,29.519999,3998498
123839790,0,986.88,29.519999,3998498
123850283,0,986.91,29.519999,3998498
123871450,0,986.92,29.519999,3998498
123882435,0,986.88,29.519999,3998498
123893439,0,986.92,29.519999,3998498
123917473,0,986.91,29.519999,3998498
123929635,0,986.91,29.519999,3998498
123941420,0,986.94995,29.519999,3998498
123965417,0,986.95996,29.519999,3998498
123975437,0,986.89996,29.519999,3998498
123986476,0,986.94995,29.519999,3998498
124007812,0,986.94,29.519999,3998498
124018273,0,986.91,29.519999,3998498
124029421,0,986.89996,29.519999,3998498
124050439,0,986.89996,29.519999,3998498
124062157,0,986.87,29.519999,3998498
124072436,0,986.97,29.519999,3998498
124094151,0,986.86,29.519999,3998498
124104502,0,986.85,29.519999,3998498
124114766,0,986.92,29.519999,3998498
124138840,0,986.89996,29.519999,3998498
124150509,0,986.94,29.519999,3998498
124162826,0,986.94995,29.519999,3998498
124186953,0,986.89996,29.529999,3998498
124198417,0,986.92,29.529999,3998498
124208499,0,986.91,29.529999,3998498
124230461,0,986.88995,29.519999,3998498
124240448,0,986.88995,29.519999,3998498
124250510,0,986.92,29.519999,3998498
124272446,0,986.95996,29.529999,3998498
124283641,0,986.98,29.529999,3998498
124294203,0,986.93,29.529999,3998498
124314831,0,986.92,29.529999,3998498
124326232,0,986.94,29.529999,3998498
124336787,0,986.92,29.529999,3998498
124358156,0,986.94995,29.529999,3998498
124368439,0,986.94,29.529999,3998498
124379535,0,986.88,29.529999,3998498
124400447,0,986.95996,29.529999,3998498
124411535,0,986.92,29.529999,3998498
124422177,0,986.89996,29.529999,3998498
124443076,0,986.88,29.529999,3998498
124454174,0,986.89996,29.529999,3998498
124464445,0,986.94995,29.529999,3998498
124486137,0,986.99,29.529999,3998498
124496436,0,986.94995,29.529999,3998498
124507571,0,986.94995,29.529999,3998498
124528824,0,986.88995,29.529999,3998498
124539642,0,986.92,29.529999,3998498
124550486,0,986.92,29.529999,3998498
124571561,0,986.94995,29.539999,3998498
124582233,0,986.94995,29.539999,3998498
124592439,0,986.88995,29.539999,3998498
124614447,0,986.95996,29.539999,3998498
124626945,0,986.95996,29.539999,3998498
124638143,0,986.87,29.539999,3998498
124659008,0,986.98,29.539999,3998498
124670240,0,986.85,29.539999,3998498
124680436,0,986.95996,29.539999,3998498
124701436,0,986.98,29.539999,3998498
124712435,0,986.92,29.539999,3998498
124723616,0,986.87,29.539999,3998498
124743717,0,986.94,29.539999,3998498
124755024,0,986.95996,29.539999,3998498
124766149,0,986.94,29.539999,3998498
124785439,0,986.91,29.539999,3998498
124796435,0,986.89996,29.539999,3998498
124808082,0,986.92,29.539999,3998498
124828436,0,986.91,29.539999,3998498
124839610,0,986.91,29.539999,3998498
124851064,0,986.85,29.539999,3998498
124871661,0,986.92,29.55,3998498
124882872,0,986.87,29.55,3998498
124892485,0,986.92,29.55,3998498
124913497,0,986.94,29.55,3998498
124924780,0,986.91,29.55,3998498
124935320,0,986.92,29.55,3998498
124955558,0,986.94995,29.55,3998498
124968099,0,986.94,29.55,3998498
124979093,0,986.94995,29.55,3998498
125000431,0,986.97,29.55,3998498
125011536,0,986.95996,29.55,3998498
125021436,0,986.92,29.55,3998498
125043535,0,986.93,29.55,3998498
125053436,0,986.93,29.55,3998498
125064439,0,986.92,29.55,3998498
125085763,0,986.95996,29.55,3998498
125095686,0,986.88995,29.55,3998498
125107051,0,986.89996,29.55,3998498
125127573,0,986.94995,29.55,3998498
125139065,0,986.88995,29.55,3998498
125149435,0,986.98,29.55,3998498
125171019,0,986.94,29.55,3998498
125182155,0,986.92,29.55,3998498
125191911,0,986.93,29.55,3998498
125212442,0,986.94995,29.55,3998498
125223511,0,986.89996,29.55,3998498
125235032,0,986.91,29.55,3998498
125256436,0,986.98,29.56,3998498
125267004,0,986.94,29.56,3998498
125277436,0,986.94995,29.56,3998498
125299784,0,986.94,29.56,3998498
125310435,0,986.89996,29.56,3998498
125321436,0,986.94995,29.56,3998498
125342436,0,986.94,29.56,3998498
125353436,0,986.95996,29.56,3998498
125363954,0,986.89996,29.56,3998498
125384794,0,986.99,29.56,3998498
125395755,0,986.91,29.56,3998498
125408683,0,986.93,29.56,3998498
125432045,0,986.97,29.56,3998498
125442439,0,986.86,29.56,3998498
125453747,0,986.94995,29.56,3998498
125476079,0,986.89996,29.56,3998498
125486447,0,986.88,29.56,3998498
125497751,0,986.93,29.56,3998498
125520709,0,986.97,29.56,3998498
125531736,0,986.94,29.56,3998498
125544025,0,986.93,29.56,3998498
125565774,0,986.97,29.56,3998498
125576434,0,986.97,29.56,3998498
125587814,0,986.88,29.56,3998498
125608620,0,986.93,29.56,3998498
125619755,0,986.91,29.56,3998498
125630439,0,986.88995,29.56,3998498
125652436,0,986.91,29.56,3998498
125663918,0,986.94,29.56,3998498
125674448,0,986.91,29.56,3998498
125696705,0,986.94,29.56,3998498
125707772,0,986.95996,29.56,3998498
125718446,0,986.94995,29.56,3998498
125740439,0,986.91,29.56,3998498
125750485,0,986.94,29.56,3998498
125761442,0,986.94995,29.56,3998498
125782445,0,986.94,29.57,3998498
125793446,0,986.93,29.57,3998498
125803746,0,986.95996,29.57,3998498
125825758,0,986.93,29.57,3998498
125835733,0,986.98,29.57,3998498
125846511,0,986.93,29.57,3998498
125868653,0,986.91,29.57,3998498
125880786,0,986.95996,29.57,3998498
125892602,0,986.91,29.57,3998498
125916601,0,986.94995,29.57,3998498
125928866,0,986.94995,29.57,3998498
125940642,0,986.93,29.57,3998498
125964498,0,986.94995,29.56,3998498
125976746,0,986.91,29.56,3998498
125988679,0,986.92,29.56,3998498
126012534,0,986.94,29.56,3998498
126025224,0,986.88,29.56,3998498
126036552,0,986.91,29.56,3998498
126060577,0,986.88,29.56,3998498
126073229,0,986.92,29.56,3998498
126084548,0,986.93,29.56,3998498
126108732,0,986.92,29.56,3998498
126120955,0,986.88995,29.56,3998498
126132543,0,986.89996,29.56,3998498
126156538,0,986.88995,29.56,3998498
126169459,0,986.92,29.56,3998498
126180608,0,986.93,29.56,3998498
126202080,0,986.88995,29.56,3998498
126212674,0,986.98,29.56,3998498
126224825,0,986.88995,29.56,3998498
126249273,0,986.94,29.56,3998498
126260537,0,986.91,29.56,3998498
126272836,0,986.99,29.56,3998498
126296851,0,986.95996,29.57,3998498
126308677,0,986.92,29.57,3998498
126320877,0,986.93,29.57,3998498
126344807,0,986.93,29.56,3998498
126356673,0,986.93,29.56,3998498
126369222,0,986.82996,29.56,3998498
126390454,0,986.89996,29.56,3998498
126403197,0,986.89996,29.56,3998498
126413490,0,986.93,29.56,3998498
126437459,0,986.83997,29.57,3998498
126447588,0,986.91,29.57,3998498
126458435,0,986.87,29.57,3998498
126479889,0,986.94995,29.57,3998498
126490045,0,986.95996,29.57,3998498
126501411,0,986.93,29.57,3998498
126522446,0,986.88,29.57,3998498
126533447,0,986.93,29.57,3998498
126543449,0,986.93,29.57,3998498
126565409,0,986.95996,29.58,3998498
126575788,0,986.95996,29.58,3998498
126586298,0,986.88,29.58,3998498
126606952,0,986.94,29.58,3998498
126617931,0,986.92,29.58,3998498
126627448,0,986.86,29.58,3998498
126649600,0,986.89996,29.58,3998498
126661349,0,986.93,29.58,3998498
126671523,0,986.89996,29.58,3998498
126693363,0,986.98,29.58,3998498
126703437,0,986.94,29.58,3998498
126713946,0,986.88995,29.58,3998498
126738035,0,986.86,29.58,3998498
126749610,0,986.89996,29.58,3998498
126759817,0,986.93,29.58,3998498
126781316,0,986.93,29.58,3998498
126791461,0,986.92,29.58,3998498
126802450,0,986.92,29.58,3998498
126823607,0,986.93,29.59,3998498
126834437,0,986.94995,29.59,3998498
126845324,0,986.94995,29.59,3998498
126866928,0,986.94,29.59,3998498
126877350,0,986.94,29.59,3998498
126887580,0,986.87,29.59,3998498
126909468,0,987.0,29.59,3998498
126919437,0,986.92,29.59,3998498
126930485,0,986.94,29.59,3998498
126951903,0,986.91,29.59,3998498
126962429,0,986.95996,29.59,3998498
126973381,0,986.93,29.59,3998498
126993617,0,986.87,29.59,3998498
127005360,0,986.88,29.59,3998498
127015440,0,986.93,29.59,3998498
127037389,0,986.97,29.59,3998498
127047763,0,986.88995,29.59,3998498
127058925,0,986.91,29.59,3998498
127082570,0,986.94,29.599998,3998498
127094130,0,986.88,29.599998,3998498
127103447,0,987.0,29.599998,3998498
127126249,0,986.91,29.59,3998498
127136514,0,986.88995,29.59,3998498
127146464,0,986.97,29.59,3998498
127170396,0,986.95996,29.59,3998498
127180776,0,986.93,29.59,3998498
127190467,0,986.93,29.59,3998498
127214249,0,986.94995,29.59,3998498
127224790,0,986.93,29.59,3998498
127234834,0,986.95996,29.59,3998498
127256447,0,986.92,29.599998,3998498
127267584,0,986.94,29.599998,3998498
127278436,0,986.92,29.599998,3998498
127299514,0,986.94995,29.599998,3998498
127310121,0,986.94995,29.599998,3998498
127320761,0,986.94,29.599998,3998498
127342220,0,986.89996,29.599998,3998498
127352448,0,986.92,29.599998,3998498
127363590,0,986.93,29.599998,3998498
127386566,0,987.00995,29.609999,3998498
127398130,0,986.89996,29.609999,3998498
127407674,0,986.95996,29.609999,3998498
127428497,0,986.93,29.599998,3998498
127439931,0,986.88,29.599998,3998498
127449431,0,986.88995,29.599998,3998498
127470435,0,986.91,29.599998,3998498
127480436,0,986.88995,29.599998,3998498
127491589,0,986.91,29.599998,3998498
127512446,0,986.95996,29.609999,3998498
127522979,0,986.89996,29.609999,3998498
127534553,0,986.95996,29.609999,3998498
127558514,0,986.93,29.599998,3998498
127570969,0,986.93,29.599998,3998498
127582557,0,986.94,29.599998,3998498
127606495,0,986.94995,29.599998,3998498
127619828,0,986.93,29.599998,3998498
127630550,0,986.89996,29.599998,3998498
127654503,0,986.94,29.599998,3998498
127667254,0,986.93,29.599998,3998498
127679036,0,986.94,29.599998,3998498
127699547,0,986.94995,29.599998,3998498
127710991,0,986.98,29.599998,3998498
127721435,0,986.93,29.599998,3998498
127742874,0,986.92,29.609999,3998498
127753447,0,986.94995,29.609999,3998498
127763700,0,986.93,29.609999,3998498
127784439,0,986.95996,29.599998,3998498
127795542,0,986.93,29.599998,3998498
127807024,0,986.94995,29.599998,3998498
127827578,0,986.94,29.609999,3998498
127839042,0,986.89996,29.609999,3998498
127849450,0,986.87,29.609999,3998498
127871588,0,986.89996,29.609999,3998498
127881446,0,986.94,29.609999,3998498
127892446,0,986.89996,29.609999,3998498
127915745,0,986.98,29.609999,3998498
127927006,0,986.88995,29.609999,3998498
127938168,0,986.97,29.609999,3998498
127959029,0,986.88995,29.609999,3998498
127969436,0,986.98,29.609999,3998498
127980439,0,986.93,29.609999,3998498
128001450,0,986.94,29.609999,3998498
128012477,0,986.92,29.609999,3998498
128022957,0,986.88995,29.609999,3998498
128043738,0,986.91,29.609999,3998498
128054915,0,986.91,29.609999,3998498
128065449,0,986.92,29.609999,3998498
128087019,0,986.94,29.619999,3998498
128096436,0,986.94995,29.619999,3998498
128107547,0,986.88995,29.619999,3998498
128129757,0,986.94995,29.619999,3998498
128139919,0,986.94,29.619999,3998498
128150959,0,986.89996,29.619999,3998498
128171631,0,986.97,29.619999,3998498
128182951,0,986.89996,29.619999,3998498
128193446,0,986.87,29.619999,3998498
128215069,0,986.94995,29.619999,3998498
128225435,0,986.94995,29.619999,3998498
128235729,0,986.88995,29.619999,3998498
128257436,0,986.89996,29.619999,3998498
128268436,0,986.93,29.619999,3998498
128279594,0,986.88,29.619999,3998498
128301436,0,986.91,29.619999,3998498
128311837,0,986.92,29.619999,3998498
128322451,0,986.97,29.619999,3998498
128343919,0,986.88995,29.619999,3998498
128354488,0,986.92,29.619999,3998498
128365435,0,986.87,29.619999,3998498
128386443,0,986.89996,29.619999,3998498
128397440,0,986.95996,29.619999,3998498
128408455,0,986.88995,29.619999,3998498
128431782,0,986.94995,29.63,3998498
128441525,0,986.94,29.63,3998498
128452015,0,986.89996,29.63,3998498
128473766,0,986.94,29.63,3998498
128484524,0,986.95996,29.63,3998498
128496063,0,986.89996,29.63,3998498
128516436,0,986.94995,29.63,3998498
128527884,0,986.89996,29.63,3998498
128538447,0,986.92,29.63,3998498
128559808,0,986.97,29.63,3998498
128570449,0,986.95996,29.63,3998498
128581437,0,986.88995,29.63,3998498
128605314,0,986.91,29.63,3998498
128615760,0,986.89996,29.63,3998498
128625485,0,986.87,29.63,3998498
128646486,0,986.97,29.63,3998498
128657747,0,986.89996,29.63,3998498
128668717,0,986.88,29.63,3998498
128690476,0,986.93,29.63,3998498
128701446,0,986.92,29.63,3998498
128712491,0,986.88,29.63,3998498
128733445,0,986.88,29.63,3998498
128743847,0,986.91,29.63,3998498
128756349,0,986.94,29.63,3998498
128777747,0,986.99,29.64,3998498
128788462,0,986.93,29.64,3998498
128800106,0,986.99,29.64,3998498
128820816,0,986.92,29.63,3998498
128832516,0,986.92,29.63,3998498
128844751,0,986.86,29.63,3998498
128864479,0,986.93,29.64,3998498
128876813,0,986.92,29.64,3998498
128888693,0,986.95996,29.64,3998498
128912480,0,986.92,29.64,3998498
128924842,0,986.95996,29.64,3998498
128936530,0,986.94,29.64,3998498
128960892,0,986.88995,29.63,3998498
128973135,0,986.92,29.63,3998498
128984633,0,986.91,29.63,3998498
129008666,0,986.94995,29.64,3998498
129020921,0,986.94,29.64,3998498
129032597,0,986.93,29.64,3998498
129056540,0,986.94,29.63,3998498
129069170,0,986.88995,29.63,3998498
129080538,0,986.89996,29.63,3998498
129104592,0,987.0,29.63,3998498
129116952,0,986.88995,29.63,3998498
129128520,0,986.89996,29.63,3998498
129152578,0,986.92,29.63,3998498
129164913,0,986.93,29.63,3998498
129176583,0,986.92,29.63,3998498
129200678,0,986.93,29.63,3998498
129214003,0,986.87,29.63,3998498
129224605,0,986.99,29.63,3998498
129248614,0,986.89996,29.63,3998498
129261151,0,986.94995,29.63,3998498
129272549,0,986.89996,29.63,3998498
129296555,0,986.91,29.63,3998498
129309144,0,986.93,29.63,3998498
129320723,0,986.94,29.63,3998498
129344466,0,986.97,29.64,3998498
129357184,0,986.92,29.64,3998498
129368608,0,986.91,29.64,3998498
129392610,0,986.89996,29.63,3998498
129405933,0,986.87,29.63,3998498
129415511,0,986.88,29.63,3998498
129437354,0,986.89996,29.63,3998498
129447906,0,986.95996,29.63,3998498
129458749,0,986.89996,29.63,3998498
129479514,0,986.89996,29.64,3998498
129489968,0,986.92,29.64,3998498
129501412,0,986.88,29.64,3998498
129525375,0,986.94995,29.64,3998498
129537684,0,986.94,29.64,3998498
129549429,0,986.94995,29.64,3998498
129573436,0,986.95996,29.64,3998498
129585618,0,986.89996,29.64,3998498
129597382,0,986.89996,29.64,3998498
129618292,0,986.89996,29.64,3998498
129629515,0,986.89996,29.64,3998498
129639774,0,986.93,29.64,3998498
129661365,0,986.97,29.65,3998498
129671440,0,986.88995,29.65,3998498
129682440,0,986.93,29.65,3998498
129703562,0,986.97,29.64,3998498
129714435,0,986.88,29.64,3998498
129725435,0,986.91,29.64,3998498
129746073,0,986.93,29.65,3998498
129757486,0,986.94,29.65,3998498
129767451,0,986.89996,29.65,3998498
129789460,0,986.94,29.65,3998498
129803100,0,986.94995,29.65,3998498
129813436,0,986.92,29.65,3998498
129834436,0,986.95996,29.65,3998498
129845418,0,986.95996,29.65,3998498
129855784,0,986.86,29.65,3998498
129877421,0,986.94,29.65,3998498
129887437,0,986.88995,29.65,3998498
129898436,0,986.91,29.65,3998498
129921638,0,986.89996,29.66,3998498
129933419,0,986.95996,29.66,3998498
129943447,0,986.89996,29.66,3998498
129965439,0,986.91,29.66,3998498
129975791,0,986.94,29.66,3998498
129986835,0,986.93,29.66,3998498
130007522,0,986.94995,29.66,3998498
130017627,0,986.95996,29.66,3998498
130029418,0,986.94995,29.66,3998498
130053382,0,986.92,29.66,3998498
130063437,0,986.88995,29.66,3998498
130074435,0,986.89996,29.66,3998498
130095891,0,986.89996,29.66,3998498
130106983,0,986.93,29.66,3998498
130118412,0,986.92,29.66,3998498
130138441,0,986.88,29.66,3998498
130148495,0,986.87,29.66,3998498
130159570,0,986.92,29.66,3998498
130182143,0,986.94995,29.66,3998498
130192440,0,986.89996,29.66,3998498
130202762,0,986.93,29.66,3998498
130224436,0,986.92,29.67,3998498
130235101,0,986.94,29.67,3998498
130244795,0,986.95996,29.67,3998498
130266439,0,986.98,29.67,3998498
130278218,0,986.94995,29.67,3998498
130288448,0,986.87,29.67,3998498
130310169,0,986.97,29.67,3998498
130319542,0,986.95996,29.67,3998498
130330437,0,986.88,29.67,3998498
130352759,0,986.89996,29.67,3998498
130363039,0,986.94,29.67,3998498
130374071,0,986.92,29.67,3998498
130394436,0,986.94995,29.67,3998498
130406217,0,986.92,29.67,3998498
130416489,0,986.89996,29.67,3998498
130438240,0,986.95996,29.679998,3998498
130448447,0,986.88,29.679998,3998498
130459021,0,986.94,29.679998,3998498
130479591,0,986.95996,29.67,3998498
130490439,0,986.93,29.67,3998498
130502176,0,986.89996,29.67,3998498
130522871,0,986.99,29.679998,3998498
130534098,0,986.94995,29.679998,3998498
130544445,0,986.98,29.679998,3998498
130566118,0,986.95996,29.67,3998498
130576436,0,986.87,29.67,3998498
130587559,0,986.89996,29.67,3998498
130608872,0,986.95996,29.679998,3998498
130619094,0,986.88995,29.679998,3998498
130630118,0,986.89996,29.679998,3998498
130651584,0,986.94,29.679998,3998498
130662436,0,986.89996,29.679998,3998498
130672436,0,987.00995,29.679998,3998498
130694968,0,986.92,29.679998,3998498
130705441,0,986.94995,29.679998,3998498
130716435,0,986.87,29.679998,3998498
130739686,0,986.88995,29.679998,3998498
130751117,0,986.93,29.679998,3998498
130761436,0,986.94,29.679998,3998498
130783534,0,986.94,29.679998,3998498
130793761,0,986.95996,29.679998,3998498
130804799,0,986.94,29.679998,3998498
130825436,0,986.93,29.679998,3998498
130835757,0,986.91,29.679998,3998498
130847033,0,986.94995,29.679998,3998498
130867577,0,986.92,29.679998,3998498
130879047,0,986.91,29.679998,3998498
130889761,0,986.94,29.679998,3998498
130910970,0,986.95996,29.679998,3998498
130921435,0,986.94995,29.679998,3998498
130932436,0,986.88995,29.679998,3998498
130953436,0,986.92,29.679998,3998498
130964435,0,986.87,29.679998,3998498
130974949,0,986.87,29.679998,3998498
130995770,0,986.94,29.689999,3998498
131007051,0,986.93,29.689999,3998498
131017458,0,986.94,29.689999,3998498
131039538,0,986.99,29.689999,3998498
131049435,0,986.97,29.689999,3998498
131060439,0,986.91,29.689999,3998498
131081758,0,986.94995,29.689999,3998498
131091782,0,986.94995,29.689999,3998498
131102953,0,986.89996,29.689999,3998498
131123575,0,986.91,29.689999,3998498
131133461,0,986.92,29.689999,3998498
131144439,0,986.92,29.689999,3998498
131166993,0,986.88,29.689999,3998498
131176437,0,986.92,29.689999,3998498
131187662,0,986.99,29.689999,3998498
131209501,0,986.94,29.689999,3998498
131219936,0,986.91,29.689999,3998498
131230486,0,986.92,29.689999,3998498
131252035,0,986.88995,29.689999,3998498
131263776,0,986.93,29.689999,3998498
131273540,0,986.93,29.689999,3998498
131295815,0,986.94,29.699999,3998498
131306436,0,986.94,29.699999,3998498
131317436,0,986.88,29.699999,3998498
131338435,0,986.92,29.699999,3998498
131349436,0,986.94,29.699999,3998498
131360436,0,986.97,29.699999,3998498
131382435,0,986.91,29.689999,3998498
131393485,0,986.95996,29.689999,3998498
131404461,0,986.94,29.689999,3998498
131426457,0,986.97,29.699999,3998498
131437435,0,986.91,29.699999,3998498
131448445,0,986.91,29.699999,3998498
131469436,0,986.92,29.699999,3998498
131480439,0,986.89996,29.699999,3998498
131492330,0,986.86,29.699999,3998498
131513751,0,986.89996,29.699999,3998498
131524099,0,986.88995,29.699999,3998498
131534436,0,986.92,29.699999,3998498
131556469,0,986.94,29.699999,3998498
131567790,0,986.91,29.699999,3998498
131578498,0,986.89996,29.699999,3998498
131600440,0,986.93,29.699999,3998498
131612779,0,986.94,29.699999,3998498
131623754,0,986.93,29.699999,3998498
131645436,0,986.98,29.699999,3998498
131656437,0,986.89996,29.699999,3998498
131668670,0,986.94,29.699999,3998498
131690485,0,986.93,29.699999,3998498
131701435,0,986.95996,29.699999,3998498
131712436,0,986.89996,29.699999,3998498
131734447,0,986.95996,29.699999,3998498
131745447,0,986.92,29.699999,3998498
131756874,0,986.95996,29.699999,3998498
131777480,0,986.89996,29.699999,3998498
131788445,0,986.97,29.699999,3998498
131799766,0,986.89996,29.699999,3998498
131821447,0,986.95996,29.71,3998498
131832435,0,986.93,29.71,3998498
131844409,0,986.88,29.71,3998498
131866436,0,986.94,29.699999,3998498
131876442,0,986.88995,29.699999,3998498
131889404,0,986.94995,29.699999,3998498
131913617,0,986.94995,29.71,3998498
131924991,0,986.95996,29.71,3998498
131937367,0,986.88995,29.71,3998498
131961181,0,986.92,29.71,3998498
131972894,0,986.94,29.71,3998498
131984863,0,986.93,29.71,3998498
132008845,0,986.97,29.699999,3998498
132020889,0,986.92,29.699999,3998498
132032794,0,986.97,29.699999,3998498
132056825,0,986.91,29.699999,3998498
132068846,0,986.88995,29.699999,3998498
132081158,0,986.91,29.699999,3998498
132104867,0,986.93,29.699999,3998498
132116852,0,986.93,29.699999,3998498
132129189,0,986.88995,29.699999,3998498
132152795,0,986.95996,29.699999,3998498
132164925,0,986.94,29.699999,3998498
132177393,0,986.87,29.699999,3998498
132201216,0,986.94,29.699999,3998498
132212955,0,987.00995,29.699999,3998498
132224805,0,986.93,29.699999,3998498
132249243,0,986.88995,29.699999,3998498
132258941,0,986.94995,29.699999,3998498
132268670,0,986.88995,29.699999,3998498
132290661,0,986.85,29.699999,3998498
132300586,0,986.92,29.699999,3998498
132313252,0,986.95996,29.699999,3998498
132334485,0,986.94,29.71,3998498
132345017,0,986.88995,29.71,3998498
132356565,0,986.94,29.71,3998498
132380575,0,986.89996,29.71,3998498
132393423,0,986.89996,29.71,3998498
132404533,0,986.94995,29.71,3998498
132428667,0,986.88995,29.71,3998498
132440808,0,986.94,29.71,3998498
132452512,0,986.88995,29.71,3998498
132476637,0,986.93,29.71,3998498
132489181,0,986.97,29.71,3998498
132500568,0,986.93,29.71,3998498
132522453,0,986.88,29.71,3998498
132533301,0,986.91,29.71,3998498
132543876,0,986.88,29.71,3998498
132565439,0,986.93,29.71,3998498
132575584,0,986.93,29.71,3998498
132586435,0,986.93,29.71,3998498
132609734,0,986.88,29.72,3998498
132621301,0,986.94,29.72,3998498
132631562,0,986.92,29.72,3998498
132653327,0,986.99,29.71,3998498
132663790,0,986.95996,29.71,3998498
132674062,0,986.97,29.71,3998498
132695437,0,986.99,29.72,3998498
132706533,0,986.88995,29.72,3998498
132717439,0,986.95996,29.72,3998498
132738452,0,986.93,29.72,3998498
132749525,0,986.95996,29.72,3998498
132759883,0,986.93,29.72,3998498
132781410,0,986.88995,29.73,3998498
132791612,0,986.98,29.73,3998498
132801592,0,986.88,29.73,3998498
132823437,0,986.94,29.73,3998498
132833745,0,986.94,29.73,3998498
132845456,0,986.89996,29.73,3998498
132869401,0,986.95996,29.73,3998498
132881552,0,986.93,29.73,3998498
132893358,0,986.87,29.73,3998498
132914016,0,986.93,29.73,3998498
132925711,0,986.93,29.73,3998498
132935437,0,986.94995,29.73,3998498
132955437,0,986.93,29.73,3998498
132965439,0,986.95996,29.73,3998498
132977748,0,986.94995,29.73,3998498
133001713,0,986.95996,29.73,3998498
133013426,0,986.89996,29.73,3998498
133023437,0,986.88995,29.73,3998498
133045313,0,986.93,29.73,3998498
133055560,0,986.95996,29.73,3998498
133066435,0,986.94,29.73,3998498
133087795,0,986.94,29.73,3998498
133098180,0,986.92,29.73,3998498
133109398,0,986.85,29.73,3998498
133130472,0,986.92,29.74,3998498
133142221,0,986.93,29.74,3998498
133152436,0,986.95996,29.74,3998498
133174307,0,986.89996,29.74,3998498
133184483,0,986.94,29.74,3998498
133194917,0,986.95996,29.74,3998498
133216440,0,986.94,29.74,3998498
133227584,0,986.95996,29.74,3998498
133238223,0,986.98,29.74,3998498
133258946,0,986.92,29.74,3998498
133270190,0,986.91,29.74,3998498
133279558,0,986.85,29.74,3998498
133300439,0,986.93,29.74,3998498
133311548,0,986.91,29.74,3998498
133322547,0,986.94995,29.74,3998498
133344435,0,986.88,29.74,3998498
133354883,0,986.89996,29.74,3998498
133366569,0,986.94,29.74,3998498
133390560,0,986.93,29.74,3998498
133402747,0,986.98,29.74,3998498
133414471,0,986.97,29.74,3998498
133438524,0,986.93,29.74,3998498
133450754,0,986.93,29.74,3998498
133462557,0,986.92,29.74,3998498
133486551,0,986.91,29.73,3998498
133498857,0,986.93,29.73,3998498
133510503,0,986.88995,29.73,3998498
133534480,0,986.94,29.73,3998498
133547011,0,986.92,29.73,3998498
133558482,0,986.94995,29.73,3998498
133582470,0,986.94,29.74,3998498
133595224,0,986.94,29.74,3998498
133606504,0,986.97,29.74,3998498
133630561,0,986.94,29.74,3998498
133642959,0,986.91,29.74,3998498
133652806,0,986.93,29.74,3998498
133674356,0,986.93,29.74,3998498
133683620,0,986.93,29.74,3998498
133694932,0,986.91,29.74,3998498
133715697,0,986.97,29.74,3998498
133727003,0,986.93,29.74,3998498
133736435,0,986.88995,29.74,3998498
133759079,0,986.95996,29.74,3998498
133769765,0,986.93,29.74,3998498
133779570,0,986.87,29.74,3998498
133801446,0,986.88995,29.74,3998498
133811715,0,986.94,29.74,3998498
133821445,0,986.92,29.74,3998498
133843733,0,986.89996,29.75,3998498
133854977,0,986.95996,29.75,3998498
133866200,0,986.88,29.75,3998498
133886884,0,986.93,29.75,3998498
133897437,0,986.95996,29.75,3998498
133908436,0,986.91,29.75,3998498
133929438,0,986.94,29.75,3998498
133939739,0,986.94995,29.75,3998498
133950994,0,986.92,29.75,3998498
133972591,0,986.93,29.76,3998498
133983608,0,986.91,29.76,3998498
133995557,0,986.94995,29.76,3998498
134017438,0,986.91,29.75,3998498
134028439,0,986.92,29.75,3998498
134039554,0,986.94,29.75,3998498
134060447,0,986.85,29.75,3998498
134071052,0,986.97,29.75,3998498
134081747,0,986.89996,29.75,3998498
134102917,0,986.93,29.76,3998498
134113452,0,986.94995,29.76,3998498
134124450,0,986.88995,29.76,3998498
134145436,0,986.93,29.76,3998498
134156436,0,986.91,29.76,3998498
134166954,0,986.93,29.76,3998498
134187848,0,986.89996,29.76,3998498
134198996,0,986.89996,29.76,3998498
134209485,0,986.86,29.76,3998498
134231019,0,987.00995,29.76,3998498
134241447,0,986.89996,29.76,3998498
134251627,0,986.86,29.76,3998498
134273764,0,986.94,29.76,3998498
134283685,0,986.88,29.76,3998498
134294990,0,986.93,29.76,3998498
134316436,0,986.85,29.769999,3998498
134327573,0,986.93,29.769999,3998498
134337435,0,986.94,29.769999,3998498
134359852,0,986.88995,29.76,3998498
134370436,0,986.89996,29.76,3998498
134381464,0,986.94995,29.76,3998498
134405369,0,986.93,29.769999,3998498
134415783,0,986.92,29.769999,3998498
134426441,0,986.91,29.769999,3998498
134448439,0,986.94,29.76,3998498
134460002,0,986.88,29.76,3998498
134470447,0,986.91,29.76,3998498
134492437,0,986.94,29.769999,3998498
134504145,0,986.92,29.769999,3998498
134514447,0,986.97,29.769999,3998498
134536436,0,986.92,29.769999,3998498
134548610,0,986.92,29.769999,3998498
134559821,0,986.91,29.769999,3998498
134582436,0,986.92,29.769999,3998498
134593827,0,986.88,29.769999,3998498
134605142,0,986.95996,29.769999,3998498
134626447,0,986.97,29.76,3998498
134637849,0,986.87,29.76,3998498
134648435,0,986.92,29.76,3998498
134671780,0,986.92,29.769999,3998498
134684092,0,986.88995,29.769999,3998498
134694436,0,986.89996,29.769999,3998498
134716460,0,986.93,29.769999,3998498
134728361,0,986.88995,29.769999,3998498
134738522,0,986.94995,29.769999,3998498
134760436,0,986.88995,29.769999,3998498
134772932,0,986.92,29.769999,3998498
134783876,0,986.89996,29.769999,3998498
134806098,0,986.88995,29.769999,3998498
134816458,0,986.87,29.769999,3998498
134828336,0,986.88995,29.769999,3998498
134849445,0,986.97,29.769999,3998498
134860437,0,986.88,29.769999,3998498
134871831,0,986.94,29.769999,3998498
134893435,0,986.94,29.769999,3998498
134904461,0,986.91,29.769999,3998498
134916139,0,986.92,29.769999,3998498
134936968,0,986.87,29.769999,3998498
134948776,0,986.86,29.769999,3998498
134960941,0,986.88995,29.769999,3998498
134984896,0,986.87,29.769999,3998498
134996628,0,986.93,29.769999,3998498
135009773,0,986.91,29.769999,3998498
135030496,0,986.94995,29.769999,3998498
135040808,0,986.95996,29.769999,3998498
135050866,0,986.89996,29.769999,3998498
135072912,0,986.85,29.769999,3998498
135082436,0,986.91,29.769999,3998498
135092578,0,986.91,29.769999,3998498
135116541,0,986.93,29.779999,3998498
135128964,0,986.97,29.779999,3998498
135140556,0,986.97,29.779999,3998498
135164494,0,986.88995,29.779999,3998498
135174486,0,986.89996,29.779999,3998498
135185242,0,987.0,29.779999,3998498
135206436,0,986.92,29.779999,3998498
135217263,0,986.92,29.779999,3998498
135228525,0,986.89996,29.779999,3998498
135252501,0,986.94995,29.769999,3998498
135265238,0,986.94995,29.769999,3998498
135276586,0,986.94,29.769999,3998498
135300614,0,986.94,29.769999,3998498
135313169,0,986.94,29.769999,3998498
135324611,0,986.94,29.769999,3998498
135348747,0,986.91,29.779999,3998498
135361374,0,986.95996,29.779999,3998498
135370730,0,986.95996,29.779999,3998498
135393359,0,986.92,29.779999,3998498
135404576,0,986.89996,29.779999,3998498
135417505,0,986.91,29.779999,3998498
135438743,0,986.94995,29.769999,3998498
135448909,0,986.88995,29.769999,3998498
135460647,0,986.89996,29.769999,3998498
135484595,0,986.95996,29.779999,3998498
135496760,0,986.92,29.779999,3998498
135506445,0,986.92,29.779999,3998498
135527868,0,986.94,29.779999,3998498
135538105,0,986.89996,29.779999,3998498
135549461,0,986.93,29.779999,3998498
135570435,0,986.92,29.779999,3998498
135581331,0,986.89996,29.779999,3998498
135591537,0,986.86,29.779999,3998498
135613451,0,986.88995,29.789999,3998498
135623437,0,986.92,29.789999,3998498
135634213,0,986.93,29.789999,3998498
135655437,0,986.88,29.789999,3998498
135665951,0,986.92,29.789999,3998498
135677444,0,986.94995,29.789999,3998498
135698050,0,986.98,29.789999,3998498
135709392,0,986.86,29.789999,3998498
135722366,0,986.91,29.789999,3998498
135746065,0,986.98,29.789999,3998498
135757393,0,986.94,29.789999,3998498
135767914,0,986.91,29.789999,3998498
135789410,0,986.89996,29.789999,3998498
135799437,0,986.87,29.789999,3998498
135810854,0,986.91,29.789999,3998498
135833727,0,986.89996,29.789999,3998498
135845434,0,986.94,29.789999,3998498
135857813,0,986.93,29.789999,3998498
135881995,0,986.93,29.8,3998498
135893327,0,986.94995,29.8,3998498
135903437,0,986.94,29.8,3998498
135925443,0,986.94,29.789999,3998498
135935877,0,986.94,29.789999,3998498
135946472,0,986.92,29.789999,3998498
135967448,0,986.95996,29.8,3998498
135977690,0,986.91,29.8,3998498
135989460,0,986.94995,29.8,3998498
136013368,0,986.92,29.8,3998498
136023546,0,986.94995,29.8,3998498
136033946,0,986.89996,29.8,3998498
136054446,0,986.88995,29.8,3998498
136066104,0,986.94,29.8,3998498
136077433,0,986.94995,29.8,3998498
136098437,0,986.93,29.8,3998498
136109443,0,986.91,29.8,3998498
136119437,0,986.86,29.8,3998498
136141435,0,986.92,29.8,3998498
136152835,0,986.88995,29.8,3998498
136162899,0,986.92,29.8,3998498
136184504,0,986.92,29.8,3998498
136194512,0,986.91,29.8,3998498
136206193,0,986.92,29.8,3998498
136226944,0,986.92,29.8,3998498
136238141,0,986.97,29.8,3998498
136248852,0,986.88995,29.8,3998498
136270151,0,986.94,29.81,3998498
136280447,0,986.87,29.81,3998498
