timestamp,noutputs,output[0],output[1],output[2],output[3],output[4],output[5],output[6],output[7],output[8],output[9],output[10],output[11],output[12],output[13],output[14],output[15]
109423646,8,1071.0,1168.0,1144.0,1095.0,1103.0,1136.0,0.0,0.0,0.0,0.0,0.0,0.0,0.0,0.0,0.0,0.0
110312413,8,1069.0,1170.0,1152.0,1087.0,1108.0,1131.0,0.0,0.0,0.0,0.0,0.0,0.0,0.0,0.0,0.0,0.0
110352144,8,1067.0,1172.0,1151.0,1088.0,1105.0,1134.0,0.0,0.0,0.0,0.0,0.0,0.0,0.0,0.0,0.0,0.0
110505254,8,1074.0,1165.0,1143.0,1096.0,1107.0,1132.0,0.0,0.0,0.0,0.0,0.0,0.0,0.0,0.0,0.0,0.0
110549176,8,1071.0,1168.0,1149.0,1090.0,1104.0,1135.0,0.0,0.0,0.0,0.0,0.0,0.0,0.0,0.0,0.0,0.0
110616896,8,1070.0,1169.0,1152.0,1087.0,1106.0,1133.0,0.0,0.0,0.0,0.0,0.0,0.0,0.0,0.0,0.0,0.0
110661200,8,1071.0,1168.0,1148.0,1091.0,1106.0,1133.0,0.0,0.0,0.0,0.0,0.0,0.0,0.0,0.0,0.0,0.0
110704888,8,1069.0,1170.0,1147.0,1092.0,1108.0,1131.0,0.0,0.0,0.0,0.0,0.0,0.0,0.0,0.0,0.0,0.0
110772870,8,1068.0,1171.0,1147.0,1092.0,1107.0,1132.0,0.0,0.0,0.0,0.0,0.0,0.0,0.0,0.0,0.0,0.0
110821184,8,1072.0,1168.0,1143.0,1096.0,1104.0,1135.0,0.0,0.0,0.0,0.0,0.0,0.0,0.0,0.0,0.0,0.0
110865185,8,1073.0,1166.0,1147.0,1092.0,1104.0,1135.0,0.0,0.0,0.0,0.0,0.0,0.0,0.0,0.0,0.0,0.0
111141758,8,1075.0,1164.0,1144.0,1095.0,1105.0,1134.0,0.0,0.0,0.0,0.0,0.0,0.0,0.0,0.0,0.0,0.0
111185747,8,1073.0,1166.0,1142.0,1097.0,1106.0,1133.0,0.0,0.0,0.0,0.0,0.0,0.0,0.0,0.0,0.0,0.0
111233708,8,1078.0,1161.0,1143.0,1096.0,1106.0,1133.0,0.0,0.0,0.0,0.0,0.0,0.0,0.0,0.0,0.0,0.0
111301690,8,1066.0,1173.0,1151.0,1088.0,1105.0,1134.0,0.0,0.0,0.0,0.0,0.0,0.0,0.0,0.0,0.0,0.0
111341721,8,1066.0,1173.0,1154.0,1085.0,1107.0,1132.0,0.0,0.0,0.0,0.0,0.0,0.0,0.0,0.0,0.0,0.0
111389696,8,1065.0,1174.0,1154.0,1085.0,1106.0,1133.0,0.0,0.0,0.0,0.0,0.0,0.0,0.0,0.0,0.0,0.0
111606487,8,1070.0,1169.0,1149.0,1090.0,1105.0,1134.0,0.0,0.0,0.0,0.0,0.0,0.0,0.0,0.0,0.0,0.0
111666797,8,1067.0,1172.0,1147.0,1092.0,1103.0,1136.0,0.0,0.0,0.0,0.0,0.0,0.0,0.0,0.0,0.0,0.0
111714758,8,1073.0,1169.0,1149.0,1090.0,1104.0,1135.0,0.0,0.0,0.0,0.0,0.0,0.0,0.0,0.0,0.0,0.0
111858780,8,1076.0,1163.0,1141.0,1098.0,1106.0,1133.0,0.0,0.0,0.0,0.0,0.0,0.0,0.0,0.0,0.0,0.0
112339547,8,1074.0,1165.0,1143.0,1096.0,1106.0,1133.0,0.0,0.0,0.0,0.0,0.0,0.0,0.0,0.0,0.0,0.0
112387340,8,1077.0,1162.0,1142.0,1097.0,1104.0,1135.0,0.0,0.0,0.0,0.0,0.0,0.0,0.0,0.0,0.0,0.0
112431537,8,1079.0,1161.0,1145.0,1094.0,1106.0,1133.0,0.0,0.0,0.0,0.0,0.0,0.0,0.0,0.0,0.0,0.0
112499588,8,1064.0,1174.0,1149.0,1090.0,1107.0,1132.0,0.0,0.0,0.0,0.0,0.0,0.0,0.0,0.0,0.0,0.0
112747315,8,1075.0,1164.0,1145.0,1094.0,1102.0,1137.0,0.0,0.0,0.0,0.0,0.0,0.0,0.0,0.0,0.0,0.0
112812435,8,1068.0,1171.0,1145.0,1094.0,1102.0,1137.0,0.0,0.0,0.0,0.0,0.0,0.0,0.0,0.0,0.0,0.0
112856071,8,1066.0,1173.0,1149.0,1090.0,1104.0,1135.0,0.0,0.0,0.0,0.0,0.0,0.0,0.0,0.0,0.0,0.0
112900442,8,1068.0,1171.0,1150.0,1089.0,1106.0,1133.0,0.0,0.0,0.0,0.0,0.0,0.0,0.0,0.0,0.0,0.0
112964069,8,1073.0,1166.0,1152.0,1087.0,1106.0,1133.0,0.0,0.0,0.0,0.0,0.0,0.0,0.0,0.0,0.0,0.0
113012064,8,1071.0,1168.0,1149.0,1090.0,1103.0,1136.0,0.0,0.0,0.0,0.0,0.0,0.0,0.0,0.0,0.0,0.0
113060121,8,1063.0,1176.0,1149.0,1090.0,1108.0,1131.0,0.0,0.0,0.0,0.0,0.0,0.0,0.0,0.0,0.0,0.0
113124124,8,1072.0,1167.0,1145.0,1094.0,1107.0,1132.0,0.0,0.0,0.0,0.0,0.0,0.0,0.0,0.0,0.0,0.0
113168057,8,1076.0,1163.0,1144.0,1095.0,1104.0,1135.0,0.0,0.0,0.0,0.0,0.0,0.0,0.0,0.0,0.0,0.0
113208481,8,1075.0,1164.0,1146.0,1093.0,1103.0,1136.0,0.0,0.0,0.0,0.0,0.0,0.0,0.0,0.0,0.0,0.0
113276082,8,1064.0,1175.0,1150.0,1089.0,1103.0,1136.0,0.0,0.0,0.0,0.0,0.0,0.0,0.0,0.0,0.0,0.0
113320119,8,1070.0,1169.0,1150.0,1089.0,1109.0,1130.0,0.0,0.0,0.0,0.0,0.0,0.0,0.0,0.0,0.0,0.0
113388437,8,1081.0,1158.0,1144.0,1095.0,1107.0,1132.0,0.0,0.0,0.0,0.0,0.0,0.0,0.0,0.0,0.0,0.0
113436103,8,1075.0,1164.0,1148.0,1091.0,1103.0,1136.0,0.0,0.0,0.0,0.0,0.0,0.0,0.0,0.0,0.0,0.0
113476941,8,1072.0,1167.0,1141.0,1098.0,1105.0,1134.0,0.0,0.0,0.0,0.0,0.0,0.0,0.0,0.0,0.0,0.0
113524882,8,1074.0,1165.0,1141.0,1098.0,1108.0,1131.0,0.0,0.0,0.0,0.0,0.0,0.0,0.0,0.0,0.0,0.0
113589140,8,1065.0,1174.0,1148.0,1091.0,1106.0,1133.0,0.0,0.0,0.0,0.0,0.0,0.0,0.0,0.0,0.0,0.0
113636892,8,1068.0,1171.0,1149.0,1090.0,1099.0,1140.0,0.0,0.0,0.0,0.0,0.0,0.0,0.0,0.0,0.0,0.0
113684908,8,1075.0,1164.0,1149.0,1090.0,1105.0,1134.0,0.0,0.0,0.0,0.0,0.0,0.0,0.0,0.0,0.0,0.0
113749581,8,1070.0,1169.0,1145.0,1094.0,1104.0,1135.0,0.0,0.0,0.0,0.0,0.0,0.0,0.0,0.0,0.0,0.0
113792937,8,1070.0,1169.0,1151.0,1088.0,1110.0,1129.0,0.0,0.0,0.0,0.0,0.0,0.0,0.0,0.0,0.0,0.0
113836916,8,1068.0,1171.0,1150.0,1092.0,1106.0,1133.0,0.0,0.0,0.0,0.0,0.0,0.0,0.0,0.0,0.0,0.0
113904924,8,1074.0,1165.0,1149.0,1090.0,1105.0,1134.0,0.0,0.0,0.0,0.0,0.0,0.0,0.0,0.0,0.0,0.0
113945930,8,1071.0,1168.0,1142.0,1097.0,1102.0,1137.0,0.0,0.0,0.0,0.0,0.0,0.0,0.0,0.0,0.0,0.0
113989719,8,1075.0,1165.0,1143.0,1096.0,1106.0,1133.0,0.0,0.0,0.0,0.0,0.0,0.0,0.0,0.0,0.0,0.0
114038036,8,1077.0,1162.0,1147.0,1092.0,1103.0,1136.0,0.0,0.0,0.0,0.0,0.0,0.0,0.0,0.0,0.0,0.0
114105766,8,1067.0,1172.0,1153.0,1086.0,1103.0,1136.0,0.0,0.0,0.0,0.0,0.0,0.0,0.0,0.0,0.0,0.0
114146099,8,1063.0,1176.0,1152.0,1087.0,1105.0,1134.0,0.0,0.0,0.0,0.0,0.0,0.0,0.0,0.0,0.0,0.0
114213725,8,1075.0,1164.0,1145.0,1094.0,1103.0,1136.0,0.0,0.0,0.0,0.0,0.0,0.0,0.0,0.0,0.0,0.0
114254073,8,1076.0,1163.0,1142.0,1097.0,1107.0,1132.0,0.0,0.0,0.0,0.0,0.0,0.0,0.0,0.0,0.0,0.0
114317735,8,1066.0,1173.0,1153.0,1086.0,1108.0,1131.0,0.0,0.0,0.0,0.0,0.0,0.0,0.0,0.0,0.0,0.0
114365730,8,1064.0,1175.0,1149.0,1090.0,1104.0,1135.0,0.0,0.0,0.0,0.0,0.0,0.0,0.0,0.0,0.0,0.0
114409667,8,1062.0,1177.0,1149.0,1090.0,1102.0,1137.0,0.0,0.0,0.0,0.0,0.0,0.0,0.0,0.0,0.0,0.0
114473649,8,1073.0,1166.0,1143.0,1096.0,1104.0,1135.0,0.0,0.0,0.0,0.0,0.0,0.0,0.0,0.0,0.0,0.0
114521692,8,1076.0,1163.0,1145.0,1094.0,1105.0,1134.0,0.0,0.0,0.0,0.0,0.0,0.0,0.0,0.0,0.0,0.0
114566486,8,1075.0,1164.0,1147.0,1092.0,1104.0,1135.0,0.0,0.0,0.0,0.0,0.0,0.0,0.0,0.0,0.0,0.0
114630791,8,1066.0,1173.0,1153.0,1086.0,1103.0,1136.0,0.0,0.0,0.0,0.0,0.0,0.0,0.0,0.0,0.0,0.0
114674757,8,1066.0,1174.0,1148.0,1091.0,1103.0,1136.0,0.0,0.0,0.0,0.0,0.0,0.0,0.0,0.0,0.0,0.0
114722861,8,1067.0,1172.0,1146.0,1093.0,1106.0,1133.0,0.0,0.0,0.0,0.0,0.0,0.0,0.0,0.0,0.0,0.0
114770809,8,1074.0,1165.0,1145.0,1094.0,1102.0,1137.0,0.0,0.0,0.0,0.0,0.0,0.0,0.0,0.0,0.0,0.0
114818527,8,1075.0,1164.0,1145.0,1094.0,1100.0,1139.0,0.0,0.0,0.0,0.0,0.0,0.0,0.0,0.0,0.0,0.0
114882492,8,1066.0,1173.0,1149.0,1090.0,1102.0,1137.0,0.0,0.0,0.0,0.0,0.0,0.0,0.0,0.0,0.0,0.0
114926776,8,1067.0,1172.0,1153.0,1086.0,1109.0,1130.0,0.0,0.0,0.0,0.0,0.0,0.0,0.0,0.0,0.0,0.0
114994745,8,1076.0,1163.0,1145.0,1094.0,1104.0,1135.0,0.0,0.0,0.0,0.0,0.0,0.0,0.0,0.0,0.0,0.0
115042530,8,1076.0,1163.0,1145.0,1094.0,1104.0,1135.0,0.0,0.0,0.0,0.0,0.0,0.0,0.0,0.0,0.0,0.0
115086519,8,1075.0,1164.0,1142.0,1097.0,1106.0,1133.0,0.0,0.0,0.0,0.0,0.0,0.0,0.0,0.0,0.0,0.0
115151324,8,1064.0,1175.0,1154.0,1085.0,1102.0,1137.0,0.0,0.0,0.0,0.0,0.0,0.0,0.0,0.0,0.0,0.0
115199569,8,1065.0,1174.0,1147.0,1092.0,1105.0,1134.0,0.0,0.0,0.0,0.0,0.0,0.0,0.0,0.0,0.0,0.0
115243652,8,1067.0,1172.0,1146.0,1093.0,1106.0,1133.0,0.0,0.0,0.0,0.0,0.0,0.0,0.0,0.0,0.0,0.0
115291616,8,1071.0,1168.0,1148.0,1091.0,1101.0,1138.0,0.0,0.0,0.0,0.0,0.0,0.0,0.0,0.0,0.0,0.0
115339550,8,1072.0,1167.0,1147.0,1092.0,1100.0,1139.0,0.0,0.0,0.0,0.0,0.0,0.0,0.0,0.0,0.0,0.0
115411690,8,1064.0,1175.0,1150.0,1089.0,1102.0,1137.0,0.0,0.0,0.0,0.0,0.0,0.0,0.0,0.0,0.0,0.0
115455315,8,1061.0,1178.0,1154.0,1085.0,1107.0,1132.0,0.0,0.0,0.0,0.0,0.0,0.0,0.0,0.0,0.0,0.0
115499547,8,1065.0,1174.0,1151.0,1088.0,1106.0,1133.0,0.0,0.0,0.0,0.0,0.0,0.0,0.0,0.0,0.0,0.0
115563309,8,1074.0,1165.0,1145.0,1094.0,1106.0,1133.0,0.0,0.0,0.0,0.0,0.0,0.0,0.0,0.0,0.0,0.0
115611261,8,1075.0,1164.0,1144.0,1095.0,1105.0,1134.0,0.0,0.0,0.0,0.0,0.0,0.0,0.0,0.0,0.0,0.0
115651614,8,1073.0,1166.0,1143.0,1096.0,1103.0,1136.0,0.0,0.0,0.0,0.0,0.0,0.0,0.0,0.0,0.0,0.0
115720127,8,1064.0,1175.0,1148.0,1091.0,1106.0,1133.0,0.0,0.0,0.0,0.0,0.0,0.0,0.0,0.0,0.0,0.0
115764091,8,1066.0,1173.0,1152.0,1087.0,1105.0,1134.0,0.0,0.0,0.0,0.0,0.0,0.0,0.0,0.0,0.0,0.0
115812118,8,1067.0,1172.0,1153.0,1086.0,1105.0,1134.0,0.0,0.0,0.0,0.0,0.0,0.0,0.0,0.0,0.0,0.0
115872098,8,1076.0,1164.0,1144.0,1095.0,1103.0,1136.0,0.0,0.0,0.0,0.0,0.0,0.0,0.0,0.0,0.0,0.0
115916385,8,1074.0,1165.0,1142.0,1097.0,1108.0,1131.0,0.0,0.0,0.0,0.0,0.0,0.0,0.0,0.0,0.0,0.0
115980132,8,1063.0,1176.0,1152.0,1087.0,1107.0,1132.0,0.0,0.0,0.0,0.0,0.0,0.0,0.0,0.0,0.0,0.0
116020943,8,1065.0,1174.0,1150.0,1089.0,1105.0,1134.0,0.0,0.0,0.0,0.0,0.0,0.0,0.0,0.0,0.0,0.0
116084115,8,1075.0,1164.0,1142.0,1097.0,1104.0,1135.0,0.0,0.0,0.0,0.0,0.0,0.0,0.0,0.0,0.0,0.0
116128412,8,1076.0,1163.0,1142.0,1097.0,1103.0,1136.0,0.0,0.0,0.0,0.0,0.0,0.0,0.0,0.0,0.0,0.0
116192420,8,1070.0,1169.0,1149.0,1090.0,1104.0,1135.0,0.0,0.0,0.0,0.0,0.0,0.0,0.0,0.0,0.0,0.0
116240398,8,1064.0,1175.0,1154.0,1085.0,1106.0,1133.0,0.0,0.0,0.0,0.0,0.0,0.0,0.0,0.0,0.0,0.0
116285169,8,1063.0,1176.0,1156.0,1083.0,1103.0,1136.0,0.0,0.0,0.0,0.0,0.0,0.0,0.0,0.0,0.0,0.0
116352916,8,1076.0,1163.0,1146.0,1093.0,1104.0,1135.0,0.0,0.0,0.0,0.0,0.0,0.0,0.0,0.0,0.0,0.0
116401149,8,1074.0,1165.0,1147.0,1092.0,1104.0,1135.0,0.0,0.0,0.0,0.0,0.0,0.0,0.0,0.0,0.0,0.0
116449145,8,1069.0,1171.0,1145.0,1094.0,1106.0,1133.0,0.0,0.0,0.0,0.0,0.0,0.0,0.0,0.0,0.0,0.0
116496946,8,1068.0,1171.0,1149.0,1090.0,1107.0,1132.0,0.0,0.0,0.0,0.0,0.0,0.0,0.0,0.0,0.0,0.0
116540948,8,1072.0,1167.0,1150.0,1089.0,1103.0,1136.0,0.0,0.0,0.0,0.0,0.0,0.0,0.0,0.0,0.0,0.0
116612917,8,1077.0,1162.0,1142.0,1097.0,1105.0,1134.0,0.0,0.0,0.0,0.0,0.0,0.0,0.0,0.0,0.0,0.0
116661209,8,1076.0,1163.0,1146.0,1093.0,1102.0,1137.0,0.0,0.0,0.0,0.0,0.0,0.0,0.0,0.0,0.0,0.0
116705284,8,1076.0,1163.0,1146.0,1093.0,1108.0,1131.0,0.0,0.0,0.0,0.0,0.0,0.0,0.0,0.0,0.0,0.0
116752857,8,1075.0,1164.0,1147.0,1092.0,1109.0,1130.0,0.0,0.0,0.0,0.0,0.0,0.0,0.0,0.0,0.0,0.0
116817281,8,1068.0,1171.0,1152.0,1087.0,1104.0,1135.0,0.0,0.0,0.0,0.0,0.0,0.0,0.0,0.0,0.0,0.0
116861147,8,1064.0,1175.0,1147.0,1092.0,1101.0,1138.0,0.0,0.0,0.0,0.0,0.0,0.0,0.0,0.0,0.0,0.0
116905847,8,1066.0,1173.0,1146.0,1093.0,1103.0,1136.0,0.0,0.0,0.0,0.0,0.0,0.0,0.0,0.0,0.0,0.0
116953689,8,1076.0,1163.0,1148.0,1091.0,1106.0,1134.0,0.0,0.0,0.0,0.0,0.0,0.0,0.0,0.0,0.0,0.0
117021692,8,1069.0,1170.0,1149.0,1090.0,1106.0,1133.0,0.0,0.0,0.0,0.0,0.0,0.0,0.0,0.0,0.0,0.0
117066028,8,1066.0,1173.0,1154.0,1085.0,1104.0,1135.0,0.0,0.0,0.0,0.0,0.0,0.0,0.0,0.0,0.0,0.0
117109672,8,1065.0,1174.0,1152.0,1087.0,1106.0,1133.0,0.0,0.0,0.0,0.0,0.0,0.0,0.0,0.0,0.0,0.0
117177735,8,1077.0,1162.0,1147.0,1092.0,1105.0,1134.0,0.0,0.0,0.0,0.0,0.0,0.0,0.0,0.0,0.0,0.0
117221942,8,1076.0,1163.0,1142.0,1097.0,1107.0,1132.0,0.0,0.0,0.0,0.0,0.0,0.0,0.0,0.0,0.0,0.0
117285942,8,1064.0,1175.0,1152.0,1087.0,1108.0,1131.0,0.0,0.0,0.0,0.0,0.0,0.0,0.0,0.0,0.0,0.0
117325954,8,1066.0,1173.0,1150.0,1089.0,1104.0,1135.0,0.0,0.0,0.0,0.0,0.0,0.0,0.0,0.0,0.0,0.0
117373705,8,1067.0,1172.0,1150.0,1089.0,1102.0,1137.0,0.0,0.0,0.0,0.0,0.0,0.0,0.0,0.0,0.0,0.0
117421694,8,1065.0,1174.0,1154.0,1085.0,1106.0,1133.0,0.0,0.0,0.0,0.0,0.0,0.0,0.0,0.0,0.0,0.0
117486474,8,1075.0,1164.0,1146.0,1093.0,1107.0,1132.0,0.0,0.0,0.0,0.0,0.0,0.0,0.0,0.0,0.0,0.0
117530767,8,1075.0,1164.0,1150.0,1089.0,1105.0,1134.0,0.0,0.0,0.0,0.0,0.0,0.0,0.0,0.0,0.0,0.0
117602854,8,1075.0,1164.0,1150.0,1089.0,1103.0,1136.0,0.0,0.0,0.0,0.0,0.0,0.0,0.0,0.0,0.0,0.0
117650512,8,1075.0,1164.0,1148.0,1091.0,1104.0,1135.0,0.0,0.0,0.0,0.0,0.0,0.0,0.0,0.0,0.0,0.0
117694507,8,1072.0,1167.0,1145.0,1094.0,1107.0,1132.0,0.0,0.0,0.0,0.0,0.0,0.0,0.0,0.0,0.0,0.0
117738512,8,1077.0,1162.0,1141.0,1098.0,1107.0,1132.0,0.0,0.0,0.0,0.0,0.0,0.0,0.0,0.0,0.0,0.0
117810566,8,1067.0,1172.0,1152.0,1087.0,1108.0,1131.0,0.0,0.0,0.0,0.0,0.0,0.0,0.0,0.0,0.0,0.0
117854545,8,1064.0,1175.0,1149.0,1090.0,1103.0,1136.0,0.0,0.0,0.0,0.0,0.0,0.0,0.0,0.0,0.0,0.0
117894874,8,1064.0,1175.0,1152.0,1087.0,1104.0,1135.0,0.0,0.0,0.0,0.0,0.0,0.0,0.0,0.0,0.0,0.0
117962518,8,1074.0,1165.0,1143.0,1096.0,1103.0,1136.0,0.0,0.0,0.0,0.0,0.0,0.0,0.0,0.0,0.0,0.0
118006496,8,1077.0,1162.0,1147.0,1092.0,1107.0,1132.0,0.0,0.0,0.0,0.0,0.0,0.0,0.0,0.0,0.0,0.0
118051258,8,1075.0,1164.0,1148.0,1091.0,1106.0,1133.0,0.0,0.0,0.0,0.0,0.0,0.0,0.0,0.0,0.0,0.0
118123302,8,1072.0,1167.0,1152.0,1087.0,1104.0,1135.0,0.0,0.0,0.0,0.0,0.0,0.0,0.0,0.0,0.0,0.0
118167546,8,1073.0,1166.0,1147.0,1092.0,1104.0,1135.0,0.0,0.0,0.0,0.0,0.0,0.0,0.0,0.0,0.0,0.0
118211336,8,1071.0,1168.0,1144.0,1095.0,1108.0,1131.0,0.0,0.0,0.0,0.0,0.0,0.0,0.0,0.0,0.0,0.0
118275303,8,1070.0,1169.0,1149.0,1090.0,1109.0,1130.0,0.0,0.0,0.0,0.0,0.0,0.0,0.0,0.0,0.0,0.0
118315598,8,1076.0,1163.0,1146.0,1093.0,1105.0,1134.0,0.0,0.0,0.0,0.0,0.0,0.0,0.0,0.0,0.0,0.0
118363962,8,1067.0,1172.0,1150.0,1089.0,1104.0,1135.0,0.0,0.0,0.0,0.0,0.0,0.0,0.0,0.0,0.0,0.0
118435616,8,1075.0,1164.0,1144.0,1095.0,1103.0,1136.0,0.0,0.0,0.0,0.0,0.0,0.0,0.0,0.0,0.0,0.0
118475295,8,1074.0,1165.0,1146.0,1093.0,1104.0,1135.0,0.0,0.0,0.0,0.0,0.0,0.0,0.0,0.0,0.0,0.0
118539582,8,1066.0,1174.0,1151.0,1088.0,1105.0,1134.0,0.0,0.0,0.0,0.0,0.0,0.0,0.0,0.0,0.0,0.0
118587314,8,1066.0,1173.0,1154.0,1085.0,1106.0,1133.0,0.0,0.0,0.0,0.0,0.0,0.0,0.0,0.0,0.0,0.0
118635339,8,1069.0,1170.0,1151.0,1088.0,1105.0,1134.0,0.0,0.0,0.0,0.0,0.0,0.0,0.0,0.0,0.0,0.0
118676119,8,1065.0,1175.0,1150.0,1089.0,1107.0,1132.0,0.0,0.0,0.0,0.0,0.0,0.0,0.0,0.0,0.0,0.0
118744103,8,1074.0,1165.0,1146.0,1093.0,1109.0,1130.0,0.0,0.0,0.0,0.0,0.0,0.0,0.0,0.0,0.0,0.0
118784318,8,1076.0,1163.0,1144.0,1095.0,1106.0,1133.0,0.0,0.0,0.0,0.0,0.0,0.0,0.0,0.0,0.0,0.0
118852361,8,1070.0,1169.0,1150.0,1089.0,1105.0,1134.0,0.0,0.0,0.0,0.0,0.0,0.0,0.0,0.0,0.0,0.0
118896505,8,1068.0,1171.0,1146.0,1093.0,1099.0,1140.0,0.0,0.0,0.0,0.0,0.0,0.0,0.0,0.0,0.0,0.0
118944449,8,1075.0,1164.0,1144.0,1095.0,1104.0,1135.0,0.0,0.0,0.0,0.0,0.0,0.0,0.0,0.0,0.0,0.0
119012458,8,1065.0,1174.0,1149.0,1090.0,1106.0,1133.0,0.0,0.0,0.0,0.0,0.0,0.0,0.0,0.0,0.0,0.0
119056125,8,1068.0,1171.0,1150.0,1089.0,1106.0,1133.0,0.0,0.0,0.0,0.0,0.0,0.0,0.0,0.0,0.0,0.0
119100347,8,1065.0,1174.0,1158.0,1081.0,1106.0,1133.0,0.0,0.0,0.0,0.0,0.0,0.0,0.0,0.0,0.0,0.0
119144110,8,1064.0,1175.0,1150.0,1089.0,1106.0,1133.0,0.0,0.0,0.0,0.0,0.0,0.0,0.0,0.0,0.0,0.0
119212135,8,1076.0,1163.0,1145.0,1094.0,1106.0,1133.0,0.0,0.0,0.0,0.0,0.0,0.0,0.0,0.0,0.0,0.0
119260383,8,1069.0,1170.0,1147.0,1092.0,1109.0,1130.0,0.0,0.0,0.0,0.0,0.0,0.0,0.0,0.0,0.0,0.0
119304924,8,1070.0,1169.0,1146.0,1093.0,1104.0,1135.0,0.0,0.0,0.0,0.0,0.0,0.0,0.0,0.0,0.0,0.0
119369150,8,1070.0,1169.0,1147.0,1092.0,1106.0,1133.0,0.0,0.0,0.0,0.0,0.0,0.0,0.0,0.0,0.0,0.0
119412864,8,1072.0,1167.0,1145.0,1094.0,1103.0,1136.0,0.0,0.0,0.0,0.0,0.0,0.0,0.0,0.0,0.0,0.0
119460882,8,1077.0,1163.0,1148.0,1091.0,1107.0,1132.0,0.0,0.0,0.0,0.0,0.0,0.0,0.0,0.0,0.0,0.0
119524891,8,1070.0,1169.0,1151.0,1088.0,1108.0,1131.0,0.0,0.0,0.0,0.0,0.0,0.0,0.0,0.0,0.0,0.0
119572883,8,1068.0,1171.0,1153.0,1086.0,1105.0,1134.0,0.0,0.0,0.0,0.0,0.0,0.0,0.0,0.0,0.0,0.0
119621140,8,1063.0,1176.0,1155.0,1084.0,1105.0,1134.0,0.0,0.0,0.0,0.0,0.0,0.0,0.0,0.0,0.0,0.0
119665147,8,1066.0,1173.0,1149.0,1090.0,1107.0,1132.0,0.0,0.0,0.0,0.0,0.0,0.0,0.0,0.0,0.0,0.0
119736939,8,1071.0,1168.0,1150.0,1089.0,1106.0,1133.0,0.0,0.0,0.0,0.0,0.0,0.0,0.0,0.0,0.0,0.0
119785153,8,1064.0,1175.0,1152.0,1087.0,1110.0,1129.0,0.0,0.0,0.0,0.0,0.0,0.0,0.0,0.0,0.0,0.0
119829162,8,1066.0,1173.0,1149.0,1090.0,1105.0,1134.0,0.0,0.0,0.0,0.0,0.0,0.0,0.0,0.0,0.0,0.0
119893740,8,1074.0,1165.0,1145.0,1094.0,1104.0,1135.0,0.0,0.0,0.0,0.0,0.0,0.0,0.0,0.0,0.0,0.0
119937717,8,1076.0,1163.0,1143.0,1096.0,1102.0,1137.0,0.0,0.0,0.0,0.0,0.0,0.0,0.0,0.0,0.0,0.0
120001749,8,1068.0,1171.0,1148.0,1091.0,1105.0,1134.0,0.0,0.0,0.0,0.0,0.0,0.0,0.0,0.0,0.0,0.0
120041734,8,1075.0,1164.0,1151.0,1088.0,1109.0,1130.0,0.0,0.0,0.0,0.0,0.0,0.0,0.0,0.0,0.0,0.0
120085689,8,1069.0,1170.0,1150.0,1089.0,1105.0,1134.0,0.0,0.0,0.0,0.0,0.0,0.0,0.0,0.0,0.0,0.0
120153718,8,1076.0,1163.0,1149.0,1090.0,1105.0,1134.0,0.0,0.0,0.0,0.0,0.0,0.0,0.0,0.0,0.0,0.0
120193694,8,1071.0,1169.0,1146.0,1093.0,1105.0,1134.0,0.0,0.0,0.0,0.0,0.0,0.0,0.0,0.0,0.0,0.0
120257734,8,1066.0,1173.0,1152.0,1087.0,1107.0,1132.0,0.0,0.0,0.0,0.0,0.0,0.0,0.0,0.0,0.0,0.0
120301689,8,1074.0,1165.0,1146.0,1093.0,1107.0,1132.0,0.0,0.0,0.0,0.0,0.0,0.0,0.0,0.0,0.0,0.0
120349975,8,1065.0,1174.0,1150.0,1089.0,1103.0,1136.0,0.0,0.0,0.0,0.0,0.0,0.0,0.0,0.0,0.0,0.0
120397764,8,1067.0,1173.0,1152.0,1087.0,1106.0,1133.0,0.0,0.0,0.0,0.0,0.0,0.0,0.0,0.0,0.0,0.0
120466487,8,1075.0,1164.0,1143.0,1096.0,1103.0,1136.0,0.0,0.0,0.0,0.0,0.0,0.0,0.0,0.0,0.0,0.0
120510475,8,1077.0,1162.0,1146.0,1093.0,1105.0,1134.0,0.0,0.0,0.0,0.0,0.0,0.0,0.0,0.0,0.0,0.0
120554500,8,1075.0,1164.0,1151.0,1088.0,1106.0,1133.0,0.0,0.0,0.0,0.0,0.0,0.0,0.0,0.0,0.0,0.0
120626507,8,1075.0,1164.0,1148.0,1091.0,1104.0,1135.0,0.0,0.0,0.0,0.0,0.0,0.0,0.0,0.0,0.0,0.0
120670872,8,1073.0,1166.0,1150.0,1089.0,1105.0,1134.0,0.0,0.0,0.0,0.0,0.0,0.0,0.0,0.0,0.0,0.0
120714819,8,1070.0,1169.0,1147.0,1092.0,1106.0,1133.0,0.0,0.0,0.0,0.0,0.0,0.0,0.0,0.0,0.0,0.0
120762783,8,1076.0,1163.0,1142.0,1097.0,1106.0,1133.0,0.0,0.0,0.0,0.0,0.0,0.0,0.0,0.0,0.0,0.0
120834815,8,1064.0,1175.0,1153.0,1086.0,1108.0,1131.0,0.0,0.0,0.0,0.0,0.0,0.0,0.0,0.0,0.0,0.0
120882781,8,1065.0,1174.0,1149.0,1090.0,1103.0,1136.0,0.0,0.0,0.0,0.0,0.0,0.0,0.0,0.0,0.0,0.0
120930781,8,1071.0,1168.0,1144.0,1095.0,1102.0,1137.0,0.0,0.0,0.0,0.0,0.0,0.0,0.0,0.0,0.0,0.0
120978759,8,1074.0,1165.0,1146.0,1093.0,1106.0,1133.0,0.0,0.0,0.0,0.0,0.0,0.0,0.0,0.0,0.0,0.0
121026533,8,1075.0,1164.0,1149.0,1090.0,1106.0,1132.0,0.0,0.0,0.0,0.0,0.0,0.0,0.0,0.0,0.0,0.0
121087325,8,1066.0,1173.0,1155.0,1084.0,1104.0,1135.0,0.0,0.0,0.0,0.0,0.0,0.0,0.0,0.0,0.0,0.0
121135294,8,1065.0,1175.0,1156.0,1083.0,1105.0,1134.0,0.0,0.0,0.0,0.0,0.0,0.0,0.0,0.0,0.0,0.0
121203333,8,1075.0,1164.0,1148.0,1091.0,1104.0,1135.0,0.0,0.0,0.0,0.0,0.0,0.0,0.0,0.0,0.0,0.0
121247631,8,1074.0,1165.0,1149.0,1090.0,1108.0,1131.0,0.0,0.0,0.0,0.0,0.0,0.0,0.0,0.0,0.0,0.0
121291328,8,1073.0,1166.0,1147.0,1092.0,1106.0,1133.0,0.0,0.0,0.0,0.0,0.0,0.0,0.0,0.0,0.0,0.0
121355631,8,1067.0,1172.0,1151.0,1088.0,1107.0,1132.0,0.0,0.0,0.0,0.0,0.0,0.0,0.0,0.0,0.0,0.0
121399569,8,1064.0,1175.0,1148.0,1091.0,1103.0,1136.0,0.0,0.0,0.0,0.0,0.0,0.0,0.0,0.0,0.0,0.0
121443597,8,1067.0,1172.0,1147.0,1092.0,1103.0,1136.0,0.0,0.0,0.0,0.0,0.0,0.0,0.0,0.0,0.0,0.0
121515653,8,1064.0,1175.0,1149.0,1090.0,1105.0,1134.0,0.0,0.0,0.0,0.0,0.0,0.0,0.0,0.0,0.0,0.0
121563654,8,1064.0,1175.0,1150.0,1089.0,1105.0,1134.0,0.0,0.0,0.0,0.0,0.0,0.0,0.0,0.0,0.0,0.0
121611291,8,1067.0,1172.0,1152.0,1087.0,1104.0,1135.0,0.0,0.0,0.0,0.0,0.0,0.0,0.0,0.0,0.0,0.0
121655334,8,1067.0,1172.0,1153.0,1086.0,1105.0,1134.0,0.0,0.0,0.0,0.0,0.0,0.0,0.0,0.0,0.0,0.0
121716428,8,1076.0,1163.0,1148.0,1091.0,1103.0,1136.0,0.0,0.0,0.0,0.0,0.0,0.0,0.0,0.0,0.0,0.0
121760069,8,1074.0,1165.0,1148.0,1091.0,1107.0,1132.0,0.0,0.0,0.0,0.0,0.0,0.0,0.0,0.0,0.0,0.0
121808149,8,1071.0,1168.0,1145.0,1094.0,1103.0,1136.0,0.0,0.0,0.0,0.0,0.0,0.0,0.0,0.0,0.0,0.0
121876081,8,1072.0,1167.0,1150.0,1089.0,1106.0,1133.0,0.0,0.0,0.0,0.0,0.0,0.0,0.0,0.0,0.0,0.0
121916063,8,1066.0,1173.0,1146.0,1093.0,1102.0,1137.0,0.0,0.0,0.0,0.0,0.0,0.0,0.0,0.0,0.0,0.0
121964095,8,1072.0,1167.0,1145.0,1094.0,1104.0,1135.0,0.0,0.0,0.0,0.0,0.0,0.0,0.0,0.0,0.0,0.0
122036078,8,1063.0,1176.0,1148.0,1091.0,1104.0,1135.0,0.0,0.0,0.0,0.0,0.0,0.0,0.0,0.0,0.0,0.0
122084138,8,1062.0,1177.0,1149.0,1090.0,1106.0,1133.0,0.0,0.0,0.0,0.0,0.0,0.0,0.0,0.0,0.0,0.0
122128168,8,1065.0,1174.0,1155.0,1084.0,1104.0,1135.0,0.0,0.0,0.0,0.0,0.0,0.0,0.0,0.0,0.0,0.0
122192084,8,1075.0,1164.0,1145.0,1094.0,1101.0,1138.0,0.0,0.0,0.0,0.0,0.0,0.0,0.0,0.0,0.0,0.0
122232879,8,1076.0,1163.0,1147.0,1092.0,1103.0,1136.0,0.0,0.0,0.0,0.0,0.0,0.0,0.0,0.0,0.0,0.0
122276893,8,1073.0,1166.0,1146.0,1093.0,1104.0,1135.0,0.0,0.0,0.0,0.0,0.0,0.0,0.0,0.0,0.0,0.0
122340875,8,1063.0,1176.0,1155.0,1084.0,1108.0,1131.0,0.0,0.0,0.0,0.0,0.0,0.0,0.0,0.0,0.0,0.0
122384879,8,1063.0,1176.0,1154.0,1085.0,1107.0,1132.0,0.0,0.0,0.0,0.0,0.0,0.0,0.0,0.0,0.0,0.0
122448956,8,1072.0,1168.0,1149.0,1090.0,1104.0,1135.0,0.0,0.0,0.0,0.0,0.0,0.0,0.0,0.0,0.0,0.0
122497144,8,1073.0,1166.0,1145.0,1094.0,1103.0,1136.0,0.0,0.0,0.0,0.0,0.0,0.0,0.0,0.0,0.0,0.0
122540885,8,1073.0,1166.0,1144.0,1095.0,1103.0,1136.0,0.0,0.0,0.0,0.0,0.0,0.0,0.0,0.0,0.0,0.0
122584931,8,1075.0,1164.0,1148.0,1091.0,1102.0,1137.0,0.0,0.0,0.0,0.0,0.0,0.0,0.0,0.0,0.0,0.0
122656947,8,1071.0,1169.0,1145.0,1094.0,1102.0,1137.0,0.0,0.0,0.0,0.0,0.0,0.0,0.0,0.0,0.0,0.0
122704887,8,1073.0,1166.0,1148.0,1091.0,1102.0,1137.0,0.0,0.0,0.0,0.0,0.0,0.0,0.0,0.0,0.0,0.0
122753182,8,1074.0,1165.0,1147.0,1092.0,1101.0,1138.0,0.0,0.0,0.0,0.0,0.0,0.0,0.0,0.0,0.0,0.0
122797219,8,1072.0,1167.0,1146.0,1093.0,1107.0,1132.0,0.0,0.0,0.0,0.0,0.0,0.0,0.0,0.0,0.0,0.0
122861725,8,1062.0,1177.0,1155.0,1084.0,1106.0,1133.0,0.0,0.0,0.0,0.0,0.0,0.0,0.0,0.0,0.0,0.0
122906084,8,1062.0,1177.0,1154.0,1085.0,1105.0,1134.0,0.0,0.0,0.0,0.0,0.0,0.0,0.0,0.0,0.0,0.0
122973706,8,1075.0,1164.0,1146.0,1093.0,1105.0,1134.0,0.0,0.0,0.0,0.0,0.0,0.0,0.0,0.0,0.0,0.0
123021748,8,1072.0,1167.0,1145.0,1094.0,1104.0,1135.0,0.0,0.0,0.0,0.0,0.0,0.0,0.0,0.0,0.0,0.0
123065649,8,1074.0,1165.0,1142.0,1097.0,1101.0,1138.0,0.0,0.0,0.0,0.0,0.0,0.0,0.0,0.0,0.0,0.0
123109930,8,1076.0,1163.0,1147.0,1092.0,1103.0,1136.0,0.0,0.0,0.0,0.0,0.0,0.0,0.0,0.0,0.0,0.0
123173700,8,1065.0,1174.0,1149.0,1090.0,1103.0,1136.0,0.0,0.0,0.0,0.0,0.0,0.0,0.0,0.0,0.0,0.0
123217739,8,1067.0,1172.0,1154.0,1085.0,1104.0,1135.0,0.0,0.0,0.0,0.0,0.0,0.0,0.0,0.0,0.0,0.0
123285697,8,1073.0,1166.0,1148.0,1091.0,1103.0,1136.0,0.0,0.0,0.0,0.0,0.0,0.0,0.0,0.0,0.0,0.0
123329719,8,1074.0,1165.0,1147.0,1092.0,1103.0,1136.0,0.0,0.0,0.0,0.0,0.0,0.0,0.0,0.0,0.0,0.0
123394755,8,1068.0,1171.0,1152.0,1087.0,1100.0,1139.0,0.0,0.0,0.0,0.0,0.0,0.0,0.0,0.0,0.0,0.0
123442804,8,1068.0,1171.0,1150.0,1089.0,1105.0,1134.0,0.0,0.0,0.0,0.0,0.0,0.0,0.0,0.0,0.0,0.0
123490495,8,1072.0,1167.0,1144.0,1095.0,1105.0,1134.0,0.0,0.0,0.0,0.0,0.0,0.0,0.0,0.0,0.0,0.0
123534515,8,1074.0,1165.0,1144.0,1095.0,1103.0,1136.0,0.0,0.0,0.0,0.0,0.0,0.0,0.0,0.0,0.0,0.0
123602565,8,1062.0,1177.0,1153.0,1086.0,1106.0,1133.0,0.0,0.0,0.0,0.0,0.0,0.0,0.0,0.0,0.0,0.0
123642719,8,1067.0,1172.0,1150.0,1089.0,1101.0,1138.0,0.0,0.0,0.0,0.0,0.0,0.0,0.0,0.0,0.0,0.0
123706742,8,1072.0,1167.0,1142.0,1097.0,1100.0,1139.0,0.0,0.0,0.0,0.0,0.0,0.0,0.0,0.0,0.0,0.0
123754797,8,1075.0,1164.0,1142.0,1097.0,1104.0,1135.0,0.0,0.0,0.0,0.0,0.0,0.0,0.0,0.0,0.0,0.0
123802806,8,1073.0,1166.0,1148.0,1091.0,1102.0,1137.0,0.0,0.0,0.0,0.0,0.0,0.0,0.0,0.0,0.0,0.0
123850764,8,1072.0,1167.0,1150.0,1089.0,1104.0,1135.0,0.0,0.0,0.0,0.0,0.0,0.0,0.0,0.0,0.0,0.0
123898760,8,1065.0,1170.0,1148.0,1091.0,1103.0,1136.0,0.0,0.0,0.0,0.0,0.0,0.0,0.0,0.0,0.0,0.0
123946510,8,1064.0,1175.0,1146.0,1093.0,1101.0,1138.0,0.0,0.0,0.0,0.0,0.0,0.0,0.0,0.0,0.0,0.0
124010815,8,1072.0,1168.0,1144.0,1095.0,1104.0,1135.0,0.0,0.0,0.0,0.0,0.0,0.0,0.0,0.0,0.0,0.0
124055333,8,1073.0,1166.0,1143.0,1096.0,1103.0,1136.0,0.0,0.0,0.0,0.0,0.0,0.0,0.0,0.0,0.0,0.0
124103268,8,1074.0,1165.0,1146.0,1093.0,1100.0,1139.0,0.0,0.0,0.0,0.0,0.0,0.0,0.0,0.0,0.0,0.0
124171285,8,1068.0,1171.0,1151.0,1088.0,1104.0,1135.0,0.0,0.0,0.0,0.0,0.0,0.0,0.0,0.0,0.0,0.0
124215288,8,1066.0,1173.0,1153.0,1086.0,1101.0,1138.0,0.0,0.0,0.0,0.0,0.0,0.0,0.0,0.0,0.0,0.0
124259256,8,1063.0,1177.0,1149.0,1090.0,1105.0,1134.0,0.0,0.0,0.0,0.0,0.0,0.0,0.0,0.0,0.0,0.0
124327320,8,1069.0,1170.0,1151.0,1088.0,1102.0,1137.0,0.0,0.0,0.0,0.0,0.0,0.0,0.0,0.0,0.0,0.0
124371544,8,1070.0,1170.0,1147.0,1092.0,1105.0,1134.0,0.0,0.0,0.0,0.0,0.0,0.0,0.0,0.0,0.0,0.0
124419708,8,1064.0,1175.0,1152.0,1087.0,1104.0,1135.0,0.0,0.0,0.0,0.0,0.0,0.0,0.0,0.0,0.0,0.0
124467580,8,1065.0,1174.0,1151.0,1088.0,1103.0,1136.0,0.0,0.0,0.0,0.0,0.0,0.0,0.0,0.0,0.0,0.0
124539558,8,1072.0,1167.0,1147.0,1092.0,1102.0,1137.0,0.0,0.0,0.0,0.0,0.0,0.0,0.0,0.0,0.0,0.0
124583351,8,1075.0,1165.0,1145.0,1094.0,1101.0,1138.0,0.0,0.0,0.0,0.0,0.0,0.0,0.0,0.0,0.0,0.0
124627550,8,1071.0,1168.0,1148.0,1091.0,1102.0,1137.0,0.0,0.0,0.0,0.0,0.0,0.0,0.0,0.0,0.0,0.0
124692149,8,1067.0,1175.0,1153.0,1086.0,1105.0,1134.0,0.0,0.0,0.0,0.0,0.0,0.0,0.0,0.0,0.0,0.0
124736098,8,1068.0,1171.0,1151.0,1088.0,1104.0,1135.0,0.0,0.0,0.0,0.0,0.0,0.0,0.0,0.0,0.0,0.0
124776098,8,1063.0,1176.0,1151.0,1088.0,1102.0,1137.0,0.0,0.0,0.0,0.0,0.0,0.0,0.0,0.0,0.0,0.0
124844419,8,1069.0,1170.0,1146.0,1093.0,1103.0,1136.0,0.0,0.0,0.0,0.0,0.0,0.0,0.0,0.0,0.0,0.0
124888437,8,1075.0,1164.0,1144.0,1095.0,1102.0,1137.0,0.0,0.0,0.0,0.0,0.0,0.0,0.0,0.0,0.0,0.0
124956336,8,1070.0,1169.0,1147.0,1092.0,1101.0,1138.0,0.0,0.0,0.0,0.0,0.0,0.0,0.0,0.0,0.0,0.0
125004078,8,1074.0,1165.0,1143.0,1096.0,1102.0,1137.0,0.0,0.0,0.0,0.0,0.0,0.0,0.0,0.0,0.0,0.0
125052092,8,1075.0,1164.0,1145.0,1094.0,1104.0,1135.0,0.0,0.0,0.0,0.0,0.0,0.0,0.0,0.0,0.0,0.0
125096107,8,1073.0,1166.0,1148.0,1091.0,1102.0,1137.0,0.0,0.0,0.0,0.0,0.0,0.0,0.0,0.0,0.0,0.0
125144344,8,1074.0,1165.0,1149.0,1090.0,1102.0,1137.0,0.0,0.0,0.0,0.0,0.0,0.0,0.0,0.0,0.0,0.0
125208390,8,1065.0,1174.0,1153.0,1086.0,1105.0,1134.0,0.0,0.0,0.0,0.0,0.0,0.0,0.0,0.0,0.0,0.0
125252113,8,1064.0,1175.0,1146.0,1093.0,1105.0,1134.0,0.0,0.0,0.0,0.0,0.0,0.0,0.0,0.0,0.0,0.0
125316979,8,1071.0,1168.0,1146.0,1097.0,1102.0,1137.0,0.0,0.0,0.0,0.0,0.0,0.0,0.0,0.0,0.0,0.0
125360959,8,1075.0,1164.0,1144.0,1095.0,1104.0,1135.0,0.0,0.0,0.0,0.0,0.0,0.0,0.0,0.0,0.0,0.0
125404913,8,1075.0,1164.0,1148.0,1091.0,1101.0,1138.0,0.0,0.0,0.0,0.0,0.0,0.0,0.0,0.0,0.0,0.0
125472925,8,1065.0,1174.0,1147.0,1092.0,1100.0,1139.0,0.0,0.0,0.0,0.0,0.0,0.0,0.0,0.0,0.0,0.0
125516879,8,1065.0,1174.0,1154.0,1085.0,1102.0,1137.0,0.0,0.0,0.0,0.0,0.0,0.0,0.0,0.0,0.0,0.0
125560867,8,1071.0,1168.0,1146.0,1093.0,1102.0,1137.0,0.0,0.0,0.0,0.0,0.0,0.0,0.0,0.0,0.0,0.0
125609184,8,1071.0,1168.0,1143.0,1096.0,1105.0,1134.0,0.0,0.0,0.0,0.0,0.0,0.0,0.0,0.0,0.0,0.0
125676871,8,1062.0,1177.0,1152.0,1087.0,1104.0,1135.0,0.0,0.0,0.0,0.0,0.0,0.0,0.0,0.0,0.0,0.0
125717267,8,1067.0,1172.0,1149.0,1090.0,1103.0,1136.0,0.0,0.0,0.0,0.0,0.0,0.0,0.0,0.0,0.0,0.0
125784939,8,1074.0,1165.0,1144.0,1095.0,1104.0,1135.0,0.0,0.0,0.0,0.0,0.0,0.0,0.0,0.0,0.0,0.0
125829148,8,1074.0,1166.0,1143.0,1096.0,1101.0,1138.0,0.0,0.0,0.0,0.0,0.0,0.0,0.0,0.0,0.0,0.0
125893697,8,1064.0,1175.0,1149.0,1090.0,1100.0,1139.0,0.0,0.0,0.0,0.0,0.0,0.0,0.0,0.0,0.0,0.0
125937755,8,1068.0,1171.0,1151.0,1088.0,1104.0,1135.0,0.0,0.0,0.0,0.0,0.0,0.0,0.0,0.0,0.0,0.0
125982011,8,1065.0,1174.0,1155.0,1084.0,1104.0,1135.0,0.0,0.0,0.0,0.0,0.0,0.0,0.0,0.0,0.0,0.0
126025738,8,1064.0,1175.0,1150.0,1089.0,1104.0,1135.0,0.0,0.0,0.0,0.0,0.0,0.0,0.0,0.0,0.0,0.0
126097729,8,1074.0,1165.0,1147.0,1092.0,1104.0,1135.0,0.0,0.0,0.0,0.0,0.0,0.0,0.0,0.0,0.0,0.0
126137776,8,1074.0,1165.0,1143.0,1096.0,1101.0,1138.0,0.0,0.0,0.0,0.0,0.0,0.0,0.0,0.0,0.0,0.0
126181753,8,1076.0,1163.0,1141.0,1098.0,1102.0,1137.0,0.0,0.0,0.0,0.0,0.0,0.0,0.0,0.0,0.0,0.0
126245732,8,1066.0,1173.0,1148.0,1091.0,1103.0,1136.0,0.0,0.0,0.0,0.0,0.0,0.0,0.0,0.0,0.0,0.0
126289721,8,1065.0,1174.0,1152.0,1087.0,1105.0,1134.0,0.0,0.0,0.0,0.0,0.0,0.0,0.0,0.0,0.0,0.0
126357763,8,1078.0,1161.0,1144.0,1095.0,1104.0,1135.0,0.0,0.0,0.0,0.0,0.0,0.0,0.0,0.0,0.0,0.0
126402825,8,1075.0,1165.0,1148.0,1091.0,1103.0,1136.0,0.0,0.0,0.0,0.0,0.0,0.0,0.0,0.0,0.0,0.0
126446509,8,1075.0,1164.0,1145.0,1094.0,1102.0,1137.0,0.0,0.0,0.0,0.0,0.0,0.0,0.0,0.0,0.0,0.0
126514803,8,1064.0,1175.0,1156.0,1083.0,1104.0,1135.0,0.0,0.0,0.0,0.0,0.0,0.0,0.0,0.0,0.0,0.0
126562537,8,1069.0,1170.0,1148.0,1091.0,1101.0,1138.0,0.0,0.0,0.0,0.0,0.0,0.0,0.0,0.0,0.0,0.0
126610743,8,1068.0,1171.0,1145.0,1094.0,1103.0,1136.0,0.0,0.0,0.0,0.0,0.0,0.0,0.0,0.0,0.0,0.0
126654841,8,1075.0,1164.0,1143.0,1096.0,1101.0,1138.0,0.0,0.0,0.0,0.0,0.0,0.0,0.0,0.0,0.0,0.0
126722511,8,1065.0,1174.0,1149.0,1090.0,1105.0,1134.0,0.0,0.0,0.0,0.0,0.0,0.0,0.0,0.0,0.0,0.0
126770748,8,1065.0,1174.0,1152.0,1087.0,1103.0,1136.0,0.0,0.0,0.0,0.0,0.0,0.0,0.0,0.0,0.0,0.0
126818756,8,1065.0,1174.0,1153.0,1086.0,1104.0,1135.0,0.0,0.0,0.0,0.0,0.0,0.0,0.0,0.0,0.0,0.0
126866799,8,1068.0,1171.0,1149.0,1090.0,1101.0,1138.0,0.0,0.0,0.0,0.0,0.0,0.0,0.0,0.0,0.0,0.0
126914744,8,1065.0,1174.0,1148.0,1091.0,1102.0,1137.0,0.0,0.0,0.0,0.0,0.0,0.0,0.0,0.0,0.0,0.0
126962732,8,1074.0,1165.0,1142.0,1097.0,1104.0,1135.0,0.0,0.0,0.0,0.0,0.0,0.0,0.0,0.0,0.0,0.0
127034817,8,1062.0,1177.0,1151.0,1088.0,1106.0,1133.0,0.0,0.0,0.0,0.0,0.0,0.0,0.0,0.0,0.0,0.0
127075313,8,1063.0,1176.0,1151.0,1088.0,1102.0,1137.0,0.0,0.0,0.0,0.0,0.0,0.0,0.0,0.0,0.0,0.0
127143535,8,1073.0,1166.0,1143.0,1096.0,1102.0,1137.0,0.0,0.0,0.0,0.0,0.0,0.0,0.0,0.0,0.0,0.0
127187602,8,1072.0,1167.0,1142.0,1097.0,1100.0,1139.0,0.0,0.0,0.0,0.0,0.0,0.0,0.0,0.0,0.0,0.0
127231639,8,1074.0,1165.0,1147.0,1092.0,1101.0,1138.0,0.0,0.0,0.0,0.0,0.0,0.0,0.0,0.0,0.0,0.0
127295586,8,1066.0,1173.0,1152.0,1087.0,1102.0,1137.0,0.0,0.0,0.0,0.0,0.0,0.0,0.0,0.0,0.0,0.0
127343355,8,1067.0,1172.0,1153.0,1086.0,1105.0,1134.0,0.0,0.0,0.0,0.0,0.0,0.0,0.0,0.0,0.0,0.0
127387315,8,1068.0,1172.0,1150.0,1089.0,1105.0,1134.0,0.0,0.0,0.0,0.0,0.0,0.0,0.0,0.0,0.0,0.0
127451321,8,1073.0,1167.0,1152.0,1087.0,1104.0,1135.0,0.0,0.0,0.0,0.0,0.0,0.0,0.0,0.0,0.0,0.0
127491327,8,1073.0,1166.0,1141.0,1098.0,1102.0,1137.0,0.0,0.0,0.0,0.0,0.0,0.0,0.0,0.0,0.0,0.0
127555646,8,1064.0,1175.0,1148.0,1091.0,1105.0,1134.0,0.0,0.0,0.0,0.0,0.0,0.0,0.0,0.0,0.0,0.0
127599306,8,1062.0,1177.0,1146.0,1093.0,1102.0,1137.0,0.0,0.0,0.0,0.0,0.0,0.0,0.0,0.0,0.0,0.0
127647319,8,1070.0,1169.0,1148.0,1091.0,1102.0,1137.0,0.0,0.0,0.0,0.0,0.0,0.0,0.0,0.0,0.0,0.0
127708101,8,1076.0,1164.0,1144.0,1095.0,1100.0,1139.0,0.0,0.0,0.0,0.0,0.0,0.0,0.0,0.0,0.0,0.0
127752134,8,1076.0,1163.0,1148.0,1091.0,1102.0,1137.0,0.0,0.0,0.0,0.0,0.0,0.0,0.0,0.0,0.0,0.0
127800372,8,1069.0,1170.0,1150.0,1089.0,1105.0,1134.0,0.0,0.0,0.0,0.0,0.0,0.0,0.0,0.0,0.0,0.0
127868073,8,1070.0,1169.0,1148.0,1091.0,1101.0,1138.0,0.0,0.0,0.0,0.0,0.0,0.0,0.0,0.0,0.0,0.0
127912061,8,1069.0,1170.0,1149.0,1090.0,1103.0,1136.0,0.0,0.0,0.0,0.0,0.0,0.0,0.0,0.0,0.0,0.0
127976076,8,1071.0,1168.0,1150.0,1089.0,1104.0,1135.0,0.0,0.0,0.0,0.0,0.0,0.0,0.0,0.0,0.0,0.0
128020096,8,1067.0,1172.0,1150.0,1089.0,1106.0,1133.0,0.0,0.0,0.0,0.0,0.0,0.0,0.0,0.0,0.0,0.0
128064076,8,1064.0,1175.0,1150.0,1089.0,1101.0,1138.0,0.0,0.0,0.0,0.0,0.0,0.0,0.0,0.0,0.0,0.0
128128120,8,1068.0,1171.0,1147.0,1092.0,1100.0,1139.0,0.0,0.0,0.0,0.0,0.0,0.0,0.0,0.0,0.0,0.0
128172155,8,1071.0,1168.0,1142.0,1097.0,1102.0,1137.0,0.0,0.0,0.0,0.0,0.0,0.0,0.0,0.0,0.0,0.0
128216121,8,1075.0,1164.0,1148.0,1091.0,1103.0,1136.0,0.0,0.0,0.0,0.0,0.0,0.0,0.0,0.0,0.0,0.0
128280082,8,1070.0,1169.0,1147.0,1092.0,1103.0,1136.0,0.0,0.0,0.0,0.0,0.0,0.0,0.0,0.0,0.0,0.0
128340949,8,1065.0,1174.0,1150.0,1089.0,1102.0,1137.0,0.0,0.0,0.0,0.0,0.0,0.0,0.0,0.0,0.0,0.0
128385228,8,1071.0,1168.0,1151.0,1088.0,1104.0,1135.0,0.0,0.0,0.0,0.0,0.0,0.0,0.0,0.0,0.0,0.0
128448997,8,1076.0,1164.0,1148.0,1091.0,1103.0,1136.0,0.0,0.0,0.0,0.0,0.0,0.0,0.0,0.0,0.0,0.0
128493239,8,1075.0,1164.0,1148.0,1091.0,1101.0,1138.0,0.0,0.0,0.0,0.0,0.0,0.0,0.0,0.0,0.0,0.0
128536963,8,1072.0,1168.0,1146.0,1093.0,1104.0,1135.0,0.0,0.0,0.0,0.0,0.0,0.0,0.0,0.0,0.0,0.0
128601248,8,1065.0,1174.0,1148.0,1091.0,1104.0,1135.0,0.0,0.0,0.0,0.0,0.0,0.0,0.0,0.0,0.0,0.0
128645116,8,1065.0,1174.0,1149.0,1090.0,1102.0,1137.0,0.0,0.0,0.0,0.0,0.0,0.0,0.0,0.0,0.0,0.0
128693141,8,1068.0,1171.0,1152.0,1087.0,1101.0,1138.0,0.0,0.0,0.0,0.0,0.0,0.0,0.0,0.0,0.0,0.0
128736941,8,1065.0,1174.0,1151.0,1088.0,1103.0,1136.0,0.0,0.0,0.0,0.0,0.0,0.0,0.0,0.0,0.0,0.0
128805696,8,1069.0,1170.0,1148.0,1091.0,1100.0,1139.0,0.0,0.0,0.0,0.0,0.0,0.0,0.0,0.0,0.0,0.0
128849716,8,1072.0,1167.0,1149.0,1090.0,1106.0,1133.0,0.0,0.0,0.0,0.0,0.0,0.0,0.0,0.0,0.0,0.0
128917970,8,1076.0,1163.0,1144.0,1095.0,1102.0,1137.0,0.0,0.0,0.0,0.0,0.0,0.0,0.0,0.0,0.0,0.0
128962053,8,1072.0,1167.0,1147.0,1092.0,1104.0,1135.0,0.0,0.0,0.0,0.0,0.0,0.0,0.0,0.0,0.0,0.0
129005686,8,1071.0,1168.0,1145.0,1094.0,1101.0,1138.0,0.0,0.0,0.0,0.0,0.0,0.0,0.0,0.0,0.0,0.0
129049974,8,1073.0,1166.0,1142.0,1097.0,1102.0,1137.0,0.0,0.0,0.0,0.0,0.0,0.0,0.0,0.0,0.0,0.0
129121687,8,1064.0,1175.0,1151.0,1088.0,1103.0,1136.0,0.0,0.0,0.0,0.0,0.0,0.0,0.0,0.0,0.0,0.0
129161678,8,1069.0,1171.0,1150.0,1089.0,1104.0,1135.0,0.0,0.0,0.0,0.0,0.0,0.0,0.0,0.0,0.0,0.0
129225706,8,1072.0,1167.0,1143.0,1096.0,1103.0,1136.0,0.0,0.0,0.0,0.0,0.0,0.0,0.0,0.0,0.0,0.0
129269667,8,1075.0,1164.0,1147.0,1092.0,1104.0,1135.0,0.0,0.0,0.0,0.0,0.0,0.0,0.0,0.0,0.0,0.0
129317754,8,1077.0,1162.0,1148.0,1091.0,1102.0,1137.0,0.0,0.0,0.0,0.0,0.0,0.0,0.0,0.0,0.0,0.0
129381979,8,1066.0,1174.0,1155.0,1084.0,1104.0,1135.0,0.0,0.0,0.0,0.0,0.0,0.0,0.0,0.0,0.0,0.0
129422546,8,1066.0,1173.0,1147.0,1092.0,1104.0,1135.0,0.0,0.0,0.0,0.0,0.0,0.0,0.0,0.0,0.0,0.0
129466868,8,1066.0,1173.0,1146.0,1093.0,1104.0,1135.0,0.0,0.0,0.0,0.0,0.0,0.0,0.0,0.0,0.0,0.0
129534537,8,1072.0,1167.0,1144.0,1095.0,1105.0,1134.0,0.0,0.0,0.0,0.0,0.0,0.0,0.0,0.0,0.0,0.0
129578519,8,1077.0,1162.0,1142.0,1097.0,1101.0,1138.0,0.0,0.0,0.0,0.0,0.0,0.0,0.0,0.0,0.0,0.0
129626764,8,1076.0,1163.0,1145.0,1094.0,1101.0,1138.0,0.0,0.0,0.0,0.0,0.0,0.0,0.0,0.0,0.0,0.0
129690731,8,1066.0,1173.0,1154.0,1085.0,1102.0,1137.0,0.0,0.0,0.0,0.0,0.0,0.0,0.0,0.0,0.0,0.0
129734718,8,1065.0,1174.0,1154.0,1085.0,1101.0,1138.0,0.0,0.0,0.0,0.0,0.0,0.0,0.0,0.0,0.0,0.0
129802505,8,1075.0,1164.0,1143.0,1096.0,1101.0,1138.0,0.0,0.0,0.0,0.0,0.0,0.0,0.0,0.0,0.0,0.0
129846559,8,1074.0,1165.0,1146.0,1093.0,1102.0,1137.0,0.0,0.0,0.0,0.0,0.0,0.0,0.0,0.0,0.0,0.0
129890845,8,1068.0,1171.0,1147.0,1092.0,1099.0,1140.0,0.0,0.0,0.0,0.0,0.0,0.0,0.0,0.0,0.0,0.0
129938766,8,1065.0,1175.0,1149.0,1090.0,1095.0,1144.0,0.0,0.0,0.0,0.0,0.0,0.0,0.0,0.0,0.0,0.0
130010732,8,1061.0,1178.0,1150.0,1089.0,1103.0,1136.0,0.0,0.0,0.0,0.0,0.0,0.0,0.0,0.0,0.0,0.0
130058774,8,1074.0,1165.0,1144.0,1095.0,1101.0,1138.0,0.0,0.0,0.0,0.0,0.0,0.0,0.0,0.0,0.0,0.0
130103258,8,1075.0,1164.0,1147.0,1092.0,1102.0,1137.0,0.0,0.0,0.0,0.0,0.0,0.0,0.0,0.0,0.0,0.0
130167291,8,1068.0,1172.0,1148.0,1091.0,1099.0,1140.0,0.0,0.0,0.0,0.0,0.0,0.0,0.0,0.0,0.0,0.0
130211311,8,1066.0,1173.0,1153.0,1086.0,1107.0,1132.0,0.0,0.0,0.0,0.0,0.0,0.0,0.0,0.0,0.0,0.0
130255287,8,1065.0,1174.0,1154.0,1085.0,1104.0,1135.0,0.0,0.0,0.0,0.0,0.0,0.0,0.0,0.0,0.0,0.0
130299555,8,1064.0,1175.0,1152.0,1087.0,1103.0,1136.0,0.0,0.0,0.0,0.0,0.0,0.0,0.0,0.0,0.0,0.0
130363561,8,1073.0,1166.0,1144.0,1095.0,1102.0,1137.0,0.0,0.0,0.0,0.0,0.0,0.0,0.0,0.0,0.0,0.0
130407309,8,1073.0,1166.0,1143.0,1096.0,1101.0,1138.0,0.0,0.0,0.0,0.0,0.0,0.0,0.0,0.0,0.0,0.0
130475958,8,1064.0,1175.0,1149.0,1090.0,1102.0,1137.0,0.0,0.0,0.0,0.0,0.0,0.0,0.0,0.0,0.0,0.0
130523560,8,1066.0,1173.0,1148.0,1091.0,1102.0,1137.0,0.0,0.0,0.0,0.0,0.0,0.0,0.0,0.0,0.0,0.0
130571599,8,1068.0,1171.0,1151.0,1088.0,1102.0,1137.0,0.0,0.0,0.0,0.0,0.0,0.0,0.0,0.0,0.0,0.0
130619687,8,1075.0,1164.0,1147.0,1092.0,1103.0,1136.0,0.0,0.0,0.0,0.0,0.0,0.0,0.0,0.0,0.0,0.0
130667674,8,1073.0,1166.0,1144.0,1095.0,1101.0,1138.0,0.0,0.0,0.0,0.0,0.0,0.0,0.0,0.0,0.0,0.0
130736340,8,1065.0,1174.0,1155.0,1084.0,1105.0,1134.0,0.0,0.0,0.0,0.0,0.0,0.0,0.0,0.0,0.0,0.0
130784080,8,1066.0,1173.0,1149.0,1090.0,1102.0,1137.0,0.0,0.0,0.0,0.0,0.0,0.0,0.0,0.0,0.0,0.0
130828397,8,1065.0,1174.0,1146.0,1093.0,1103.0,1136.0,0.0,0.0,0.0,0.0,0.0,0.0,0.0,0.0,0.0,0.0
130872416,8,1068.0,1171.0,1149.0,1090.0,1100.0,1139.0,0.0,0.0,0.0,0.0,0.0,0.0,0.0,0.0,0.0,0.0
130940318,8,1072.0,1167.0,1144.0,1095.0,1102.0,1137.0,0.0,0.0,0.0,0.0,0.0,0.0,0.0,0.0,0.0,0.0
130984336,8,1075.0,1165.0,1149.0,1090.0,1105.0,1134.0,0.0,0.0,0.0,0.0,0.0,0.0,0.0,0.0,0.0,0.0
131052407,8,1073.0,1166.0,1147.0,1092.0,1102.0,1137.0,0.0,0.0,0.0,0.0,0.0,0.0,0.0,0.0,0.0,0.0
131096105,8,1072.0,1167.0,1148.0,1091.0,1100.0,1139.0,0.0,0.0,0.0,0.0,0.0,0.0,0.0,0.0,0.0,0.0
131140153,8,1070.0,1170.0,1146.0,1093.0,1104.0,1135.0,0.0,0.0,0.0,0.0,0.0,0.0,0.0,0.0,0.0,0.0
131208117,8,1070.0,1169.0,1148.0,1091.0,1103.0,1136.0,0.0,0.0,0.0,0.0,0.0,0.0,0.0,0.0,0.0,0.0
131248884,8,1069.0,1170.0,1147.0,1092.0,1104.0,1135.0,0.0,0.0,0.0,0.0,0.0,0.0,0.0,0.0,0.0,0.0
131297248,8,1068.0,1171.0,1149.0,1090.0,1104.0,1135.0,0.0,0.0,0.0,0.0,0.0,0.0,0.0,0.0,0.0,0.0
131344898,8,1069.0,1170.0,1152.0,1087.0,1102.0,1137.0,0.0,0.0,0.0,0.0,0.0,0.0,0.0,0.0,0.0,0.0
131413210,8,1077.0,1162.0,1143.0,1096.0,1102.0,1137.0,0.0,0.0,0.0,0.0,0.0,0.0,0.0,0.0,0.0,0.0
131460889,8,1076.0,1163.0,1144.0,1095.0,1100.0,1139.0,0.0,0.0,0.0,0.0,0.0,0.0,0.0,0.0,0.0,0.0
131509169,8,1074.0,1165.0,1146.0,1093.0,1102.0,1137.0,0.0,0.0,0.0,0.0,0.0,0.0,0.0,0.0,0.0,0.0
131552872,8,1074.0,1165.0,1146.0,1093.0,1102.0,1137.0,0.0,0.0,0.0,0.0,0.0,0.0,0.0,0.0,0.0,0.0
131624868,8,1072.0,1167.0,1143.0,1096.0,1105.0,1134.0,0.0,0.0,0.0,0.0,0.0,0.0,0.0,0.0,0.0,0.0
131665183,8,1065.0,1174.0,1148.0,1091.0,1103.0,1136.0,0.0,0.0,0.0,0.0,0.0,0.0,0.0,0.0,0.0,0.0
131712868,8,1076.0,1163.0,1144.0,1095.0,1100.0,1139.0,0.0,0.0,0.0,0.0,0.0,0.0,0.0,0.0,0.0,0.0
131780914,8,1073.0,1166.0,1146.0,1093.0,1106.0,1133.0,0.0,0.0,0.0,0.0,0.0,0.0,0.0,0.0,0.0,0.0
131828971,8,1069.0,1170.0,1147.0,1092.0,1103.0,1136.0,0.0,0.0,0.0,0.0,0.0,0.0,0.0,0.0,0.0,0.0
131872889,8,1069.0,1170.0,1149.0,1090.0,1107.0,1132.0,0.0,0.0,0.0,0.0,0.0,0.0,0.0,0.0,0.0,0.0
131937701,8,1076.0,1163.0,1148.0,1091.0,1106.0,1133.0,0.0,0.0,0.0,0.0,0.0,0.0,0.0,0.0,0.0,0.0
131981949,8,1074.0,1166.0,1146.0,1093.0,1100.0,1139.0,0.0,0.0,0.0,0.0,0.0,0.0,0.0,0.0,0.0,0.0
132041685,8,1074.0,1165.0,1144.0,1095.0,1101.0,1138.0,0.0,0.0,0.0,0.0,0.0,0.0,0.0,0.0,0.0,0.0
132085680,8,1069.0,1170.0,1148.0,1091.0,1101.0,1138.0,0.0,0.0,0.0,0.0,0.0,0.0,0.0,0.0,0.0,0.0
132129722,8,1074.0,1165.0,1146.0,1093.0,1100.0,1139.0,0.0,0.0,0.0,0.0,0.0,0.0,0.0,0.0,0.0,0.0
132189718,8,1067.0,1172.0,1151.0,1088.0,1105.0,1134.0,0.0,0.0,0.0,0.0,0.0,0.0,0.0,0.0,0.0,0.0
132237751,8,1066.0,1173.0,1153.0,1086.0,1105.0,1134.0,0.0,0.0,0.0,0.0,0.0,0.0,0.0,0.0,0.0,0.0
132305730,8,1076.0,1163.0,1148.0,1091.0,1103.0,1136.0,0.0,0.0,0.0,0.0,0.0,0.0,0.0,0.0,0.0,0.0
132350067,8,1073.0,1166.0,1146.0,1093.0,1102.0,1137.0,0.0,0.0,0.0,0.0,0.0,0.0,0.0,0.0,0.0,0.0
132393696,8,1073.0,1166.0,1144.0,1095.0,1100.0,1139.0,0.0,0.0,0.0,0.0,0.0,0.0,0.0,0.0,0.0,0.0
132437718,8,1075.0,1164.0,1143.0,1096.0,1103.0,1136.0,0.0,0.0,0.0,0.0,0.0,0.0,0.0,0.0,0.0,0.0
132505717,8,1067.0,1172.0,1145.0,1094.0,1102.0,1137.0,0.0,0.0,0.0,0.0,0.0,0.0,0.0,0.0,0.0,0.0
132550782,8,1070.0,1169.0,1148.0,1091.0,1103.0,1136.0,0.0,0.0,0.0,0.0,0.0,0.0,0.0,0.0,0.0,0.0
132598537,8,1071.0,1168.0,1150.0,1089.0,1103.0,1136.0,0.0,0.0,0.0,0.0,0.0,0.0,0.0,0.0,0.0,0.0
132662458,8,1075.0,1164.0,1149.0,1090.0,1102.0,1137.0,0.0,0.0,0.0,0.0,0.0,0.0,0.0,0.0,0.0,0.0
132722573,8,1065.0,1174.0,1153.0,1086.0,1104.0,1135.0,0.0,0.0,0.0,0.0,0.0,0.0,0.0,0.0,0.0,0.0
132770880,8,1069.0,1170.0,1150.0,1089.0,1103.0,1136.0,0.0,0.0,0.0,0.0,0.0,0.0,0.0,0.0,0.0,0.0
132818847,8,1069.0,1170.0,1145.0,1094.0,1103.0,1136.0,0.0,0.0,0.0,0.0,0.0,0.0,0.0,0.0,0.0,0.0
132866520,8,1069.0,1170.0,1144.0,1095.0,1102.0,1137.0,0.0,0.0,0.0,0.0,0.0,0.0,0.0,0.0,0.0,0.0
132910762,8,1075.0,1164.0,1145.0,1094.0,1103.0,1136.0,0.0,0.0,0.0,0.0,0.0,0.0,0.0,0.0,0.0,0.0
132958816,8,1078.0,1161.0,1146.0,1093.0,1102.0,1137.0,0.0,0.0,0.0,0.0,0.0,0.0,0.0,0.0,0.0,0.0
133026744,8,1068.0,1171.0,1153.0,1086.0,1102.0,1137.0,0.0,0.0,0.0,0.0,0.0,0.0,0.0,0.0,0.0,0.0
133074802,8,1069.0,1170.0,1150.0,1089.0,1105.0,1134.0,0.0,0.0,0.0,0.0,0.0,0.0,0.0,0.0,0.0,0.0
133123326,8,1063.0,1176.0,1148.0,1091.0,1103.0,1136.0,0.0,0.0,0.0,0.0,0.0,0.0,0.0,0.0,0.0,0.0
133191299,8,1075.0,1164.0,1145.0,1094.0,1105.0,1134.0,0.0,0.0,0.0,0.0,0.0,0.0,0.0,0.0,0.0,0.0
133235595,8,1072.0,1167.0,1143.0,1096.0,1103.0,1136.0,0.0,0.0,0.0,0.0,0.0,0.0,0.0,0.0,0.0,0.0
133283282,8,1074.0,1165.0,1146.0,1093.0,1103.0,1136.0,0.0,0.0,0.0,0.0,0.0,0.0,0.0,0.0,0.0,0.0
133323607,8,1075.0,1164.0,1147.0,1092.0,1099.0,1140.0,0.0,0.0,0.0,0.0,0.0,0.0,0.0,0.0,0.0,0.0
133391291,8,1067.0,1172.0,1151.0,1088.0,1101.0,1138.0,0.0,0.0,0.0,0.0,0.0,0.0,0.0,0.0,0.0,0.0
133435292,8,1065.0,1174.0,1150.0,1089.0,1106.0,1133.0,0.0,0.0,0.0,0.0,0.0,0.0,0.0,0.0,0.0,0.0
133483315,8,1068.0,1171.0,1146.0,1093.0,1104.0,1135.0,0.0,0.0,0.0,0.0,0.0,0.0,0.0,0.0,0.0,0.0
133547531,8,1075.0,1164.0,1145.0,1094.0,1105.0,1134.0,0.0,0.0,0.0,0.0,0.0,0.0,0.0,0.0,0.0,0.0
133595301,8,1074.0,1165.0,1145.0,1094.0,1102.0,1137.0,0.0,0.0,0.0,0.0,0.0,0.0,0.0,0.0,0.0,0.0
133639291,8,1074.0,1165.0,1146.0,1093.0,1102.0,1137.0,0.0,0.0,0.0,0.0,0.0,0.0,0.0,0.0,0.0,0.0
133708160,8,1070.0,1169.0,1147.0,1092.0,1101.0,1138.0,0.0,0.0,0.0,0.0,0.0,0.0,0.0,0.0,0.0,0.0
133752065,8,1071.0,1168.0,1148.0,1091.0,1100.0,1139.0,0.0,0.0,0.0,0.0,0.0,0.0,0.0,0.0,0.0,0.0
133800099,8,1074.0,1165.0,1143.0,1096.0,1104.0,1135.0,0.0,0.0,0.0,0.0,0.0,0.0,0.0,0.0,0.0,0.0
133844358,8,1073.0,1166.0,1144.0,1095.0,1102.0,1137.0,0.0,0.0,0.0,0.0,0.0,0.0,0.0,0.0,0.0,0.0
133916114,8,1068.0,1171.0,1151.0,1088.0,1105.0,1134.0,0.0,0.0,0.0,0.0,0.0,0.0,0.0,0.0,0.0,0.0
133964081,8,1063.0,1176.0,1150.0,1089.0,1104.0,1135.0,0.0,0.0,0.0,0.0,0.0,0.0,0.0,0.0,0.0,0.0
134008497,8,1067.0,1172.0,1149.0,1090.0,1104.0,1135.0,0.0,0.0,0.0,0.0,0.0,0.0,0.0,0.0,0.0,0.0
134072345,8,1078.0,1161.0,1141.0,1098.0,1102.0,1137.0,0.0,0.0,0.0,0.0,0.0,0.0,0.0,0.0,0.0,0.0
134116521,8,1077.0,1162.0,1144.0,1095.0,1104.0,1135.0,0.0,0.0,0.0,0.0,0.0,0.0,0.0,0.0,0.0,0.0
134160135,8,1075.0,1164.0,1145.0,1094.0,1101.0,1138.0,0.0,0.0,0.0,0.0,0.0,0.0,0.0,0.0,0.0,0.0
134228116,8,1066.0,1173.0,1153.0,1086.0,1104.0,1135.0,0.0,0.0,0.0,0.0,0.0,0.0,0.0,0.0,0.0,0.0
134272089,8,1064.0,1175.0,1151.0,1088.0,1102.0,1137.0,0.0,0.0,0.0,0.0,0.0,0.0,0.0,0.0,0.0,0.0
134336933,8,1072.0,1167.0,1144.0,1095.0,1102.0,1137.0,0.0,0.0,0.0,0.0,0.0,0.0,0.0,0.0,0.0,0.0
134377171,8,1070.0,1169.0,1145.0,1094.0,1102.0,1137.0,0.0,0.0,0.0,0.0,0.0,0.0,0.0,0.0,0.0,0.0
134421209,8,1076.0,1163.0,1146.0,1093.0,1104.0,1135.0,0.0,0.0,0.0,0.0,0.0,0.0,0.0,0.0,0.0,0.0
134484889,8,1072.0,1167.0,1149.0,1090.0,1103.0,1136.0,0.0,0.0,0.0,0.0,0.0,0.0,0.0,0.0,0.0,0.0
134549233,8,1068.0,1171.0,1148.0,1091.0,1103.0,1136.0,0.0,0.0,0.0,0.0,0.0,0.0,0.0,0.0,0.0,0.0
134592921,8,1071.0,1168.0,1148.0,1091.0,1105.0,1134.0,0.0,0.0,0.0,0.0,0.0,0.0,0.0,0.0,0.0,0.0
134640938,8,1069.0,1170.0,1143.0,1096.0,1101.0,1138.0,0.0,0.0,0.0,0.0,0.0,0.0,0.0,0.0,0.0,0.0
134685139,8,1068.0,1171.0,1146.0,1093.0,1103.0,1136.0,0.0,0.0,0.0,0.0,0.0,0.0,0.0,0.0,0.0,0.0
134752962,8,1069.0,1170.0,1147.0,1092.0,1102.0,1137.0,0.0,0.0,0.0,0.0,0.0,0.0,0.0,0.0,0.0,0.0
134796889,8,1076.0,1163.0,1148.0,1091.0,1103.0,1136.0,0.0,0.0,0.0,0.0,0.0,0.0,0.0,0.0,0.0,0.0
134840875,8,1068.0,1171.0,1151.0,1088.0,1103.0,1136.0,0.0,0.0,0.0,0.0,0.0,0.0,0.0,0.0,0.0,0.0
134909275,8,1073.0,1166.0,1149.0,1090.0,1102.0,1137.0,0.0,0.0,0.0,0.0,0.0,0.0,0.0,0.0,0.0,0.0
134949681,8,1068.0,1171.0,1145.0,1094.0,1102.0,1137.0,0.0,0.0,0.0,0.0,0.0,0.0,0.0,0.0,0.0,0.0
134997748,8,1072.0,1167.0,1142.0,1097.0,1104.0,1135.0,0.0,0.0,0.0,0.0,0.0,0.0,0.0,0.0,0.0,0.0
135061987,8,1072.0,1167.0,1144.0,1095.0,1102.0,1137.0,0.0,0.0,0.0,0.0,0.0,0.0,0.0,0.0,0.0,0.0
135109729,8,1071.0,1168.0,1149.0,1090.0,1102.0,1137.0,0.0,0.0,0.0,0.0,0.0,0.0,0.0,0.0,0.0,0.0
135173671,8,1070.0,1169.0,1147.0,1092.0,1101.0,1138.0,0.0,0.0,0.0,0.0,0.0,0.0,0.0,0.0,0.0,0.0
135217750,8,1074.0,1165.0,1147.0,1092.0,1103.0,1136.0,0.0,0.0,0.0,0.0,0.0,0.0,0.0,0.0,0.0,0.0
135261755,8,1069.0,1170.0,1148.0,1091.0,1099.0,1140.0,0.0,0.0,0.0,0.0,0.0,0.0,0.0,0.0,0.0,0.0
135325659,8,1075.0,1164.0,1148.0,1091.0,1101.0,1138.0,0.0,0.0,0.0,0.0,0.0,0.0,0.0,0.0,0.0,0.0
135369728,8,1072.0,1167.0,1146.0,1093.0,1103.0,1136.0,0.0,0.0,0.0,0.0,0.0,0.0,0.0,0.0,0.0,0.0
135417772,8,1069.0,1170.0,1145.0,1094.0,1106.0,1133.0,0.0,0.0,0.0,0.0,0.0,0.0,0.0,0.0,0.0,0.0
135481765,8,1071.0,1169.0,1145.0,1094.0,1105.0,1134.0,0.0,0.0,0.0,0.0,0.0,0.0,0.0,0.0,0.0,0.0
135522864,8,1071.0,1169.0,1151.0,1088.0,1102.0,1137.0,0.0,0.0,0.0,0.0,0.0,0.0,0.0,0.0,0.0,0.0
135586783,8,1075.0,1164.0,1146.0,1093.0,1101.0,1138.0,0.0,0.0,0.0,0.0,0.0,0.0,0.0,0.0,0.0,0.0
135634799,8,1074.0,1165.0,1148.0,1091.0,1102.0,1137.0,0.0,0.0,0.0,0.0,0.0,0.0,0.0,0.0,0.0,0.0
135678483,8,1074.0,1165.0,1146.0,1093.0,1106.0,1133.0,0.0,0.0,0.0,0.0,0.0,0.0,0.0,0.0,0.0,0.0
135738865,8,1067.0,1172.0,1152.0,1087.0,1105.0,1134.0,0.0,0.0,0.0,0.0,0.0,0.0,0.0,0.0,0.0,0.0
135782741,8,1066.0,1173.0,1152.0,1087.0,1105.0,1134.0,0.0,0.0,0.0,0.0,0.0,0.0,0.0,0.0,0.0,0.0
135850843,8,1076.0,1163.0,1143.0,1096.0,1104.0,1135.0,0.0,0.0,0.0,0.0,0.0,0.0,0.0,0.0,0.0,0.0
135898769,8,1075.0,1164.0,1146.0,1093.0,1104.0,1135.0,0.0,0.0,0.0,0.0,0.0,0.0,0.0,0.0,0.0,0.0
135946551,8,1078.0,1161.0,1146.0,1093.0,1101.0,1138.0,0.0,0.0,0.0,0.0,0.0,0.0,0.0,0.0,0.0,0.0
135994774,8,1071.0,1165.0,1148.0,1091.0,1105.0,1134.0,0.0,0.0,0.0,0.0,0.0,0.0,0.0,0.0,0.0,0.0
136042501,8,1068.0,1171.0,1148.0,1091.0,1104.0,1135.0,0.0,0.0,0.0,0.0,0.0,0.0,0.0,0.0,0.0,0.0
136106483,8,1072.0,1168.0,1146.0,1093.0,1101.0,1138.0,0.0,0.0,0.0,0.0,0.0,0.0,0.0,0.0,0.0,0.0
136147310,8,1070.0,1169.0,1148.0,1091.0,1102.0,1137.0,0.0,0.0,0.0,0.0,0.0,0.0,0.0,0.0,0.0,0.0
136211636,8,1075.0,1164.0,1147.0,1092.0,1102.0,1137.0,0.0,0.0,0.0,0.0,0.0,0.0,0.0,0.0,0.0,0.0
136255263,8,1075.0,1164.0,1144.0,1095.0,1102.0,1137.0,0.0,0.0,0.0,0.0,0.0,0.0,0.0,0.0,0.0,0.0
136323357,8,1070.0,1169.0,1144.0,1095.0,1103.0,1136.0,0.0,0.0,0.0,0.0,0.0,0.0,0.0,0.0,0.0,0.0
136371252,8,1070.0,1169.0,1147.0,1092.0,1103.0,1136.0,0.0,0.0,0.0,0.0,0.0,0.0,0.0,0.0,0.0,0.0
136419267,8,1080.0,1159.0,1145.0,1094.0,1104.0,1135.0,0.0,0.0,0.0,0.0,0.0,0.0,0.0,0.0,0.0,0.0
136463258,8,1072.0,1167.0,1146.0,1093.0,1102.0,1137.0,0.0,0.0,0.0,0.0,0.0,0.0,0.0,0.0,0.0,0.0
136523306,8,1077.0,1162.0,1146.0,1093.0,1104.0,1135.0,0.0,0.0,0.0,0.0,0.0,0.0,0.0,0.0,0.0,0.0
136583298,8,1068.0,1171.0,1153.0,1086.0,1103.0,1136.0,0.0,0.0,0.0,0.0,0.0,0.0,0.0,0.0,0.0,0.0
136627310,8,1067.0,1172.0,1148.0,1091.0,1105.0,1134.0,0.0,0.0,0.0,0.0,0.0,0.0,0.0,0.0,0.0,0.0
136667544,8,1067.0,1172.0,1150.0,1089.0,1105.0,1134.0,0.0,0.0,0.0,0.0,0.0,0.0,0.0,0.0,0.0,0.0
136715583,8,1066.0,1173.0,1154.0,1085.0,1104.0,1135.0,0.0,0.0,0.0,0.0,0.0,0.0,0.0,0.0,0.0,0.0
136780370,8,1077.0,1162.0,1149.0,1090.0,1104.0,1135.0,0.0,0.0,0.0,0.0,0.0,0.0,0.0,0.0,0.0,0.0
136824401,8,1078.0,1161.0,1144.0,1095.0,1102.0,1137.0,0.0,0.0,0.0,0.0,0.0,0.0,0.0,0.0,0.0,0.0
136892483,8,1067.0,1172.0,1153.0,1086.0,1103.0,1136.0,0.0,0.0,0.0,0.0,0.0,0.0,0.0,0.0,0.0,0.0
136936076,8,1066.0,1173.0,1150.0,1089.0,1104.0,1135.0,0.0,0.0,0.0,0.0,0.0,0.0,0.0,0.0,0.0,0.0
136980386,8,1066.0,1173.0,1149.0,1090.0,1105.0,1134.0,0.0,0.0,0.0,0.0,0.0,0.0,0.0,0.0,0.0,0.0
137044402,8,1076.0,1163.0,1142.0,1097.0,1105.0,1134.0,0.0,0.0,0.0,0.0,0.0,0.0,0.0,0.0,0.0,0.0
137092079,8,1079.0,1160.0,1144.0,1095.0,1102.0,1137.0,0.0,0.0,0.0,0.0,0.0,0.0,0.0,0.0,0.0,0.0
137156093,8,1067.0,1172.0,1150.0,1089.0,1104.0,1135.0,0.0,0.0,0.0,0.0,0.0,0.0,0.0,0.0,0.0,0.0
137200364,8,1068.0,1171.0,1152.0,1087.0,1103.0,1136.0,0.0,0.0,0.0,0.0,0.0,0.0,0.0,0.0,0.0,0.0
137244318,8,1064.0,1175.0,1153.0,1086.0,1106.0,1133.0,0.0,0.0,0.0,0.0,0.0,0.0,0.0,0.0,0.0,0.0
137292123,8,1066.0,1173.0,1150.0,1089.0,1105.0,1134.0,0.0,0.0,0.0,0.0,0.0,0.0,0.0,0.0,0.0,0.0
137356385,8,1079.0,1161.0,1143.0,1096.0,1104.0,1135.0,0.0,0.0,0.0,0.0,0.0,0.0,0.0,0.0,0.0,0.0
137400124,8,1078.0,1161.0,1144.0,1095.0,1104.0,1135.0,0.0,0.0,0.0,0.0,0.0,0.0,0.0,0.0,0.0,0.0
137464902,8,1067.0,1173.0,1153.0,1086.0,1105.0,1134.0,0.0,0.0,0.0,0.0,0.0,0.0,0.0,0.0,0.0,0.0
137512922,8,1068.0,1172.0,1147.0,1092.0,1104.0,1135.0,0.0,0.0,0.0,0.0,0.0,0.0,0.0,0.0,0.0,0.0
137560901,8,1067.0,1172.0,1149.0,1090.0,1104.0,1135.0,0.0,0.0,0.0,0.0,0.0,0.0,0.0,0.0,0.0,0.0
137620905,8,1079.0,1160.0,1142.0,1097.0,1102.0,1137.0,0.0,0.0,0.0,0.0,0.0,0.0,0.0,0.0,0.0,0.0
137665175,8,1077.0,1163.0,1146.0,1093.0,1104.0,1135.0,0.0,0.0,0.0,0.0,0.0,0.0,0.0,0.0,0.0,0.0
137709167,8,1075.0,1164.0,1143.0,1096.0,1103.0,1136.0,0.0,0.0,0.0,0.0,0.0,0.0,0.0,0.0,0.0,0.0
137757251,8,1078.0,1162.0,1140.0,1099.0,1104.0,1135.0,0.0,0.0,0.0,0.0,0.0,0.0,0.0,0.0,0.0,0.0
137825254,8,1065.0,1174.0,1148.0,1091.0,1105.0,1134.0,0.0,0.0,0.0,0.0,0.0,0.0,0.0,0.0,0.0,0.0
137868921,8,1067.0,1172.0,1149.0,1090.0,1105.0,1134.0,0.0,0.0,0.0,0.0,0.0,0.0,0.0,0.0,0.0,0.0
137937352,8,1076.0,1163.0,1142.0,1097.0,1103.0,1136.0,0.0,0.0,0.0,0.0,0.0,0.0,0.0,0.0,0.0,0.0
137977705,8,1079.0,1160.0,1146.0,1093.0,1103.0,1136.0,0.0,0.0,0.0,0.0,0.0,0.0,0.0,0.0,0.0,0.0
138041942,8,1069.0,1170.0,1150.0,1089.0,1106.0,1133.0,0.0,0.0,0.0,0.0,0.0,0.0,0.0,0.0,0.0,0.0
138085680,8,1068.0,1171.0,1153.0,1086.0,1103.0,1136.0,0.0,0.0,0.0,0.0,0.0,0.0,0.0,0.0,0.0,0.0
138133685,8,1068.0,1171.0,1153.0,1086.0,1105.0,1134.0,0.0,0.0,0.0,0.0,0.0,0.0,0.0,0.0,0.0,0.0
138177725,8,1067.0,1173.0,1151.0,1088.0,1107.0,1132.0,0.0,0.0,0.0,0.0,0.0,0.0,0.0,0.0,0.0,0.0
138241745,8,1072.0,1167.0,1143.0,1096.0,1105.0,1134.0,0.0,0.0,0.0,0.0,0.0,0.0,0.0,0.0,0.0,0.0
138285918,8,1078.0,1161.0,1143.0,1096.0,1103.0,1136.0,0.0,0.0,0.0,0.0,0.0,0.0,0.0,0.0,0.0,0.0
138349679,8,1071.0,1168.0,1150.0,1089.0,1104.0,1135.0,0.0,0.0,0.0,0.0,0.0,0.0,0.0,0.0,0.0,0.0
138393716,8,1072.0,1167.0,1150.0,1089.0,1103.0,1136.0,0.0,0.0,0.0,0.0,0.0,0.0,0.0,0.0,0.0,0.0
138461671,8,1075.0,1164.0,1144.0,1095.0,1102.0,1137.0,0.0,0.0,0.0,0.0,0.0,0.0,0.0,0.0,0.0,0.0
138506022,8,1076.0,1163.0,1146.0,1093.0,1103.0,1136.0,0.0,0.0,0.0,0.0,0.0,0.0,0.0,0.0,0.0,0.0
138550087,8,1073.0,1166.0,1149.0,1090.0,1105.0,1134.0,0.0,0.0,0.0,0.0,0.0,0.0,0.0,0.0,0.0,0.0
138613678,8,1075.0,1165.0,1151.0,1088.0,1106.0,1133.0,0.0,0.0,0.0,0.0,0.0,0.0,0.0,0.0,0.0,0.0
138658847,8,1071.0,1168.0,1149.0,1090.0,1105.0,1134.0,0.0,0.0,0.0,0.0,0.0,0.0,0.0,0.0,0.0,0.0
138702516,8,1071.0,1165.0,1144.0,1095.0,1104.0,1135.0,0.0,0.0,0.0,0.0,0.0,0.0,0.0,0.0,0.0,0.0
138750779,8,1070.0,1169.0,1150.0,1089.0,1105.0,1134.0,0.0,0.0,0.0,0.0,0.0,0.0,0.0,0.0,0.0,0.0
138818828,8,1076.0,1163.0,1145.0,1094.0,1105.0,1134.0,0.0,0.0,0.0,0.0,0.0,0.0,0.0,0.0,0.0,0.0
138866548,8,1079.0,1161.0,1144.0,1095.0,1103.0,1136.0,0.0,0.0,0.0,0.0,0.0,0.0,0.0,0.0,0.0,0.0
138914788,8,1079.0,1160.0,1146.0,1093.0,1105.0,1134.0,0.0,0.0,0.0,0.0,0.0,0.0,0.0,0.0,0.0,0.0
138962855,8,1077.0,1163.0,1145.0,1094.0,1106.0,1133.0,0.0,0.0,0.0,0.0,0.0,0.0,0.0,0.0,0.0,0.0
139010785,8,1075.0,1164.0,1144.0,1095.0,1105.0,1134.0,0.0,0.0,0.0,0.0,0.0,0.0,0.0,0.0,0.0,0.0
139074479,8,1066.0,1173.0,1152.0,1087.0,1108.0,1131.0,0.0,0.0,0.0,0.0,0.0,0.0,0.0,0.0,0.0,0.0
139118816,8,1066.0,1173.0,1150.0,1089.0,1105.0,1134.0,0.0,0.0,0.0,0.0,0.0,0.0,0.0,0.0,0.0,0.0
139186762,8,1075.0,1164.0,1145.0,1094.0,1106.0,1133.0,0.0,0.0,0.0,0.0,0.0,0.0,0.0,0.0,0.0,0.0
139235118,8,1074.0,1166.0,1146.0,1093.0,1104.0,1135.0,0.0,0.0,0.0,0.0,0.0,0.0,0.0,0.0,0.0,0.0
139278486,8,1076.0,1164.0,1147.0,1092.0,1102.0,1135.0,0.0,0.0,0.0,0.0,0.0,0.0,0.0,0.0,0.0,0.0
139343606,8,1069.0,1170.0,1148.0,1091.0,1104.0,1135.0,0.0,0.0,0.0,0.0,0.0,0.0,0.0,0.0,0.0,0.0
139383287,8,1069.0,1170.0,1153.0,1086.0,1108.0,1131.0,0.0,0.0,0.0,0.0,0.0,0.0,0.0,0.0,0.0,0.0
139427308,8,1065.0,1174.0,1154.0,1085.0,1104.0,1135.0,0.0,0.0,0.0,0.0,0.0,0.0,0.0,0.0,0.0,0.0
139495594,8,1077.0,1162.0,1148.0,1091.0,1105.0,1134.0,0.0,0.0,0.0,0.0,0.0,0.0,0.0,0.0,0.0,0.0
139539287,8,1077.0,1162.0,1140.0,1099.0,1104.0,1135.0,0.0,0.0,0.0,0.0,0.0,0.0,0.0,0.0,0.0,0.0
139587316,8,1079.0,1160.0,1140.0,1099.0,1104.0,1135.0,0.0,0.0,0.0,0.0,0.0,0.0,0.0,0.0,0.0,0.0
139651635,8,1069.0,1170.0,1149.0,1090.0,1108.0,1131.0,0.0,0.0,0.0,0.0,0.0,0.0,0.0,0.0,0.0,0.0
139699563,8,1070.0,1170.0,1149.0,1090.0,1105.0,1134.0,0.0,0.0,0.0,0.0,0.0,0.0,0.0,0.0,0.0,0.0
139747693,8,1071.0,1168.0,1150.0,1089.0,1104.0,1135.0,0.0,0.0,0.0,0.0,0.0,0.0,0.0,0.0,0.0,0.0
139795694,8,1071.0,1168.0,1150.0,1089.0,1106.0,1133.0,0.0,0.0,0.0,0.0,0.0,0.0,0.0,0.0,0.0,0.0
139860148,8,1075.0,1164.0,1149.0,1090.0,1104.0,1135.0,0.0,0.0,0.0,0.0,0.0,0.0,0.0,0.0,0.0,0.0
139904079,8,1076.0,1163.0,1150.0,1089.0,1106.0,1133.0,0.0,0.0,0.0,0.0,0.0,0.0,0.0,0.0,0.0,0.0
139952112,8,1072.0,1167.0,1149.0,1090.0,1107.0,1132.0,0.0,0.0,0.0,0.0,0.0,0.0,0.0,0.0,0.0,0.0
140016088,8,1069.0,1170.0,1149.0,1090.0,1106.0,1133.0,0.0,0.0,0.0,0.0,0.0,0.0,0.0,0.0,0.0,0.0
140060413,8,1070.0,1169.0,1147.0,1092.0,1105.0,1134.0,0.0,0.0,0.0,0.0,0.0,0.0,0.0,0.0,0.0,0.0
140108103,8,1069.0,1170.0,1147.0,1092.0,1102.0,1137.0,0.0,0.0,0.0,0.0,0.0,0.0,0.0,0.0,0.0,0.0
140156116,8,1077.0,1162.0,1146.0,1093.0,1105.0,1134.0,0.0,0.0,0.0,0.0,0.0,0.0,0.0,0.0,0.0,0.0
140228399,8,1069.0,1171.0,1151.0,1088.0,1106.0,1133.0,0.0,0.0,0.0,0.0,0.0,0.0,0.0,0.0,0.0,0.0
140276108,8,1069.0,1170.0,1155.0,1084.0,1105.0,1134.0,0.0,0.0,0.0,0.0,0.0,0.0,0.0,0.0,0.0,0.0
140320126,8,1064.0,1175.0,1155.0,1084.0,1103.0,1136.0,0.0,0.0,0.0,0.0,0.0,0.0,0.0,0.0,0.0,0.0
140380087,8,1077.0,1162.0,1146.0,1093.0,1103.0,1136.0,0.0,0.0,0.0,0.0,0.0,0.0,0.0,0.0,0.0,0.0
140440107,8,1076.0,1163.0,1148.0,1091.0,1105.0,1134.0,0.0,0.0,0.0,0.0,0.0,0.0,0.0,0.0,0.0,0.0
140480924,8,1078.0,1161.0,1141.0,1098.0,1105.0,1134.0,0.0,0.0,0.0,0.0,0.0,0.0,0.0,0.0,0.0,0.0
140544892,8,1067.0,1172.0,1152.0,1087.0,1107.0,1132.0,0.0,0.0,0.0,0.0,0.0,0.0,0.0,0.0,0.0,0.0
140588879,8,1067.0,1173.0,1151.0,1088.0,1104.0,1135.0,0.0,0.0,0.0,0.0,0.0,0.0,0.0,0.0,0.0,0.0
140628997,8,1069.0,1170.0,1153.0,1086.0,1108.0,1131.0,0.0,0.0,0.0,0.0,0.0,0.0,0.0,0.0,0.0,0.0
140692884,8,1078.0,1161.0,1143.0,1096.0,1105.0,1134.0,0.0,0.0,0.0,0.0,0.0,0.0,0.0,0.0,0.0,0.0
140733219,8,1078.0,1161.0,1148.0,1091.0,1105.0,1134.0,0.0,0.0,0.0,0.0,0.0,0.0,0.0,0.0,0.0,0.0
140804922,8,1070.0,1169.0,1154.0,1085.0,1107.0,1132.0,0.0,0.0,0.0,0.0,0.0,0.0,0.0,0.0,0.0,0.0
140849122,8,1065.0,1174.0,1158.0,1081.0,1105.0,1134.0,0.0,0.0,0.0,0.0,0.0,0.0,0.0,0.0,0.0,0.0
140896940,8,1067.0,1172.0,1150.0,1089.0,1108.0,1131.0,0.0,0.0,0.0,0.0,0.0,0.0,0.0,0.0,0.0,0.0
140960885,8,1076.0,1164.0,1144.0,1095.0,1105.0,1134.0,0.0,0.0,0.0,0.0,0.0,0.0,0.0,0.0,0.0,0.0
141009232,8,1076.0,1163.0,1142.0,1097.0,1105.0,1134.0,0.0,0.0,0.0,0.0,0.0,0.0,0.0,0.0,0.0,0.0
141052909,8,1078.0,1162.0,1146.0,1093.0,1104.0,1134.0,0.0,0.0,0.0,0.0,0.0,0.0,0.0,0.0,0.0,0.0
141117701,8,1068.0,1171.0,1153.0,1086.0,1105.0,1134.0,0.0,0.0,0.0,0.0,0.0,0.0,0.0,0.0,0.0,0.0
141161758,8,1069.0,1170.0,1153.0,1086.0,1103.0,1136.0,0.0,0.0,0.0,0.0,0.0,0.0,0.0,0.0,0.0,0.0
141205724,8,1068.0,1172.0,1154.0,1085.0,1108.0,1131.0,0.0,0.0,0.0,0.0,0.0,0.0,0.0,0.0,0.0,0.0
141249656,8,1069.0,1170.0,1153.0,1086.0,1108.0,1131.0,0.0,0.0,0.0,0.0,0.0,0.0,0.0,0.0,0.0,0.0
141317729,8,1079.0,1161.0,1148.0,1091.0,1105.0,1134.0,0.0,0.0,0.0,0.0,0.0,0.0,0.0,0.0,0.0,0.0
141365698,8,1074.0,1165.0,1146.0,1093.0,1105.0,1134.0,0.0,0.0,0.0,0.0,0.0,0.0,0.0,0.0,0.0,0.0
141413960,8,1075.0,1164.0,1146.0,1093.0,1104.0,1135.0,0.0,0.0,0.0,0.0,0.0,0.0,0.0,0.0,0.0,0.0
141481711,8,1072.0,1167.0,1145.0,1094.0,1102.0,1137.0,0.0,0.0,0.0,0.0,0.0,0.0,0.0,0.0,0.0,0.0
141521959,8,1067.0,1172.0,1150.0,1089.0,1106.0,1133.0,0.0,0.0,0.0,0.0,0.0,0.0,0.0,0.0,0.0,0.0
141589737,8,1077.0,1163.0,1145.0,1094.0,1103.0,1136.0,0.0,0.0,0.0,0.0,0.0,0.0,0.0,0.0,0.0,0.0
141637710,8,1075.0,1165.0,1148.0,1091.0,1106.0,1133.0,0.0,0.0,0.0,0.0,0.0,0.0,0.0,0.0,0.0,0.0
141682806,8,1076.0,1163.0,1152.0,1087.0,1106.0,1133.0,0.0,0.0,0.0,0.0,0.0,0.0,0.0,0.0,0.0,0.0
141726496,8,1069.0,1170.0,1150.0,1089.0,1104.0,1135.0,0.0,0.0,0.0,0.0,0.0,0.0,0.0,0.0,0.0,0.0
141774518,8,1073.0,1166.0,1145.0,1094.0,1108.0,1131.0,0.0,0.0,0.0,0.0,0.0,0.0,0.0,0.0,0.0,0.0
141842521,8,1074.0,1165.0,1143.0,1096.0,1107.0,1132.0,0.0,0.0,0.0,0.0,0.0,0.0,0.0,0.0,0.0,0.0
141886517,8,1075.0,1164.0,1143.0,1096.0,1102.0,1137.0,0.0,0.0,0.0,0.0,0.0,0.0,0.0,0.0,0.0,0.0
141946830,8,1077.0,1162.0,1146.0,1093.0,1103.0,1136.0,0.0,0.0,0.0,0.0,0.0,0.0,0.0,0.0,0.0,0.0
141994765,8,1069.0,1170.0,1150.0,1089.0,1104.0,1135.0,0.0,0.0,0.0,0.0,0.0,0.0,0.0,0.0,0.0,0.0
142042736,8,1069.0,1170.0,1153.0,1086.0,1108.0,1131.0,0.0,0.0,0.0,0.0,0.0,0.0,0.0,0.0,0.0,0.0
142090811,8,1069.0,1170.0,1156.0,1083.0,1106.0,1133.0,0.0,0.0,0.0,0.0,0.0,0.0,0.0,0.0,0.0,0.0
142138804,8,1069.0,1171.0,1152.0,1087.0,1104.0,1135.0,0.0,0.0,0.0,0.0,0.0,0.0,0.0,0.0,0.0,0.0
142202545,8,1074.0,1166.0,1146.0,1093.0,1102.0,1137.0,0.0,0.0,0.0,0.0,0.0,0.0,0.0,0.0,0.0,0.0
142266507,8,1069.0,1170.0,1152.0,1087.0,1103.0,1136.0,0.0,0.0,0.0,0.0,0.0,0.0,0.0,0.0,0.0,0.0
142314572,8,1065.0,1174.0,1151.0,1088.0,1107.0,1132.0,0.0,0.0,0.0,0.0,0.0,0.0,0.0,0.0,0.0,0.0
142354804,8,1070.0,1169.0,1153.0,1086.0,1102.0,1137.0,0.0,0.0,0.0,0.0,0.0,0.0,0.0,0.0,0.0,0.0
142419578,8,1075.0,1164.0,1142.0,1097.0,1105.0,1134.0,0.0,0.0,0.0,0.0,0.0,0.0,0.0,0.0,0.0,0.0
142463385,8,1075.0,1164.0,1144.0,1095.0,1101.0,1138.0,0.0,0.0,0.0,0.0,0.0,0.0,0.0,0.0,0.0,0.0
142507345,8,1076.0,1163.0,1146.0,1093.0,1106.0,1133.0,0.0,0.0,0.0,0.0,0.0,0.0,0.0,0.0,0.0,0.0
142567586,8,1080.0,1159.0,1147.0,1092.0,1107.0,1132.0,0.0,0.0,0.0,0.0,0.0,0.0,0.0,0.0,0.0,0.0
142615320,8,1072.0,1167.0,1155.0,1084.0,1108.0,1131.0,0.0,0.0,0.0,0.0,0.0,0.0,0.0,0.0,0.0,0.0
142683554,8,1078.0,1161.0,1147.0,1092.0,1105.0,1134.0,0.0,0.0,0.0,0.0,0.0,0.0,0.0,0.0,0.0,0.0
142727579,8,1073.0,1166.0,1147.0,1092.0,1102.0,1137.0,0.0,0.0,0.0,0.0,0.0,0.0,0.0,0.0,0.0,0.0
142775616,8,1076.0,1163.0,1141.0,1098.0,1104.0,1135.0,0.0,0.0,0.0,0.0,0.0,0.0,0.0,0.0,0.0,0.0
142823592,8,1078.0,1161.0,1142.0,1097.0,1106.0,1133.0,0.0,0.0,0.0,0.0,0.0,0.0,0.0,0.0,0.0,0.0
142871575,8,1078.0,1161.0,1145.0,1094.0,1104.0,1135.0,0.0,0.0,0.0,0.0,0.0,0.0,0.0,0.0,0.0,0.0
142943635,8,1068.0,1171.0,1148.0,1091.0,1103.0,1136.0,0.0,0.0,0.0,0.0,0.0,0.0,0.0,0.0,0.0,0.0
142992132,8,1072.0,1168.0,1146.0,1093.0,1101.0,1138.0,0.0,0.0,0.0,0.0,0.0,0.0,0.0,0.0,0.0,0.0
143036141,8,1073.0,1166.0,1148.0,1091.0,1104.0,1135.0,0.0,0.0,0.0,0.0,0.0,0.0,0.0,0.0,0.0,0.0
143080337,8,1073.0,1166.0,1149.0,1090.0,1106.0,1133.0,0.0,0.0,0.0,0.0,0.0,0.0,0.0,0.0,0.0,0.0
143148123,8,1073.0,1166.0,1153.0,1086.0,1108.0,1131.0,0.0,0.0,0.0,0.0,0.0,0.0,0.0,0.0,0.0,0.0
143196121,8,1070.0,1169.0,1154.0,1085.0,1109.0,1130.0,0.0,0.0,0.0,0.0,0.0,0.0,0.0,0.0,0.0,0.0
143240149,8,1069.0,1170.0,1150.0,1089.0,1106.0,1133.0,0.0,0.0,0.0,0.0,0.0,0.0,0.0,0.0,0.0,0.0
143308433,8,1076.0,1163.0,1144.0,1095.0,1102.0,1137.0,0.0,0.0,0.0,0.0,0.0,0.0,0.0,0.0,0.0,0.0
143352375,8,1074.0,1165.0,1143.0,1096.0,1102.0,1137.0,0.0,0.0,0.0,0.0,0.0,0.0,0.0,0.0,0.0,0.0
143400117,8,1079.0,1160.0,1141.0,1098.0,1105.0,1134.0,0.0,0.0,0.0,0.0,0.0,0.0,0.0,0.0,0.0,0.0
143464139,8,1072.0,1167.0,1148.0,1091.0,1108.0,1131.0,0.0,0.0,0.0,0.0,0.0,0.0,0.0,0.0,0.0,0.0
143508087,8,1073.0,1166.0,1153.0,1086.0,1102.0,1137.0,0.0,0.0,0.0,0.0,0.0,0.0,0.0,0.0,0.0,0.0
143552121,8,1070.0,1169.0,1154.0,1085.0,1107.0,1132.0,0.0,0.0,0.0,0.0,0.0,0.0,0.0,0.0,0.0,0.0
143616939,8,1070.0,1170.0,1149.0,1090.0,1104.0,1135.0,0.0,0.0,0.0,0.0,0.0,0.0,0.0,0.0,0.0,0.0
143664940,8,1075.0,1164.0,1144.0,1095.0,1106.0,1133.0,0.0,0.0,0.0,0.0,0.0,0.0,0.0,0.0,0.0,0.0
143712884,8,1077.0,1162.0,1143.0,1096.0,1105.0,1134.0,0.0,0.0,0.0,0.0,0.0,0.0,0.0,0.0,0.0,0.0
143760897,8,1076.0,1163.0,1142.0,1098.0,1100.0,1139.0,0.0,0.0,0.0,0.0,0.0,0.0,0.0,0.0,0.0,0.0
143808994,8,1077.0,1162.0,1145.0,1094.0,1105.0,1134.0,0.0,0.0,0.0,0.0,0.0,0.0,0.0,0.0,0.0,0.0
143880881,8,1069.0,1170.0,1145.0,1094.0,1100.0,1139.0,0.0,0.0,0.0,0.0,0.0,0.0,0.0,0.0,0.0,0.0
143921233,8,1070.0,1169.0,1151.0,1088.0,1106.0,1133.0,0.0,0.0,0.0,0.0,0.0,0.0,0.0,0.0,0.0,0.0
143988874,8,1075.0,1164.0,1146.0,1093.0,1105.0,1134.0,0.0,0.0,0.0,0.0,0.0,0.0,0.0,0.0,0.0,0.0
144032912,8,1077.0,1162.0,1151.0,1088.0,1105.0,1134.0,0.0,0.0,0.0,0.0,0.0,0.0,0.0,0.0,0.0,0.0
144073194,8,1077.0,1162.0,1141.0,1098.0,1103.0,1136.0,0.0,0.0,0.0,0.0,0.0,0.0,0.0,0.0,0.0,0.0
144141157,8,1067.0,1172.0,1154.0,1085.0,1103.0,1136.0,0.0,0.0,0.0,0.0,0.0,0.0,0.0,0.0,0.0,0.0
144184882,8,1068.0,1171.0,1151.0,1088.0,1109.0,1130.0,0.0,0.0,0.0,0.0,0.0,0.0,0.0,0.0,0.0,0.0
144228943,8,1069.0,1171.0,1152.0,1087.0,1104.0,1135.0,0.0,0.0,0.0,0.0,0.0,0.0,0.0,0.0,0.0,0.0
144293276,8,1079.0,1160.0,1142.0,1097.0,1105.0,1134.0,0.0,0.0,0.0,0.0,0.0,0.0,0.0,0.0,0.0,0.0
144337754,8,1080.0,1159.0,1143.0,1096.0,1101.0,1138.0,0.0,0.0,0.0,0.0,0.0,0.0,0.0,0.0,0.0,0.0
144405670,8,1068.0,1171.0,1154.0,1085.0,1102.0,1137.0,0.0,0.0,0.0,0.0,0.0,0.0,0.0,0.0,0.0,0.0
144453669,8,1069.0,1171.0,1151.0,1088.0,1105.0,1134.0,0.0,0.0,0.0,0.0,0.0,0.0,0.0,0.0,0.0,0.0
144498073,8,1068.0,1171.0,1151.0,1088.0,1105.0,1134.0,0.0,0.0,0.0,0.0,0.0,0.0,0.0,0.0,0.0,0.0
144541739,8,1068.0,1171.0,1150.0,1089.0,1105.0,1134.0,0.0,0.0,0.0,0.0,0.0,0.0,0.0,0.0,0.0,0.0
