timestamp,time_utc_usec,lat,lon,alt,alt_ellipsoid,s_variance_m_s,c_variance_rad,eph,epv,hdop,vdop,noise_per_ms,jamming_indicator,vel_m_s,vel_n_m_s,vel_e_m_s,vel_d_m_s,cog_rad,timestamp_time_relative,fix_type,vel_ned_valid,satellites_used
109355613,1541556169999533,298067591,1065381956,341445,314781,0.33200002,0.78121924,1.322,1.7820001,1.28,1.8499999,90,3,0.038000003,-0.003,-0.037,-0.032,0.9798548,0,4,1,8
110345475,1541556170999533,298067613,1065381953,341678,315014,0.35300002,0.7812758,1.332,1.8010001,1.28,1.8499999,90,2,0.036000002,-0.031000001,-0.018000001,-0.134,0.9798548,0,4,1,8
110549401,1541556171199531,298067617,1065381953,341718,315054,0.34800002,0.781288,1.3340001,1.8040001,1.28,1.8499999,90,2,0.049000002,0.012,-0.047000002,-0.067,0.9798548,0,4,1,8
110744596,1541556171399531,298067621,1065381953,341755,315091,0.34600002,0.78130025,1.335,1.8060001,1.28,1.8499999,90,2,0.022000002,0.007,-0.021000002,-0.09200001,0.9798548,0,4,1,8
111142802,1541556171799531,298067629,1065381953,341824,315160,0.349,0.7813245,1.338,1.8100001,1.28,1.8499999,91,3,0.052,-0.042000003,0.031000001,-0.018000001,0.9798548,0,4,1,8
111352886,1541556171999532,298067635,1065381949,341920,315256,0.35500002,0.7813371,1.34,1.812,1.28,1.8499999,91,3,0.148,0.109000005,-0.1,0.006,0.9798548,0,4,1,8
111735629,1541556172399531,298067644,1065381947,341993,315329,0.34500003,0.78136116,1.3440001,1.82,1.28,1.8499999,91,3,0.042000003,0.014,-0.040000003,-0.026,0.9798548,0,4,1,8
112340482,1541556172999532,298067656,1065381947,342048,315384,0.35500002,0.781394,1.35,1.83,1.28,1.8499999,91,9,0.026,-0.025,-0.007,-0.067,0.9798548,0,4,1,8
112944725,1541556173599531,298067666,1065381945,342149,315485,0.344,0.7814277,1.3540001,1.8360001,1.28,1.8499999,91,9,0.064,-0.039,-0.051000003,-0.083000004,0.9798548,0,4,1,8
113141488,1541556173799530,298067669,1065381944,342182,315518,0.33400002,0.78143936,1.355,1.838,1.28,1.8499999,91,9,0.068,-0.045,-0.05,-0.068,0.9798548,0,4,1,8
113357479,1541556173999531,298067671,1065381945,342194,315530,0.349,0.7814516,1.3560001,1.8420001,1.28,1.8499999,91,9,0.021000002,-0.021000002,-0.002,-0.076000005,0.9798548,0,4,1,8
113549566,1541556174199530,298067675,1065381944,342219,315555,0.344,0.7814638,1.3570001,1.843,1.2099999,1.8399999,91,9,0.028,0.014,-0.025,-0.016,0.9798548,0,4,1,9
113749495,1541556174399530,298067677,1065381943,342244,315580,0.34800002,0.781476,1.3570001,1.8440001,1.2099999,1.8399999,91,9,0.089,-0.068,0.058000002,0.014,0.9798548,0,4,1,9
113949482,1541556174599530,298067680,1065381941,342279,315615,0.328,0.7814875,1.355,1.845,1.2099999,1.8399999,91,9,0.026,0.023000002,-0.013,-0.051000003,0.9798548,0,4,1,9
114150486,1541556174799530,298067682,1065381937,342343,315679,0.23400001,0.78149575,1.3540001,1.8470001,1.2099999,1.8399999,97,9,0.07700001,0.006,0.076000005,-0.029000001,0.9798548,0,4,1,9
114349190,1541556174999531,298067684,1065381931,342424,315760,0.324,0.7815071,1.353,1.8490001,1.2099999,1.8399999,97,9,0.054,-0.048,-0.024,-0.035,0.9798548,0,4,1,9
114542513,1541556175199530,298067686,1065381925,342493,315829,0.3,0.78151757,1.3510001,1.8510001,1.2099999,1.8399999,97,9,0.036000002,0.036000002,-0.003,-0.045,0.9798548,0,4,1,9
114751683,1541556175399530,298067688,1065381918,342559,315895,0.33800003,0.7815294,1.3490001,1.853,1.2099999,1.8399999,97,9,0.093,-0.027,-0.089,-0.13100001,0.9798548,0,4,1,9
114947535,1541556175599530,298067690,1065381909,342637,315973,0.33800003,0.7815413,1.3470001,1.8550001,1.2099999,1.8399999,97,9,0.069000006,0.061000004,-0.033,-0.043,0.9798548,0,4,1,9
115148712,1541556175799530,298067693,1065381901,342720,316056,0.33,0.7815528,1.345,1.8570001,1.2099999,1.8399999,97,9,0.049000002,0.011000001,-0.048,-0.037,0.9798548,0,4,1,9
115351582,1541556175999531,298067696,1065381892,342791,316128,0.34800002,0.781565,1.343,1.858,1.2099999,1.8399999,97,9,0.133,0.07,-0.113000005,-0.036000002,0.9798548,0,4,1,9
115551618,1541556176199530,298067699,1065381885,342837,316173,0.333,0.7815767,1.3410001,1.8600001,1.2099999,1.8399999,97,9,0.026,0.018000001,-0.019000001,-0.086,0.9798548,0,4,1,9
115749479,1541556176399530,298067701,1065381877,342899,316235,0.328,0.78158826,1.3390001,1.8620001,1.2099999,1.8399999,97,9,0.046000004,0.042000003,-0.020000001,-0.043,0.9798548,0,4,1,9
115947823,1541556176599529,298067705,1065381869,342994,316330,0.245,0.78159696,1.337,1.8640001,1.2099999,1.8399999,97,9,0.048,0.026,0.040000003,-0.069000006,0.9798548,0,4,1,9
116152497,1541556176799529,298067709,1065381861,343057,316393,0.35500002,0.78160936,1.3360001,1.866,1.2099999,1.8399999,97,8,0.16000001,0.116000004,-0.11000001,-0.012,0.9798548,0,4,1,9
116350483,1541556176999530,298067712,1065381850,343157,316493,0.279,0.78161913,1.3340001,1.8670001,1.2099999,1.8399999,97,8,0.049000002,-0.041,-0.027,-0.016,0.9798548,0,4,1,9
116551858,1541556177199529,298067714,1065381844,343181,316517,0.33400002,0.7816308,1.332,1.8690001,1.2099999,1.8399999,97,8,0.07700001,-0.042000003,-0.065000005,-0.097,0.9798548,0,4,1,9
116753488,1541556177399529,298067717,1065381836,343248,316584,0.26500002,0.78164023,1.3310001,1.871,1.2099999,1.8399999,97,8,0.046000004,-0.003,-0.046000004,0.012,0.9798548,0,4,1,9
116950495,1541556177599529,298067720,1065381826,343358,316694,0.358,0.7816528,1.33,1.8730001,1.2099999,1.8399999,97,8,0.089,-0.089,0.0,-0.102000006,0.9798548,0,4,1,9
117150491,1541556177799529,298067723,1065381817,343468,316804,0.342,0.78166485,1.3280001,1.8730001,1.2099999,1.8399999,97,9,0.028,-0.024,0.014,-0.078,0.9798548,0,4,1,9
117349245,1541556177999530,298067727,1065381808,343548,316884,0.36200002,0.7816774,1.327,1.8740001,1.2099999,1.8399999,97,9,0.052,0.046000004,-0.023000002,0.024,0.9798548,0,4,1,9
117551593,1541556178199529,298067731,1065381800,343613,316949,0.342,0.78168947,1.3260001,1.876,1.2099999,1.8399999,97,9,0.044000003,0.016,-0.041,-0.055000003,0.9798548,0,4,1,9
117750004,1541556178399529,298067734,1065381792,343680,317016,0.314,0.78170043,1.325,1.8780001,1.2099999,1.8399999,97,9,0.042000003,-0.018000001,0.038000003,-0.027,0.9798548,0,4,1,9
117950484,1541556178599529,298067736,1065381784,343763,317099,0.35500002,0.781713,1.325,1.881,1.2099999,1.8399999,97,9,0.035,-0.027,0.023000002,0.020000001,0.9798548,0,4,1,9
118148517,1541556178799529,298067739,1065381777,343851,317187,0.35000002,0.7817252,1.3240001,1.8830001,1.2099999,1.8399999,97,9,0.068,-0.034,0.059000004,-0.044000003,0.9798548,0,4,1,9
118351595,1541556178999530,298067740,1065381772,343891,317227,0.381,0.7817387,1.3240001,1.8850001,1.2099999,1.8399999,97,9,0.109000005,-0.106000006,0.029000001,0.0050000004,0.9798548,0,4,1,9
118555580,1541556179199528,298067743,1065381761,344008,317344,0.35500002,0.7817511,1.3240001,1.886,1.2099999,1.8399999,97,9,0.123,0.09900001,-0.07300001,-0.056,0.9798548,0,4,1,9
118756589,1541556179399528,298067748,1065381752,344078,317414,0.367,0.781764,1.3230001,1.8880001,1.2099999,1.8399999,97,9,0.117000006,0.09,-0.074,-0.010000001,0.9798548,0,4,1,9
118948489,1541556179599528,298067750,1065381744,344147,317483,0.36100003,0.78177655,1.3230001,1.889,1.2099999,1.8399999,97,9,0.064,-0.063,-0.011000001,-0.062000003,0.9798548,0,4,1,9
119148624,1541556179799528,298067752,1065381735,344243,317579,0.314,0.7817876,1.3210001,1.889,1.2099999,1.8399999,97,8,0.029000001,0.028,-0.003,-0.08400001,0.9798548,0,4,1,9
119365483,1541556179999529,298067755,1065381727,344313,317649,0.335,0.78179926,1.32,1.8880001,1.2099999,1.8399999,97,8,0.052,0.044000003,-0.028,-0.056,0.9798548,0,4,1,9
119589519,1541556180199528,298067752,1065381734,344247,317583,0.305,0.78181005,1.3050001,1.8690001,0.76,1.11,97,8,0.062000003,-0.044000003,-0.043,-0.049000002,0.9798548,0,4,1,13
119749538,1541556180399528,298067749,1065381738,344237,317573,0.305,0.7818207,1.2870001,1.848,0.76,1.11,97,8,0.036000002,0.018000001,0.031000001,0.040000003,0.9798548,0,4,1,13
119942479,1541556180599528,298067746,1065381743,344189,317525,0.163,0.7818265,1.2700001,1.83,0.76,1.11,97,8,0.038000003,-0.022000002,-0.031000001,0.016,0.9798548,0,4,1,13
120134539,1541556180799528,298067744,1065381745,344174,317510,0.257,0.78183556,1.2570001,1.817,0.76,1.11,97,8,0.062000003,0.009000001,0.062000003,0.039,0.9798548,0,4,1,13
120342480,1541556180999529,298067743,1065381745,344185,317521,0.24900001,0.78184426,1.243,1.8010001,0.76,1.11,97,8,0.016,-0.010000001,-0.012,0.043,0.9798548,0,4,1,13
120543708,1541556181199528,298067742,1065381743,344194,317530,0.293,0.78185457,1.228,1.7830001,0.76,1.11,97,8,0.013,0.012,-0.003,0.076000005,0.9798548,0,4,1,13
120742484,1541556181399528,298067742,1065381740,344193,317529,0.303,0.78186524,1.215,1.769,0.76,1.11,97,8,0.033,0.027,0.018000001,0.07300001,0.9798548,0,4,1,13
120943636,1541556181599528,298067744,1065381735,344246,317582,0.305,0.78187585,1.2030001,1.7550001,0.76,1.11,97,8,0.052,0.048,0.019000001,0.108,0.9798548,0,4,1,13
121144597,1541556181799527,298067744,1065381731,344270,317606,0.286,0.781886,1.1930001,1.7420001,0.76,1.11,97,8,0.059000004,-0.011000001,0.058000002,0.10700001,0.9798548,0,4,1,13
121343553,1541556181999528,298067745,1065381727,344302,317638,0.272,0.7818954,1.1830001,1.7310001,0.76,1.11,97,8,0.029000001,-0.006,0.028,0.028,0.9798548,0,4,1,13
121587789,1541556182199527,298067746,1065381722,344348,317684,0.30400002,0.78190607,1.1730001,1.718,0.76,1.11,97,8,0.062000003,0.043,0.044000003,0.15900001,0.9798548,0,4,1,13
121745509,1541556182399527,298067746,1065381718,344379,317715,0.30800003,0.78191686,1.1630001,1.7060001,0.76,1.11,97,8,0.030000001,0.025,0.016,0.065000005,0.9798548,0,4,1,13
121944556,1541556182599527,298067747,1065381714,344403,317739,0.30800003,0.7819277,1.1520001,1.6910001,0.76,1.11,97,8,0.063,0.054,0.032,0.14,0.9798548,0,4,1,13
122147237,1541556182799527,298067748,1065381710,344409,317745,0.298,0.7819382,1.1420001,1.6780001,0.76,1.11,97,9,0.042000003,0.015000001,0.039,0.15,0.9798548,0,4,1,13
122342486,1541556182999528,298067749,1065381707,344449,317785,0.246,0.7819469,1.131,1.6650001,0.76,1.11,97,9,0.054,0.015000001,0.052,0.029000001,0.9798548,0,4,1,13
122541535,1541556183199527,298067750,1065381703,344499,317835,0.291,0.78195703,1.123,1.654,0.76,1.11,97,9,0.023000002,0.021000002,0.010000001,0.015000001,0.9798548,0,4,1,13
122738493,1541556183399527,298067751,1065381699,344536,317872,0.289,0.78196716,1.1140001,1.6430001,0.76,1.11,97,9,0.089,0.021000002,0.086,0.120000005,0.9798548,0,4,1,13
122940931,1541556183599527,298067752,1065381697,344555,317891,0.29900002,0.7819776,1.105,1.6320001,0.76,1.11,97,9,0.020000001,0.006,0.019000001,0.080000006,0.9798548,0,4,1,13
123142489,1541556183799527,298067753,1065381694,344593,317929,0.284,0.78198755,1.097,1.621,0.76,1.11,97,9,0.059000004,-0.021000002,0.055000003,0.098000005,0.9798548,0,4,1,13
123346491,1541556183999528,298067754,1065381691,344616,317952,0.30100003,0.7819982,1.0890001,1.6110001,0.76,1.11,97,9,0.042000003,0.015000001,0.039,0.105000004,0.9798548,0,4,1,13
123545673,1541556184199527,298067755,1065381687,344640,317976,0.289,0.78200835,1.082,1.6020001,0.76,1.11,97,9,0.029000001,-0.012,0.027,0.18,0.9798548,0,4,1,13
123743591,1541556184399527,298067755,1065381684,344665,318001,0.30200002,0.78201896,1.074,1.593,0.76,1.11,97,9,0.045,0.023000002,0.039,0.15300001,0.9798548,0,4,1,13
123946951,1541556184599526,298067756,1065381682,344692,318028,0.30900002,0.7820296,1.067,1.5840001,0.76,1.11,97,9,0.055000003,0.055000003,-0.002,0.132,0.9798548,0,4,1,13
124143633,1541556184799526,298067756,1065381680,344698,318034,0.28800002,0.78203976,1.0600001,1.575,0.76,1.11,97,9,0.038000003,-0.016,0.035,0.098000005,0.9798548,0,4,1,13
124343614,1541556184999527,298067756,1065381678,344725,318061,0.303,0.7820504,1.0530001,1.567,0.76,1.11,97,9,0.044000003,0.022000002,0.039,0.096,0.9798548,0,4,1,13
124546481,1541556185199526,298067756,1065381675,344757,318093,0.29700002,0.78206086,1.047,1.5580001,0.76,1.11,97,9,0.07700001,0.061000004,0.047000002,0.08400001,0.9798548,0,4,1,13
124751786,1541556185399526,298067757,1065381672,344790,318126,0.294,0.7820712,1.0400001,1.5500001,0.76,1.11,97,9,0.020000001,0.010000001,0.018000001,0.156,0.9798548,0,4,1,13
124945517,1541556185599526,298067757,1065381667,344854,318190,0.305,0.78208184,1.034,1.542,0.76,1.11,97,9,0.089,0.089,0.001,0.095000006,0.9798548,0,4,1,13
125147600,1541556185799526,298067758,1065381663,344875,318211,0.24400002,0.78209037,1.028,1.534,0.76,1.11,97,8,0.066,-0.059000004,-0.029000001,-0.012,0.9798548,0,4,1,13
125357483,1541556185999527,298067759,1065381658,344944,318280,0.303,0.78210104,1.023,1.5270001,0.76,1.11,97,8,0.11100001,0.11100001,-0.009000001,0.105000004,0.9798548,0,4,1,13
125541538,1541556186199526,298067760,1065381654,344987,318323,0.22200002,0.78210866,1.0170001,1.5200001,0.76,1.11,97,8,0.027,0.010000001,0.025,0.008,0.9798548,0,4,1,13
125741477,1541556186399526,298067760,1065381650,344999,318335,0.24700001,0.7821174,1.0120001,1.5130001,0.76,1.11,97,8,0.053000003,-0.052,0.003,0.080000006,0.9798548,0,4,1,13
125942483,1541556186599526,298067760,1065381648,345039,318375,0.27100003,0.78212684,1.008,1.5070001,0.76,1.11,97,8,0.108,0.017,0.10700001,0.09200001,0.9798548,0,4,1,13
126140703,1541556186799526,298067759,1065381646,345072,318408,0.266,0.78213626,1.003,1.501,0.76,1.11,97,9,0.106000006,-0.10300001,0.025,0.017,0.9798548,0,4,1,13
126345477,1541556186999527,298067758,1065381644,345121,318457,0.27800003,0.78214586,0.9990001,1.4950001,0.76,1.11,97,9,0.008,-0.0050000004,0.006,0.041,0.9798548,0,4,1,13
126543698,1541556187199525,298067758,1065381641,345168,318504,0.31500003,0.7821569,0.99500006,1.491,0.76,1.11,97,9,0.040000003,0.040000003,0.003,0.042000003,0.9798548,0,4,1,13
126743596,1541556187399525,298067759,1065381637,345179,318515,0.298,0.7821675,0.99100006,1.485,0.76,1.11,97,9,0.009000001,0.009000001,-0.001,0.063,0.9798548,0,4,1,13
126938947,1541556187599525,298067760,1065381634,345198,318534,0.29000002,0.7821776,0.98700005,1.48,0.76,1.11,97,9,0.027,-0.0050000004,0.026,0.059000004,0.9798548,0,4,1,13
127138493,1541556187799525,298067760,1065381631,345217,318553,0.305,0.7821883,0.98300004,1.4740001,0.76,1.11,97,8,0.041,0.032,0.025,0.087000005,0.9798548,0,4,1,13
127340475,1541556187999526,298067761,1065381628,345228,318565,0.24300002,0.7821968,0.97800004,1.4690001,0.76,1.11,97,8,0.035,0.006,-0.034,0.053000003,0.9798548,0,4,1,13
127560683,1541556188199525,298067761,1065381627,345258,318594,0.291,0.78220695,0.97300005,1.462,0.71,0.97999996,97,8,0.078,0.065000005,0.042000003,0.097,0.9798548,0,4,1,15
127745591,1541556188399525,298067762,1065381625,345266,318602,0.261,0.7822162,0.96900004,1.455,0.71,0.97999996,97,8,0.023000002,-0.022000002,0.008,0.07,0.9798548,0,4,1,15
127944487,1541556188599525,298067762,1065381625,345270,318606,0.257,0.78222513,0.96500003,1.4490001,0.71,0.97999996,97,8,0.035,0.007,-0.034,0.087000005,0.9798548,0,4,1,15
128143632,1541556188799525,298067763,1065381623,345311,318647,0.294,0.7822354,0.9620001,1.4440001,0.71,0.97999996,98,9,0.041,0.038000003,0.016,0.1,0.9798548,0,4,1,15
128338482,1541556188999526,298067764,1065381623,345340,318676,0.282,0.78224534,0.95800006,1.4380001,0.71,0.97999996,98,9,0.044000003,-0.003,0.043,0.115,0.9798548,0,4,1,15
128545481,1541556189199525,298067765,1065381621,345351,318687,0.277,0.78225493,0.95400006,1.432,0.71,0.97999996,98,9,0.039,0.031000001,-0.022000002,0.115,0.9798548,0,4,1,15
128750478,1541556189399525,298067765,1065381619,345363,318699,0.266,0.78226435,0.95000005,1.4260001,0.71,0.97999996,98,9,0.040000003,-0.031000001,0.025,-0.023000002,0.9798548,0,4,1,15
128952598,1541556189599525,298067766,1065381619,345385,318721,0.252,0.7822731,0.947,1.4210001,0.71,0.97999996,98,9,0.038000003,-0.0050000004,0.038000003,0.024,0.9798548,0,4,1,15
129154489,1541556189799524,298067766,1065381617,345427,318763,0.26000002,0.7822822,0.94400007,1.416,0.71,0.97999996,98,8,0.042000003,0.019000001,0.037,0.033,0.9798548,0,4,1,15
129346480,1541556189999525,298067767,1065381617,345436,318772,0.28800002,0.7822923,0.94100004,1.411,0.71,0.97999996,98,8,0.09,-0.081,0.040000003,-0.042000003,0.9798548,0,4,1,15
129546188,1541556190199524,298067768,1065381616,345460,318796,0.273,0.7823019,0.938,1.4070001,0.71,0.97999996,98,8,0.080000006,0.057000004,-0.056,0.031000001,0.9798548,0,4,1,15
129746473,1541556190399524,298067769,1065381613,345479,318815,0.26200002,0.78231114,0.93500006,1.4020001,0.71,0.97999996,98,8,0.038000003,0.009000001,0.037,0.033,0.9798548,0,4,1,15
129943718,1541556190599524,298067769,1065381612,345518,318854,0.257,0.78232,0.93200004,1.3970001,0.71,0.97999996,98,8,0.054,-0.054,-0.007,-0.006,0.9798548,0,4,1,15
130179177,1541556190799524,298067768,1065381610,345551,318887,0.24300002,0.7823286,0.929,1.3920001,0.71,0.97999996,98,8,0.003,-0.003,0.0,0.003,0.9798548,0,4,1,15
130347749,1541556190999525,298067769,1065381609,345564,318900,0.26000002,0.78233767,0.92600006,1.388,0.71,0.97999996,98,8,0.047000002,-0.039,0.026,0.102000006,0.9798548,0,4,1,15
130544591,1541556191199524,298067769,1065381608,345577,318913,0.26500002,0.7823471,0.924,1.3840001,0.71,0.97999996,98,8,0.05,-0.032,0.038000003,0.098000005,0.9798548,0,4,1,15
130745547,1541556191399524,298067769,1065381606,345625,318961,0.29500002,0.7823574,0.92200005,1.3800001,0.71,0.97999996,98,8,0.053000003,0.052,-0.009000001,0.13800001,0.9798548,0,4,1,15
130945523,1541556191599524,298067770,1065381605,345649,318985,0.287,0.7823675,0.92,1.3770001,0.71,0.97999996,98,8,0.040000003,0.031000001,0.026,0.16100001,0.9798548,0,4,1,15
131141486,1541556191799524,298067771,1065381604,345676,319012,0.27100003,0.78237695,0.919,1.3740001,0.71,0.97999996,104,9,0.038000003,-0.022000002,0.031000001,0.15200001,0.9798548,0,4,1,15
131361481,1541556191999525,298067771,1065381603,345713,319049,0.29500002,0.78238726,0.91700006,1.3700001,0.71,0.97999996,104,9,0.12200001,0.113000005,0.048,0.16700001,0.9798548,0,4,1,15
131553479,1541556192199524,298067773,1065381602,345753,319089,0.29700002,0.78239775,0.915,1.3670001,0.71,0.97999996,104,9,0.07300001,0.07300001,0.002,0.141,0.9798548,0,4,1,15
131748518,1541556192399523,298067774,1065381601,345785,319121,0.294,0.782408,0.91400003,1.365,0.71,0.97999996,104,9,0.037,0.035,0.011000001,0.112,0.9798548,0,4,1,15
131946481,1541556192599523,298067775,1065381600,345825,319161,0.284,0.78241795,0.91200006,1.3620001,0.71,0.97999996,104,9,0.036000002,0.009000001,0.035,0.157,0.9798548,0,4,1,15
132146486,1541556192799523,298067776,1065381600,345856,319192,0.287,0.7824281,0.91,1.36,0.71,0.97999996,104,8,0.012,0.011000001,0.0050000004,0.072000004,0.9798548,0,4,1,15
132345543,1541556192999524,298067776,1065381599,345897,319233,0.28500003,0.78243804,0.90900004,1.3570001,0.71,0.97999996,104,8,0.031000001,0.0,0.031000001,0.085,0.9798548,0,4,1,15
132542482,1541556193199523,298067777,1065381600,345913,319249,0.27100003,0.78244746,0.90700006,1.3540001,0.71,0.97999996,104,8,0.062000003,-0.044000003,0.045,0.112,0.9798548,0,4,1,15
132747571,1541556193399523,298067777,1065381600,345952,319288,0.282,0.7824574,0.906,1.3520001,0.71,0.97999996,104,8,0.045,0.0050000004,0.044000003,0.071,0.9798548,0,4,1,15
132947636,1541556193599523,298067778,1065381600,345994,319330,0.286,0.78246737,0.90400004,1.3490001,0.71,0.97999996,104,8,0.059000004,0.018000001,0.057000004,0.101,0.9798548,0,4,1,15
133144491,1541556193799523,298067779,1065381600,346011,319347,0.27,0.78247696,0.90300006,1.3470001,0.71,0.97999996,104,8,0.023000002,-0.019000001,0.013,0.081,0.9798548,0,4,1,15
133348479,1541556193999524,298067779,1065381600,346053,319389,0.27800003,0.78248656,0.901,1.345,0.71,0.97999996,104,8,0.017,-0.004,0.016,0.021000002,0.9798548,0,4,1,15
133548477,1541556194199523,298067780,1065381600,346098,319434,0.291,0.78249687,0.90000004,1.343,0.71,0.97999996,104,8,0.048,0.023000002,0.042000003,0.089,0.9798548,0,4,1,15
133744484,1541556194399523,298067782,1065381600,346118,319454,0.30400002,0.7825075,0.89900005,1.3410001,0.71,0.97999996,104,8,0.05,0.044000003,-0.024,0.054,0.9798548,0,4,1,15
133941595,1541556194599523,298067783,1065381599,346146,319482,0.27100003,0.7825169,0.897,1.3390001,0.71,0.97999996,104,8,0.054,-0.040000003,0.036000002,0.135,0.9798548,0,4,1,15
134144487,1541556194799523,298067783,1065381599,346187,319523,0.291,0.7825272,0.896,1.337,0.71,0.97999996,104,8,0.07,0.041,0.057000004,0.127,0.9798548,0,4,1,15
134344481,1541556194999524,298067785,1065381599,346208,319545,0.29200003,0.78253734,0.89400005,1.335,0.71,0.97999996,104,8,0.044000003,0.044000003,-0.007,0.179,0.9798548,0,4,1,15
134546482,1541556195199522,298067786,1065381598,346255,319592,0.289,0.7825475,0.89300007,1.3340001,0.71,0.97999996,104,8,0.036000002,0.029000001,-0.021000002,0.003,0.9798548,0,4,1,15
134746556,1541556195399522,298067787,1065381597,346315,319651,0.24900001,0.7825562,0.892,1.332,0.71,0.97999996,104,8,0.037,-0.008,0.036000002,-0.010000001,0.9798548,0,4,1,15
134949541,1541556195599522,298067788,1065381597,346370,319706,0.27800003,0.78256595,0.89100003,1.3310001,0.71,0.97999996,104,8,0.031000001,0.024,0.020000001,0.026,0.9798548,0,4,1,15
135146488,1541556195799522,298067789,1065381597,346417,319753,0.27,0.78257555,0.89000005,1.3290001,0.71,0.97999996,104,8,0.014,-0.011000001,0.008,0.012,0.9798548,0,4,1,15
135349325,1541556195999523,298067790,1065381596,346454,319790,0.185,0.78258187,0.88900006,1.3280001,0.71,0.97999996,104,8,0.034,-0.022000002,-0.026,0.002,0.9798548,0,4,1,15
135547707,1541556196199522,298067790,1065381596,346508,319844,0.289,0.782592,0.8880001,1.3260001,0.71,0.97999996,104,8,0.032,0.011000001,0.030000001,0.072000004,0.9798548,0,4,1,15
135747597,1541556196399522,298067790,1065381596,346545,319881,0.273,0.7826016,0.887,1.325,0.71,0.97999996,104,8,0.033,-0.022000002,0.025,0.094000004,0.9798548,0,4,1,15
135947602,1541556196599522,298067791,1065381594,346548,319884,0.25300002,0.7826105,0.88600004,1.322,0.71,0.97999996,104,8,0.054,0.004,-0.054,-0.034,0.9798548,0,4,1,15
136147238,1541556196799522,298067793,1065381592,346581,319917,0.286,0.78262043,0.88400006,1.32,0.71,0.97999996,104,8,0.014,0.014,0.001,0.07700001,0.9798548,0,4,1,15
136346987,1541556196999523,298067794,1065381592,346626,319962,0.27800003,0.7826302,0.883,1.319,0.71,0.97999996,104,8,0.043,0.013,0.040000003,0.053000003,0.9798548,0,4,1,15
136543665,1541556197199522,298067795,1065381592,346668,320004,0.28800002,0.78264034,0.883,1.3180001,0.71,0.97999996,104,8,0.041,0.023000002,-0.035,-0.007,0.9798548,0,4,1,15
136744540,1541556197399522,298067794,1065381591,346733,320069,0.26500002,0.7826496,0.882,1.317,0.71,0.97999996,104,8,0.033,-0.031000001,0.012,0.133,0.9798548,0,4,1,15
136948481,1541556197599522,298067794,1065381591,346778,320114,0.28100002,0.78265953,0.882,1.317,0.71,0.97999996,104,8,0.014,-0.001,0.014,0.14,0.9798548,0,4,1,15
137145491,1541556197799521,298067795,1065381590,346818,320154,0.19600001,0.7826663,0.882,1.3160001,0.71,0.97999996,104,8,0.051000003,-0.020000001,-0.046000004,0.048,0.9798548,0,4,1,15
137356481,1541556197999522,298067795,1065381588,346878,320214,0.30100003,0.7826768,0.88100004,1.315,0.71,0.97999996,104,8,0.048,0.046000004,0.015000001,0.097,0.9798548,0,4,1,15
137550519,1541556198199521,298067796,1065381588,346925,320261,0.25800002,0.7826859,0.88000005,1.315,0.71,0.97999996,104,8,0.026,0.015000001,0.021000002,0.017,0.9798548,0,4,1,15
137745517,1541556198399521,298067797,1065381587,347003,320339,0.259,0.7826951,0.88000005,1.314,0.71,0.97999996,104,8,0.028,-0.027,0.007,0.016,0.9798548,0,4,1,15
137944499,1541556198599521,298067798,1065381586,347025,320361,0.263,0.7827042,0.88000005,1.314,0.71,0.97999996,104,8,0.098000005,0.012,-0.097,-0.048,0.9798548,0,4,1,15
138146489,1541556198799521,298067798,1065381585,347075,320411,0.30600002,0.78271484,0.87900007,1.3130001,0.71,0.97999996,104,8,0.033,-0.033,-0.003,-0.024,0.9798548,0,4,1,15
138348843,1541556198999522,298067799,1065381583,347116,320452,0.24300002,0.7827234,0.87900007,1.3110001,0.71,0.97999996,104,8,0.042000003,-0.041,0.006,0.044000003,0.9798548,0,4,1,15
138546482,1541556199199521,298067798,1065381580,347201,320537,0.21400002,0.7827309,0.87700003,1.3080001,0.71,0.97999996,104,8,0.045,-0.036000002,-0.026,-0.003,0.9798548,0,4,1,15
138751608,1541556199399521,298067798,1065381578,347291,320627,0.24700001,0.78273946,0.87600005,1.3050001,0.71,0.97999996,104,8,0.032,-0.001,0.032,0.009000001,0.9798548,0,4,1,15
138947565,1541556199599521,298067798,1065381576,347404,320740,0.22900002,0.7827475,0.87500006,1.302,0.71,0.97999996,104,8,0.048,0.048,0.009000001,-0.069000006,0.9798548,0,4,1,15
139151752,1541556199799521,298067799,1065381575,347476,320812,0.22900002,0.7827557,0.874,1.3000001,0.71,0.97999996,104,8,0.075,0.075,0.004,-0.072000004,0.9798548,0,4,1,15
139347563,1541556199999522,298067798,1065381573,347569,320905,0.266,0.7827649,0.874,1.2980001,0.71,0.97999996,104,8,0.039,-0.007,-0.039,-0.029000001,0.9798548,0,4,1,15
139543704,1541556200199521,298067798,1065381572,347641,320977,0.287,0.78277504,0.873,1.296,0.71,0.97999996,104,8,0.060000002,-0.035,-0.048,-0.079,0.9798548,0,4,1,15
139744583,1541556200399520,298067797,1065381570,347711,321047,0.282,0.7827848,0.873,1.2950001,0.71,0.97999996,104,8,0.061000004,0.019000001,-0.058000002,-0.031000001,0.9798548,0,4,1,15
139949481,1541556200599520,298067797,1065381569,347767,321104,0.31,0.78279567,0.873,1.2930001,0.71,0.97999996,104,8,0.030000001,0.028,-0.011000001,0.048,0.9798548,0,4,1,15
140181470,1541556200799520,298067797,1065381569,347836,321172,0.30600002,0.78280646,0.873,1.292,0.71,0.97999996,104,8,0.056,-0.056,0.0,-0.033,0.9798548,0,4,1,15
140347658,1541556200999521,298067796,1065381568,347907,321243,0.25100002,0.7828152,0.87200004,1.291,0.71,0.97999996,104,8,0.028,-0.001,-0.028,0.045,0.9798548,0,4,1,15
140545495,1541556201199520,298067795,1065381567,347980,321316,0.264,0.78282446,0.87200004,1.2900001,0.71,0.97999996,104,8,0.048,0.031000001,0.036000002,0.031000001,0.9798548,0,4,1,15
140742562,1541556201399520,298067795,1065381566,348041,321377,0.289,0.7828346,0.87200004,1.289,0.71,0.97999996,104,8,0.017,0.010000001,-0.013,0.037,0.9798548,0,4,1,15
140945482,1541556201599520,298067795,1065381565,348109,321445,0.312,0.78284556,0.87100005,1.2880001,0.71,0.97999996,104,8,0.047000002,0.040000003,-0.024,0.056,0.9798548,0,4,1,15
141146489,1541556201799520,298067795,1065381564,348154,321490,0.26900002,0.782855,0.87100005,1.2870001,0.71,0.97999996,104,8,0.021000002,-0.017,0.012,0.025,0.9798548,0,4,1,15
141349224,1541556201999521,298067795,1065381562,348180,321516,0.25800002,0.7828641,0.87000006,1.286,0.71,0.97999996,104,8,0.020000001,-0.017,-0.010000001,0.093,0.9798548,0,4,1,15
141550482,1541556202199520,298067795,1065381560,348240,321576,0.28,0.78287387,0.869,1.284,0.71,0.97999996,104,8,0.039,-0.014,0.036000002,0.116000004,0.9798548,0,4,1,15
141747584,1541556202399520,298067795,1065381559,348269,321605,0.30100003,0.7828845,0.86800003,1.2830001,0.71,0.97999996,104,8,0.063,0.059000004,0.021000002,0.11000001,0.9798548,0,4,1,15
141951592,1541556202599520,298067796,1065381558,348315,321651,0.289,0.7828946,0.86800003,1.281,0.71,0.97999996,104,8,0.045,0.029000001,0.034,0.066,0.9798548,0,4,1,15
142143575,1541556202799520,298067795,1065381557,348381,321717,0.28300002,0.7829044,0.86700004,1.2800001,0.71,0.97999996,104,3,0.033,-0.021000002,0.026,0.014,0.9798548,0,4,1,15
142351673,1541556202999520,298067795,1065381556,348447,321783,0.296,0.7829149,0.86600006,1.279,0.71,0.97999996,104,3,0.015000001,0.013,0.007,0.05,0.9798548,0,4,1,15
142547785,1541556203199519,298067795,1065381554,348480,321816,0.252,0.7829236,0.86600006,1.2770001,0.71,0.97999996,104,3,0.026,0.008,-0.024,0.019000001,0.9798548,0,4,1,15
142751673,1541556203399519,298067797,1065381550,348473,321809,0.261,0.7829328,0.864,1.2750001,0.71,0.97999996,104,3,0.015000001,-0.007,-0.013,0.083000004,0.9798548,0,4,1,15
142952475,1541556203599519,298067800,1065381548,348439,321775,0.296,0.7829431,0.86300004,1.274,0.71,0.97999996,104,3,0.041,0.039,-0.013,0.033,0.9798548,0,4,1,15
143145526,1541556203799519,298067800,1065381547,348470,321806,0.30900002,0.782954,0.86300004,1.2750001,0.71,0.97999996,104,2,0.028,0.028,-0.004,0.051000003,0.9798548,0,4,1,15
143356548,1541556203999520,298067801,1065381547,348488,321824,0.307,0.78296477,0.864,1.2770001,0.71,0.97999996,104,2,0.109000005,0.069000006,-0.085,0.026,0.9798548,0,4,1,15
143544487,1541556204199519,298067800,1065381546,348542,321878,0.29500002,0.7829751,0.864,1.279,0.76,1.01,104,2,0.076000005,-0.019000001,0.074,0.061000004,0.9798548,0,4,1,14
143748484,1541556204399519,298067801,1065381547,348542,321878,0.29500002,0.7829854,0.86500007,1.281,0.76,1.01,104,2,0.036000002,0.023000002,-0.028,0.082,0.9798548,0,4,1,14
143949496,1541556204599519,298067800,1065381548,348576,321912,0.27600002,0.782995,0.86600006,1.2830001,0.71,0.97999996,104,2,0.082,-0.015000001,0.081,0.024,0.9798548,0,4,1,15
144145529,1541556204799519,298067798,1065381549,348586,321922,0.289,0.7830051,0.86700004,1.2850001,0.71,0.97999996,104,3,0.044000003,-0.036000002,0.026,0.034,0.9798548,0,4,1,15
144346480,1541556204999520,298067796,1065381548,348614,321950,0.307,0.7830159,0.86800003,1.2870001,0.71,0.97999996,104,3,0.002,0.002,0.001,0.051000003,0.9798548,0,4,1,15
144550491,1541556205199519,298067796,1065381548,348653,321989,0.31300002,0.78302693,0.869,1.289,0.71,0.97999996,104,3,0.042000003,0.038000003,0.017,0.091000006,0.9798548,0,4,1,15
144750482,1541556205399519,298067796,1065381549,348650,321986,0.314,0.7830379,0.87000006,1.291,0.71,0.97999996,104,3,0.024,0.024,-0.004,0.013,0.9798548,0,4,1,15
144943632,1541556205599518,298067795,1065381547,348705,322041,0.24100001,0.7830463,0.869,1.289,0.71,0.97999996,104,3,0.058000002,-0.058000002,0.0,0.026,0.9798548,0,4,1,15
145147608,1541556205799518,298067796,1065381546,348696,322032,0.29900002,0.7830569,0.869,1.2900001,0.76,1.01,104,8,0.115,0.074,-0.087000005,0.054,0.9798548,0,4,1,14
145350511,1541556205999519,298067796,1065381544,348747,322083,0.30400002,0.7830674,0.87000006,1.292,0.71,0.97999996,104,8,0.037,0.034,-0.015000001,-0.002,0.9798548,0,4,1,15
145552499,1541556206199518,298067795,1065381545,348784,322120,0.3,0.7830779,0.87000006,1.2930001,0.71,0.97999996,104,8,0.066,-0.009000001,0.066,0.065000005,0.9798548,0,4,1,15
145747780,1541556206399518,298067793,1065381544,348790,322126,0.24900001,0.7830866,0.87100005,1.2950001,0.71,0.97999996,104,8,0.071,-0.019000001,-0.069000006,0.015000001,0.9798548,0,4,1,15
145948482,1541556206599518,298067791,1065381543,348812,322148,0.29700002,0.7830971,0.873,1.297,0.71,0.97999996,104,8,0.096,0.074,-0.060000002,-0.082,0.9798548,0,4,1,15
146149489,1541556206799518,298067791,1065381541,348857,322193,0.2,0.78310406,0.874,1.299,0.71,0.97999996,104,8,0.035,-0.029000001,-0.019000001,0.027,0.9798548,0,4,1,15
146345484,1541556206999519,298067790,1065381541,348876,322212,0.32200003,0.7831152,0.87500006,1.3000001,0.71,0.97999996,104,8,0.016,-0.016,0.0,-0.017,0.9798548,0,4,1,15
146549485,1541556207199518,298067790,1065381540,348892,322228,0.294,0.7831255,0.87600005,1.3010001,0.71,0.96999997,104,8,0.07300001,0.053000003,-0.05,-0.040000003,0.9798548,0,4,1,15
146748489,1541556207399518,298067789,1065381540,348920,322256,0.268,0.78313494,0.87600005,1.3030001,0.76,1.01,104,8,0.040000003,-0.039,0.009000001,0.030000001,0.9798548,0,4,1,14
146945483,1541556207599518,298067788,1065381540,348953,322289,0.30100003,0.7831454,0.87700003,1.304,0.71,0.96999997,104,8,0.024,-0.002,0.024,0.07,0.9798548,0,4,1,15
147146488,1541556207799518,298067787,1065381540,348993,322329,0.316,0.7831566,0.878,1.3060001,0.76,1.01,104,8,0.052,-0.040000003,0.034,-0.016,0.9798548,0,4,1,14
147348761,1541556207999519,298067786,1065381540,349004,322340,0.277,0.78316617,0.878,1.307,0.76,1.01,104,8,0.061000004,-0.017,0.058000002,0.006,0.9798548,0,4,1,14
147546489,1541556208199517,298067786,1065381541,349038,322374,0.298,0.78317666,0.87900007,1.3080001,0.76,1.01,104,8,0.05,-0.022000002,0.045,0.058000002,0.9798548,0,4,1,14
147742479,1541556208399517,298067785,1065381541,349056,322392,0.305,0.7831873,0.87900007,1.309,0.76,1.01,104,8,0.060000002,-0.043,0.041,-0.019000001,0.9798548,0,4,1,14
147945526,1541556208599517,298067786,1065381541,349083,322419,0.29900002,0.78319776,0.87900007,1.3100001,0.76,1.01,104,8,0.09,0.07700001,-0.046000004,-0.033,0.9798548,0,4,1,14
148143892,1541556208799517,298067786,1065381539,349077,322413,0.27,0.78320736,0.88000005,1.3110001,0.76,1.01,104,8,0.061000004,0.018000001,-0.058000002,0.022000002,0.9798548,0,4,1,14
148343708,1541556208999518,298067787,1065381535,349040,322376,0.29700002,0.78321767,0.88000005,1.3110001,0.76,1.01,104,8,0.043,0.012,-0.042000003,-0.047000002,0.9798548,0,4,1,14
148551626,1541556209199517,298067791,1065381529,348965,322301,0.216,0.78322536,0.87900007,1.309,0.76,1.01,104,8,0.12200001,0.038000003,-0.116000004,0.045,0.9798548,0,4,1,14
148752514,1541556209399517,298067792,1065381526,348964,322300,0.27600002,0.78323495,0.87900007,1.309,0.76,1.01,104,8,0.044000003,0.039,-0.020000001,-0.036000002,0.9798548,0,4,1,14
148950485,1541556209599517,298067793,1065381525,348985,322321,0.268,0.7832444,0.87900007,1.309,0.76,1.01,104,8,0.008,0.007,-0.004,-0.022000002,0.9798548,0,4,1,14
149152488,1541556209799517,298067796,1065381523,348975,322311,0.273,0.7832538,0.878,1.3080001,0.76,1.01,104,8,0.10300001,0.087000005,-0.054,-0.075,0.9798548,0,4,1,14
149369481,1541556209999518,298067796,1065381522,349028,322364,0.30900002,0.78326464,0.878,1.309,0.71,0.96999997,104,8,0.075,-0.061000004,0.044000003,-0.087000005,0.9798548,0,4,1,15
149553477,1541556210199517,298067795,1065381520,349080,322416,0.28800002,0.78327477,0.878,1.3100001,0.71,0.96999997,104,8,0.072000004,0.043,-0.057000004,-0.066,0.9798548,0,4,1,15
149749516,1541556210399517,298067795,1065381519,349067,322403,0.30100003,0.7832852,0.878,1.3100001,0.71,0.96999997,104,8,0.057000004,0.008,-0.057000004,-0.097,0.9798548,0,4,1,15
149954482,1541556210599517,298067794,1065381517,349104,322440,0.293,0.7832955,0.87900007,1.312,0.71,0.96999997,104,8,0.076000005,0.072000004,-0.022000002,-0.0050000004,0.9798548,0,4,1,15
150181471,1541556210799517,298067794,1065381517,349164,322500,0.29200003,0.7833058,0.88000005,1.314,0.71,0.96999997,104,7,0.093,-0.021000002,0.091000006,0.023000002,0.9798548,0,4,1,15
150349481,1541556210999517,298067793,1065381517,349205,322542,0.32700002,0.7833173,0.88100004,1.315,0.71,0.96999997,104,7,0.094000004,0.086,-0.037,0.016,0.9798548,0,4,1,15
150548911,1541556211199516,298067793,1065381516,349271,322607,0.187,0.78332376,0.882,1.3180001,0.71,0.96999997,104,7,0.060000002,0.042000003,0.042000003,-0.007,0.9798548,0,4,1,15
150750484,1541556211399516,298067791,1065381516,349354,322690,0.33100003,0.7833355,0.88400006,1.32,0.71,0.96999997,104,7,0.046000004,-0.033,0.032,0.014,0.9798548,0,4,1,15
151954795,1541556212599516,298067792,1065381513,349549,322885,0.268,0.78339446,0.89000005,1.33,0.71,0.96999997,104,7,0.033,0.028,0.017,0.008,0.9798548,0,4,1,15
152179745,1541556212799516,298067792,1065381515,349536,322872,0.36600003,0.7834074,0.89500004,1.338,0.71,0.96999997,84,6,0.079,0.045,0.065000005,0.133,0.9798548,0,4,1,15
152359624,1541556212999517,298067791,1065381515,349592,322928,0.22600001,0.78341526,0.897,1.3340001,0.76,1.01,84,6,0.112,0.044000003,0.10300001,0.029000001,0.9798548,0,4,1,14
152557475,1541556213199516,298067787,1065381516,349661,322997,0.185,0.7834217,0.89300007,1.33,0.76,1.01,84,6,0.025,-0.014,-0.021000002,0.002,0.9798548,0,4,1,14
152761652,1541556213399516,298067785,1065381514,349718,323054,0.25500003,0.7834306,0.88900006,1.3230001,0.76,1.01,84,6,0.079,-0.079,-0.004,-0.039,0.9798548,0,4,1,14
152952486,1541556213599515,298067782,1065381513,349796,323132,0.272,0.78344023,0.88500005,1.3180001,0.76,1.01,84,6,0.009000001,-0.0050000004,0.007,-0.045,0.9798548,0,4,1,14
153149509,1541556213799515,298067779,1065381511,349874,323210,0.25300002,0.7834491,0.882,1.315,0.76,1.01,90,8,0.065000005,-0.044000003,-0.048,-0.040000003,0.9798548,0,4,1,14
153344655,1541556213999516,298067778,1065381508,349926,323262,0.209,0.78345644,0.87900007,1.3110001,0.76,1.01,90,8,0.060000002,-0.028,-0.053000003,-0.008,0.9798548,0,4,1,14
153549486,1541556214199515,298067776,1065381507,349996,323332,0.27100003,0.78346586,0.878,1.3080001,0.76,1.01,90,8,0.054,0.018000001,-0.051000003,-0.055000003,0.9798548,0,4,1,14
153748863,1541556214399515,298067777,1065381504,350060,323396,0.27600002,0.78347546,0.87600005,1.3050001,0.76,1.01,90,8,0.053000003,0.023000002,-0.048,-0.049000002,0.9798548,0,4,1,14
153950669,1541556214599515,298067777,1065381501,350119,323455,0.257,0.7834845,0.87500006,1.302,0.76,1.01,90,8,0.035,0.033,0.009000001,0.012,0.9798548,0,4,1,14
154152834,1541556214799515,298067776,1065381500,350181,323517,0.30100003,0.783495,0.874,1.3010001,0.76,1.01,90,8,0.053000003,-0.053000003,-0.009000001,-0.08800001,0.9798548,0,4,1,14
154351801,1541556214999516,298067775,1065381498,350235,323571,0.21300001,0.7835025,0.873,1.3000001,0.76,1.01,90,8,0.016,0.015000001,0.003,-0.012,0.9798548,0,4,1,14
154550488,1541556215199515,298067774,1065381497,350294,323630,0.23600002,0.78351086,0.87200004,1.2980001,0.76,1.01,90,8,0.052,0.017,0.05,0.016,0.9798548,0,4,1,14
154754266,1541556215399515,298067774,1065381496,350342,323678,0.24100001,0.78351927,0.87100005,1.296,0.76,1.01,90,8,0.07700001,0.07300001,0.024,0.012,0.9798548,0,4,1,14
154952547,1541556215599515,298067775,1065381493,350373,323709,0.26500002,0.7835285,0.87000006,1.2930001,0.76,1.01,90,8,0.031000001,-0.025,0.017,0.034,0.9798548,0,4,1,14
155152527,1541556215799515,298067774,1065381490,350425,323761,0.26700002,0.78353775,0.869,1.291,0.76,1.01,90,2,0.068,-0.033,-0.060000002,-0.059000004,0.9798548,0,4,1,14
155367707,1541556215999516,298067773,1065381487,350461,323798,0.28500003,0.7835477,0.86800003,1.289,0.76,1.01,90,2,0.038000003,-0.036000002,-0.014,-0.037,0.9798548,0,4,1,14
155564487,1541556216199514,298067772,1065381486,350512,323848,0.25300002,0.78355646,0.86800003,1.2880001,0.71,0.89,90,2,0.006,-0.006,0.002,0.031000001,0.9798548,0,4,1,15
155752549,1541556216399514,298067771,1065381483,350554,323890,0.27600002,0.78356624,0.86800003,1.2870001,0.71,0.89,90,2,0.023000002,0.003,-0.023000002,-0.001,0.9798548,0,4,1,15
155947797,1541556216599514,298067769,1065381482,350594,323930,0.29700002,0.7835765,0.86800003,1.2850001,0.71,0.89,90,2,0.066,-0.061000004,0.027,0.001,0.9798548,0,4,1,15
156153547,1541556216799514,298067767,1065381481,350638,323974,0.293,0.7835868,0.869,1.284,0.71,0.89,96,2,0.033,-0.030000001,-0.013,-0.072000004,0.9798548,0,4,1,15
156353480,1541556216999515,298067767,1065381479,350702,324038,0.282,0.78359675,0.869,1.2830001,0.71,0.89,96,2,0.007,-0.001,-0.007,-0.064,0.9798548,0,4,1,15
156553486,1541556217199514,298067765,1065381478,350752,324088,0.30200002,0.78360724,0.869,1.2820001,0.71,0.89,96,2,0.07700001,-0.030000001,0.07,0.027,0.9798548,0,4,1,15
156753482,1541556217399514,298067764,1065381477,350804,324140,0.266,0.78361666,0.87000006,1.281,0.71,0.89,96,2,0.023000002,0.019000001,-0.013,-0.059000004,0.9798548,0,4,1,15
156954478,1541556217599514,298067764,1065381476,350818,324154,0.24900001,0.78362536,0.87000006,1.2800001,0.71,0.89,96,2,0.056,0.030000001,0.047000002,0.011000001,0.9798548,0,4,1,15
157154508,1541556217799514,298067763,1065381474,350827,324163,0.284,0.7836353,0.87000006,1.2780001,0.71,0.89,96,2,0.033,0.007,-0.032,-0.072000004,0.9798548,0,4,1,15
157357460,1541556217999515,298067764,1065381473,350844,324180,0.296,0.78364563,0.87000006,1.2770001,0.71,0.89,96,2,0.069000006,0.047000002,-0.051000003,-0.017,0.9798548,0,4,1,15
157555656,1541556218199514,298067764,1065381471,350871,324207,0.264,0.78365487,0.87000006,1.2750001,0.71,0.89,96,2,0.013,-0.012,0.007,0.039,0.9798548,0,4,1,15
157754524,1541556218399514,298067763,1065381470,350896,324232,0.29900002,0.78366536,0.87000006,1.274,0.71,0.89,96,2,0.025,0.024,-0.003,0.024,0.9798548,0,4,1,15
157954592,1541556218599514,298067763,1065381469,350935,324271,0.291,0.7836755,0.87000006,1.2720001,0.71,0.89,96,2,0.060000002,0.048,0.035,0.078,0.9798548,0,4,1,15
158152509,1541556218799513,298067763,1065381468,350951,324287,0.25500003,0.7836844,0.87000006,1.271,0.71,0.89,96,2,0.05,0.001,-0.05,0.002,0.9798548,0,4,1,15
158355657,1541556218999514,298067762,1065381467,350977,324313,0.25500003,0.78369343,0.87000006,1.2700001,0.71,0.89,96,2,0.026,0.012,0.023000002,0.013,0.9798548,0,4,1,15
158552522,1541556219199513,298067762,1065381466,351003,324339,0.268,0.78370273,0.87000006,1.269,0.71,0.89,96,2,0.058000002,-0.003,0.058000002,0.013,0.9798548,0,4,1,15
158764517,1541556219399513,298067762,1065381466,351003,324339,0.291,0.783713,0.87000006,1.2670001,0.71,0.89,96,2,0.043,0.022000002,-0.037,-0.031000001,0.9798548,0,4,1,15
158956478,1541556219599513,298067762,1065381465,351012,324348,0.25300002,0.78372175,0.87000006,1.266,0.71,0.89,96,2,0.042000003,-0.042000003,0.0,0.009000001,0.9798548,0,4,1,15
159181625,1541556219799513,298067762,1065381465,351003,324339,0.30400002,0.78373235,0.87000006,1.2650001,0.71,0.89,96,8,0.040000003,0.040000003,0.0,0.063,0.9798548,0,4,1,15
159355576,1541556219999514,298067762,1065381464,350990,324326,0.275,0.78374195,0.87100005,1.2670001,0.71,0.89,96,8,0.007,0.0050000004,0.004,-0.13700001,0.9798548,0,4,1,15
159552574,1541556220199513,298067761,1065381464,350991,324327,0.30600002,0.7837526,0.87200004,1.2670001,0.71,0.89,96,8,0.040000003,-0.039,0.010000001,-0.07,0.9798548,0,4,1,15
159754478,1541556220399513,298067761,1065381464,350992,324328,0.30600002,0.7837633,0.87200004,1.266,0.71,0.89,96,8,0.027,0.022000002,-0.016,0.010000001,0.9798548,0,4,1,15
159954482,1541556220599513,298067761,1065381463,350997,324333,0.293,0.78377354,0.87200004,1.2650001,0.71,0.89,96,8,0.071,0.061000004,-0.037,-0.013,0.9798548,0,4,1,15
160158522,1541556220799513,298067762,1065381462,351005,324341,0.294,0.78378385,0.87200004,1.264,0.71,0.89,96,7,0.019000001,0.015000001,-0.011000001,0.029000001,0.9798548,0,4,1,15
160358520,1541556220999514,298067762,1065381461,351000,324336,0.286,0.783794,0.87200004,1.263,0.71,0.89,96,7,0.015000001,0.003,0.015000001,0.035,0.9798548,0,4,1,15
160553479,1541556221199513,298067762,1065381461,350990,324326,0.26200002,0.78380305,0.87200004,1.2620001,0.71,0.89,96,7,0.051000003,-0.05,0.010000001,0.020000001,0.9798548,0,4,1,15
160755605,1541556221399512,298067762,1065381460,350985,324321,0.31,0.7838139,0.87200004,1.261,0.71,0.89,96,7,0.058000002,0.047000002,-0.034,0.031000001,0.9798548,0,4,1,15
160955005,1541556221599512,298067763,1065381459,350973,324309,0.30400002,0.7838245,0.87200004,1.261,0.71,0.89,96,7,0.035,0.032,-0.014,0.012,0.9798548,0,4,1,15
161149618,1541556221799512,298067762,1065381458,350951,324287,0.27800003,0.7838343,0.87200004,1.2600001,0.71,0.89,97,8,0.033,-0.021000002,0.025,0.047000002,0.9798548,0,4,1,15
161368655,1541556221999513,298067762,1065381458,350942,324278,0.296,0.7838446,0.87200004,1.2590001,0.71,0.89,97,8,0.044000003,-0.027,0.035,0.014,0.9798548,0,4,1,15
161556476,1541556222199512,298067761,1065381458,350933,324269,0.27600002,0.7838542,0.87200004,1.258,0.71,0.89,97,8,0.039,-0.019000001,0.035,0.10300001,0.9798548,0,4,1,15
161756659,1541556222399512,298067761,1065381457,350910,324246,0.28500003,0.7838643,0.873,1.2570001,0.71,0.89,97,8,0.057000004,-0.003,0.057000004,0.115,0.9798548,0,4,1,15
161952520,1541556222599512,298067760,1065381457,350908,324244,0.28300002,0.7838741,0.873,1.2550001,0.71,0.89,97,8,0.019000001,0.002,-0.019000001,-0.028,0.9798548,0,4,1,15
162155820,1541556222799512,298067760,1065381455,350911,324247,0.208,0.7838814,0.873,1.2540001,0.71,0.89,97,7,0.055000003,-0.041,-0.037,0.07300001,0.9798548,0,4,1,15
162351698,1541556222999513,298067760,1065381453,350925,324261,0.296,0.78389174,0.873,1.2540001,0.71,0.89,97,7,0.041,0.041,-0.003,0.079,0.9798548,0,4,1,15
162549489,1541556223199512,298067761,1065381453,350903,324239,0.38200003,0.78390515,0.87700003,1.258,0.76,0.89,97,7,0.067,0.045,-0.049000002,0.017,0.9798548,0,4,1,14
162748482,1541556223399512,298067761,1065381453,350882,324218,0.347,0.7839172,0.882,1.2620001,0.76,0.89,97,7,0.091000006,-0.017,0.089,0.124000005,0.9798548,0,4,1,14
162949129,1541556223599512,298067760,1065381454,350872,324208,0.36900002,0.7839301,0.887,1.266,0.76,0.89,97,7,0.063,0.002,0.063,0.041,0.9798548,0,4,1,14
163148919,1541556223799512,298067760,1065381455,350866,324202,0.33100003,0.7839416,0.892,1.271,0.71,0.89,119,8,0.028,0.025,0.014,0.062000003,0.9798548,0,4,1,15
163349751,1541556223999512,298067760,1065381454,350842,324178,0.24700001,0.7839502,0.897,1.2750001,0.71,0.89,119,8,0.038000003,-0.015000001,-0.035,0.05,0.9798548,0,4,1,15
163546482,1541556224199511,298067760,1065381453,350828,324164,0.30100003,0.7839608,0.901,1.2800001,0.71,0.89,119,8,0.022000002,-0.020000001,0.010000001,0.065000005,0.9798548,0,4,1,15
163744889,1541556224399511,298067759,1065381453,350824,324160,0.36400002,0.7839736,0.906,1.284,0.71,0.89,119,8,0.026,0.002,0.026,0.019000001,0.9798548,0,4,1,15
163949349,1541556224599511,298067759,1065381453,350807,324143,0.358,0.783986,0.9110001,1.2880001,0.71,0.89,119,8,0.034,0.012,0.032,0.027,0.9798548,0,4,1,15
164146499,1541556224799511,298067759,1065381453,350793,324129,0.32000002,0.7839973,0.91600007,1.2930001,0.71,0.89,119,8,0.031000001,-0.021000002,0.023000002,0.071,0.9798548,0,4,1,15
164347583,1541556224999512,298067758,1065381454,350783,324119,0.356,0.7840097,0.92,1.297,0.71,0.89,119,8,0.048,0.022000002,0.043,0.046000004,0.9798548,0,4,1,15
164547610,1541556225199511,298067758,1065381454,350763,324099,0.34100002,0.78402174,0.9250001,1.302,0.71,0.89,119,8,0.051000003,0.026,-0.044000003,0.031000001,0.9798548,0,4,1,15
164747978,1541556225399511,298067757,1065381453,350757,324093,0.34800002,0.7840338,0.929,1.307,0.71,0.89,119,8,0.029000001,-0.029000001,0.006,-0.033,0.9798548,0,4,1,15
164948513,1541556225599511,298067756,1065381453,350749,324085,0.333,0.78404546,0.934,1.3110001,0.71,0.89,119,8,0.080000006,-0.028,-0.075,-0.020000001,0.9798548,0,4,1,15
165148490,1541556225799511,298067755,1065381453,350730,324066,0.365,0.7840582,0.93900007,1.315,0.71,0.89,119,9,0.029000001,-0.025,0.014,0.0050000004,0.9798548,0,4,1,15
165349481,1541556225999512,298067754,1065381453,350727,324063,0.36800003,0.78407115,0.943,1.32,0.71,0.89,119,9,0.058000002,0.030000001,-0.049000002,-0.043,0.9798548,0,4,1,15
165552482,1541556226199511,298067754,1065381452,350727,324063,0.37600002,0.78408426,0.947,1.3240001,0.71,0.89,119,9,0.065000005,0.039,-0.052,-0.039,0.9798548,0,4,1,15
165749510,1541556226399511,298067753,1065381452,350734,324070,0.316,0.7840952,0.95000005,1.3260001,0.71,0.89,119,9,0.08800001,0.007,0.08800001,0.019000001,0.9798548,0,4,1,15
165949482,1541556226599510,298067752,1065381453,350707,324043,0.273,0.7841048,0.952,1.327,0.71,0.89,119,9,0.032,0.016,0.028,0.003,0.9798548,0,4,1,15
166150521,1541556226799510,298067751,1065381453,350693,324029,0.29500002,0.78411514,0.95300007,1.3280001,0.71,0.89,111,8,0.054,-0.053000003,0.009000001,0.024,0.9798548,0,4,1,15
166345504,1541556226999511,298067750,1065381452,350687,324023,0.31100002,0.7841261,0.95500004,1.33,0.71,0.89,111,8,0.109000005,0.002,0.109000005,-0.010000001,0.9798548,0,4,1,15
166546482,1541556227199510,298067749,1065381452,350693,324029,0.34,0.78413796,0.957,1.3310001,0.71,0.89,111,8,0.08400001,0.072000004,-0.044000003,-0.003,0.9798548,0,4,1,15
166746499,1541556227399510,298067747,1065381450,350677,324013,0.23600002,0.7841462,0.95800006,1.3330001,0.71,0.89,111,8,0.10300001,-0.07700001,-0.068,0.028,0.9798548,0,4,1,15
166948813,1541556227599510,298067745,1065381448,350652,323988,0.33,0.7841577,0.96000004,1.3340001,0.71,0.89,111,8,0.036000002,0.015000001,0.033,0.017,0.9798548,0,4,1,15
167144861,1541556227799510,298067745,1065381447,350648,323984,0.28300002,0.78416765,0.9620001,1.3360001,0.71,0.89,111,9,0.043,0.0050000004,0.043,-0.021000002,0.9798548,0,4,1,15
167354484,1541556227999511,298067743,1065381446,350651,323987,0.30100003,0.78417814,0.96400005,1.338,0.71,0.89,111,9,0.072000004,-0.05,-0.052,-0.024,0.9798548,0,4,1,15
167550563,1541556228199510,298067741,1065381445,350651,323987,0.32700002,0.78418964,0.96500003,1.34,0.71,0.89,111,9,0.032,-0.008,0.031000001,0.021000002,0.9798548,0,4,1,15
167743562,1541556228399510,298067741,1065381444,350658,323994,0.333,0.78420115,0.966,1.3410001,0.71,0.89,111,9,0.07300001,0.014,-0.071,-0.039,0.9798548,0,4,1,15
167947670,1541556228599510,298067739,1065381443,350637,323973,0.34600002,0.78421336,0.96700007,1.343,0.71,0.89,111,9,0.060000002,-0.05,0.033,-0.015000001,0.9798548,0,4,1,15
168148590,1541556228799510,298067737,1065381442,350593,323929,0.256,0.7842223,0.96900004,1.345,0.71,0.89,111,8,0.026,-0.024,-0.012,0.008,0.9798548,0,4,1,15
168352600,1541556228999511,298067737,1065381438,350579,323915,0.323,0.78423345,0.97,1.3460001,0.71,0.89,111,8,0.072000004,0.008,-0.072000004,-0.029000001,0.9798548,0,4,1,15
168548638,1541556229199509,298067738,1065381433,350500,323836,0.30400002,0.7842441,0.97,1.3460001,0.71,0.89,111,8,0.064,-0.003,0.064,0.048,0.9798548,0,4,1,15
168753480,1541556229399509,298067738,1065381432,350443,323779,0.32900003,0.7842556,0.97,1.3460001,0.71,0.89,111,8,0.078,0.078,0.004,0.075,0.9798548,0,4,1,15
168949652,1541556229599509,298067737,1065381431,350408,323744,0.32900003,0.7842671,0.9710001,1.3460001,0.71,0.89,111,8,0.08400001,-0.072000004,0.042000003,-0.060000002,0.9798548,0,4,1,15
169150561,1541556229799509,298067735,1065381431,350419,323755,0.317,0.78427815,0.97200006,1.3470001,0.71,0.89,111,3,0.055000003,-0.048,0.028,-0.081,0.9798548,0,4,1,15
169355809,1541556229999510,298067735,1065381430,350374,323710,0.28,0.7842879,0.97300005,1.348,0.71,0.89,111,3,0.043,0.040000003,-0.015000001,-0.09200001,0.9798548,0,4,1,15
169550555,1541556230199509,298067734,1065381429,350377,323713,0.314,0.7842989,0.97400004,1.3510001,0.71,0.89,111,3,0.022000002,-0.021000002,-0.009000001,-0.112,0.9798548,0,4,1,15
169746483,1541556230399509,298067733,1065381428,350342,323678,0.27400002,0.7843085,0.9760001,1.353,0.71,0.89,111,3,0.047000002,0.047000002,-0.006,-0.043,0.9798548,0,4,1,15
169950481,1541556230599509,298067733,1065381430,350308,323644,0.333,0.7843202,0.97700006,1.355,0.71,0.89,111,3,0.069000006,-0.045,0.052,-0.058000002,0.9798548,0,4,1,15
170156743,1541556230799509,298067733,1065381431,350275,323611,0.26700002,0.7843295,0.97800004,1.3570001,0.71,0.89,111,3,0.047000002,-0.002,0.047000002,-0.071,0.9798548,0,4,1,15
170354525,1541556230999510,298067733,1065381431,350216,323552,0.34300002,0.78434134,0.97900003,1.358,0.71,0.89,111,3,0.087000005,0.051000003,-0.071,-0.013,0.9798548,0,4,1,15
170547590,1541556231199509,298067734,1065381429,350194,323530,0.24300002,0.78434986,0.98,1.358,0.71,0.89,111,3,0.031000001,0.020000001,0.024,-0.061000004,0.9798548,0,4,1,15
170749579,1541556231399509,298067733,1065381430,350167,323503,0.33800003,0.7843617,0.98100007,1.36,0.71,0.89,111,3,0.081,-0.021000002,0.078,0.008,0.9798548,0,4,1,15
170951726,1541556231599509,298067732,1065381430,350147,323483,0.354,0.7843741,0.98200005,1.363,0.71,0.89,111,3,0.062000003,0.014,-0.060000002,-0.015000001,0.9798548,0,4,1,15
171151610,1541556231799509,298067731,1065381428,350146,323482,0.33,0.7843856,0.98300004,1.3640001,0.71,0.89,110,2,0.086,-0.078,0.035,-0.011000001,0.9798548,0,4,1,15
171354924,1541556231999509,298067730,1065381428,350100,323436,0.32000002,0.7843968,0.984,1.365,0.71,0.89,110,2,0.041,0.040000003,0.006,0.016,0.9798548,0,4,1,15
171560514,1541556232199508,298067730,1065381428,350091,323427,0.34300002,0.78440887,0.9850001,1.366,0.71,0.89,110,2,0.035,0.019000001,-0.029000001,-0.008,0.9798548,0,4,1,15
171752515,1541556232399508,298067728,1065381428,350035,323371,0.293,0.784419,0.9850001,1.365,0.76,0.89,110,2,0.123,-0.003,-0.123,-0.012,0.9798548,0,4,1,14
171944567,1541556232599508,298067726,1065381426,350014,323350,0.216,0.7844267,0.98300004,1.363,0.71,0.89,110,2,0.027,-0.022000002,-0.015000001,0.016,0.9798548,0,4,1,15
172148491,1541556232799508,298067725,1065381423,349994,323330,0.272,0.7844361,0.98300004,1.3620001,0.71,0.89,103,4,0.060000002,-0.059000004,-0.014,0.004,0.9798548,0,4,1,15
173358751,1541556233999509,298067718,1065381421,349760,323096,0.273,0.7845001,0.98600006,1.363,0.71,0.89,103,4,0.015000001,-0.0050000004,-0.014,0.083000004,0.9798548,0,4,1,15
175348484,1541556235999508,298067707,1065381426,349488,322824,0.28100002,0.7846169,1.0120001,1.3840001,0.76,0.89,97,2,0.012,-0.002,-0.012,0.036000002,0.9798548,0,4,1,14
175556506,1541556236199507,298067706,1065381427,349470,322806,0.356,0.78462946,1.016,1.388,0.76,0.89,97,2,0.038000003,-0.038000003,-0.004,-0.040000003,0.9798548,0,4,1,14
175756482,1541556236399507,298067705,1065381428,349466,322803,0.26500002,0.7846387,1.0200001,1.391,0.76,0.89,97,2,0.022000002,0.022000002,0.0050000004,-0.027,0.9798548,0,4,1,14
175956562,1541556236599507,298067704,1065381428,349451,322787,0.37300003,0.78465164,1.024,1.3950001,0.76,0.89,97,2,0.035,-0.016,-0.031000001,-0.025,0.9798548,0,4,1,14
176154492,1541556236799507,298067701,1065381428,349453,322789,0.326,0.78466314,1.0250001,1.3950001,0.76,0.89,97,2,0.013,-0.012,-0.001,-0.021000002,0.9798548,0,4,1,14
176360115,1541556236999508,298067699,1065381429,349468,322804,0.305,0.7846738,1.023,1.3920001,0.76,0.89,97,2,0.054,-0.027,0.046000004,-0.016,0.9798548,0,4,1,14
176558480,1541556237199506,298067697,1065381429,349429,322765,0.30200002,0.7846843,1.021,1.389,0.71,0.89,97,2,0.025,0.0050000004,-0.024,-0.060000002,0.9798548,0,4,1,15
176757203,1541556237399506,298067694,1065381429,349403,322739,0.284,0.7846942,1.018,1.386,0.71,0.89,97,2,0.091000006,-0.091000006,-0.0050000004,-0.0050000004,0.9798548,0,4,1,15
176961207,1541556237599506,298067692,1065381429,349367,322703,0.305,0.78470486,1.0150001,1.3820001,0.71,0.89,97,2,0.09200001,0.068,-0.062000003,0.003,0.9798548,0,4,1,15
177155615,1541556237799506,298067691,1065381428,349355,322691,0.24400002,0.78471327,1.0120001,1.3790001,0.71,0.89,97,3,0.041,0.002,0.041,-0.022000002,0.9798548,0,4,1,15
177362508,1541556237999507,298067689,1065381428,349332,322668,0.3,0.7847239,1.0090001,1.3750001,0.71,0.89,97,3,0.037,0.008,-0.036000002,-0.012,0.9798548,0,4,1,15
177555655,1541556238199506,298067688,1065381428,349307,322643,0.30200002,0.78473437,1.006,1.371,0.71,0.89,97,3,0.021000002,0.002,-0.020000001,-0.024,0.9798548,0,4,1,15
177755555,1541556238399506,298067687,1065381426,349290,322626,0.30100003,0.78474486,1.003,1.368,0.71,0.89,97,3,0.07700001,0.021000002,-0.075,-0.018000001,0.9798548,0,4,1,15
177951694,1541556238599506,298067686,1065381425,349259,322595,0.29900002,0.7847553,1.001,1.365,0.71,0.89,97,3,0.09,0.089,-0.012,0.044000003,0.9798548,0,4,1,15
178160504,1541556238799506,298067685,1065381425,349209,322545,0.30400002,0.78476596,0.998,1.3610001,0.71,0.89,97,2,0.059000004,-0.044000003,0.040000003,-0.002,0.9798548,0,4,1,15
178356477,1541556238999507,298067683,1065381425,349173,322509,0.275,0.78477556,0.99600005,1.358,0.71,0.89,97,2,0.037,0.035,0.013,0.006,0.9798548,0,4,1,15
178563953,1541556239199506,298067682,1065381424,349146,322482,0.28500003,0.7847855,0.994,1.355,0.71,0.89,97,2,0.021000002,0.013,-0.016,-0.032,0.9798548,0,4,1,15
178757528,1541556239399506,298067681,1065381423,349113,322449,0.23400001,0.78479373,0.99100006,1.3520001,0.71,0.89,97,2,0.021000002,-0.003,-0.021000002,0.019000001,0.9798548,0,4,1,15
178961656,1541556239599506,298067679,1065381423,349090,322426,0.29900002,0.78480417,0.989,1.3490001,0.71,0.89,97,2,0.037,-0.034,0.015000001,-0.026,0.9798548,0,4,1,15
179180506,1541556239799505,298067678,1065381423,349043,322379,0.26900002,0.7848136,0.98700005,1.3460001,0.71,0.89,97,2,0.015000001,0.012,-0.009000001,-0.086,0.9798548,0,4,1,15
179372605,1541556239999506,298067676,1065381422,349007,322343,0.289,0.7848237,0.9850001,1.3440001,0.71,0.89,97,2,0.048,0.026,-0.041,-0.07700001,0.9798548,0,4,1,15
179566482,1541556240199505,298067675,1065381422,348946,322282,0.30200002,0.7848342,0.98300004,1.3410001,0.71,0.89,97,2,0.074,0.016,-0.072000004,-0.083000004,0.9798548,0,4,1,15
179758527,1541556240399505,298067674,1065381421,348909,322245,0.303,0.7848448,0.98100007,1.3390001,0.71,0.89,97,2,0.037,-0.001,0.037,0.046000004,0.9798548,0,4,1,15
179960655,1541556240599505,298067673,1065381423,348854,322190,0.279,0.7848546,0.98,1.337,0.71,0.89,97,2,0.069000006,-0.003,0.069000006,-0.0050000004,0.9798548,0,4,1,15
180184704,1541556240799505,298067671,1065381425,348792,322128,0.305,0.78486526,0.97800004,1.335,0.71,0.89,97,4,0.039,-0.008,0.038000003,0.019000001,0.9798548,0,4,1,15
180360779,1541556240999506,298067670,1065381425,348747,322083,0.22600001,0.7848731,0.9760001,1.3330001,0.71,0.89,97,4,0.014,-0.012,-0.008,0.007,0.9798548,0,4,1,15
180558059,1541556241199505,298067669,1065381425,348717,322053,0.289,0.78488326,0.975,1.33,0.71,0.89,97,4,0.037,0.014,0.034,0.15300001,0.9798548,0,4,1,15
180758483,1541556241399505,298067667,1065381426,348668,322004,0.277,0.78489286,0.97300005,1.3280001,0.71,0.89,97,4,0.041,-0.034,0.022000002,0.056,0.9798548,0,4,1,15
180959696,1541556241599505,298067666,1065381426,348633,321969,0.305,0.78490365,0.97200006,1.3260001,0.71,0.89,97,4,0.034,0.006,0.033,0.038000003,0.9798548,0,4,1,15
181157605,1541556241799505,298067666,1065381427,348599,321935,0.29000002,0.7849138,0.97,1.3240001,0.71,0.89,97,2,0.020000001,0.006,0.019000001,0.076000005,0.9798548,0,4,1,15
181364482,1541556241999506,298067666,1065381426,348553,321889,0.293,0.7849239,0.96800005,1.32,0.71,0.89,97,2,0.035,0.006,0.035,0.101,0.9798548,0,4,1,15
181559599,1541556242199505,298067665,1065381427,348513,321849,0.30800003,0.78493476,0.966,1.3180001,0.71,0.89,97,2,0.05,-0.021000002,0.046000004,0.016,0.9798548,0,4,1,15
181759671,1541556242399504,298067663,1065381427,348482,321818,0.261,0.7849438,0.96500003,1.3160001,0.71,0.89,97,2,0.05,0.010000001,-0.049000002,0.036000002,0.9798548,0,4,1,15
181961474,1541556242599504,298067663,1065381426,348422,321758,0.303,0.7849544,0.96300006,1.3130001,0.71,0.89,97,2,0.044000003,-0.001,0.043,0.049000002,0.9798548,0,4,1,15
182156564,1541556242799504,298067662,1065381425,348395,321731,0.25100002,0.7849632,0.9620001,1.3100001,0.71,0.89,97,6,0.034,-0.033,0.004,0.038000003,0.9798548,0,4,1,15
182357548,1541556242999505,298067661,1065381424,348356,321692,0.25,0.7849721,0.96000004,1.307,0.71,0.89,97,6,0.040000003,0.006,-0.039,0.018000001,0.9798548,0,4,1,15
182557643,1541556243199504,298067661,1065381422,348330,321666,0.28500003,0.784982,0.95800006,1.304,0.71,0.89,97,6,0.042000003,-0.027,0.031000001,0.059000004,0.9798548,0,4,1,15
182757481,1541556243399504,298067660,1065381421,348308,321644,0.29900002,0.7849925,0.95600003,1.3010001,0.71,0.89,97,6,0.021000002,-0.017,-0.012,-0.021000002,0.9798548,0,4,1,15
182957582,1541556243599504,298067660,1065381421,348271,321607,0.28,0.7850023,0.95400006,1.2980001,0.71,0.89,97,6,0.010000001,-0.009000001,0.0050000004,-0.009000001,0.9798548,0,4,1,15
183149507,1541556243799504,298067659,1065381421,348243,321579,0.25300002,0.7850112,0.95300007,1.296,0.71,0.89,97,4,0.013,0.012,0.0050000004,-0.060000002,0.9798548,0,4,1,15
183364963,1541556243999505,298067659,1065381421,348219,321555,0.296,0.7850215,0.95100003,1.294,0.71,0.89,97,4,0.052,-0.025,0.045,0.063,0.9798548,0,4,1,15
183558477,1541556244199504,298067658,1065381421,348186,321522,0.25300002,0.7850302,0.95000005,1.291,0.71,0.89,97,4,0.043,-0.007,0.043,-0.015000001,0.9798548,0,4,1,15
183758476,1541556244399504,298067657,1065381420,348165,321501,0.29700002,0.7850407,0.94900006,1.289,0.71,0.89,97,4,0.043,0.022000002,-0.037,-0.035,0.9798548,0,4,1,15
183957531,1541556244599504,298067657,1065381418,348142,321478,0.282,0.78505045,0.9480001,1.2870001,0.71,0.89,97,4,0.043,0.039,-0.018000001,0.069000006,0.9798548,0,4,1,15
184181395,1541556244799504,298067657,1065381417,348115,321451,0.3,0.78506094,0.947,1.2850001,0.71,0.89,97,8,0.056,0.056,0.001,0.041,0.9798548,0,4,1,15
184355563,1541556244999504,298067657,1065381416,348070,321406,0.28100002,0.7850707,0.94600004,1.2820001,0.71,0.89,97,8,0.032,0.028,-0.017,-0.013,0.9798548,0,4,1,15
184551564,1541556245199503,298067657,1065381415,348066,321402,0.33400002,0.7850824,0.947,1.284,0.71,0.89,97,8,0.025,-0.025,-0.006,-0.024,0.9798548,0,4,1,15
184750875,1541556245399503,298067656,1065381415,348068,321404,0.33600003,0.7850941,0.95000005,1.2870001,0.71,0.89,97,8,0.006,0.0050000004,0.004,0.014,0.9798548,0,4,1,15
