timestamp,time_utc_usec,lat,lon,alt,alt_ellipsoid,s_variance_m_s,c_variance_rad,eph,epv,hdop,vdop,noise_per_ms,jamming_indicator,vel_m_s,vel_n_m_s,vel_e_m_s,vel_d_m_s,cog_rad,timestamp_time_relative,fix_type,vel_ned_valid,satellites_used
716949054,1541038580999929,298044569,1065397053,247661,220999,0.162,0.7310449,0.56100005,0.88600004,0.63,0.94,102,12,0.024,0.024,-0.0050000004,-0.021000002,5.9904346,0,4,1,18
717163586,1541038581199928,298044568,1065397053,247682,221021,0.186,0.73105186,0.56100005,0.88600004,0.63,0.94,102,12,0.030000001,0.012,0.028,-0.042000003,5.9904346,0,4,1,18
717362590,1541038581399928,298044567,1065397054,247703,221042,0.21100001,0.73105973,0.56100005,0.88600004,0.63,0.94,102,12,0.036000002,-0.029000001,0.022000002,-0.051000003,5.9904346,0,4,1,18
717563514,1541038581599928,298044566,1065397054,247700,221038,0.20600002,0.7310676,0.56100005,0.887,0.63,0.94,102,12,0.009000001,0.003,0.009000001,-0.040000003,5.9904346,0,4,1,18
717764478,1541038581799928,298044566,1065397055,247709,221048,0.18300001,0.7310744,0.56100005,0.887,0.63,0.94,102,12,0.030000001,-0.017,0.025,-0.021000002,5.9904346,0,4,1,18
717968531,1541038581999929,298044565,1065397055,247730,221069,0.18200001,0.7310812,0.56100005,0.8880001,0.63,0.94,102,12,0.019000001,0.004,0.018000001,-0.021000002,5.9904346,0,4,1,18
718167600,1541038582199928,298044564,1065397056,247745,221083,0.20300001,0.7310887,0.56100005,0.8880001,0.63,0.94,102,11,0.027,-0.023000002,0.013,-0.022000002,5.9904346,0,4,1,18
718374558,1541038582399928,298044562,1065397056,247760,221099,0.162,0.73109484,0.56100005,0.8880001,0.63,0.94,102,11,0.018000001,-0.012,-0.013,-0.003,5.9904346,0,4,1,18
718560548,1541038582599928,298044562,1065397056,247762,221101,0.15100001,0.7311004,0.56100005,0.88900006,0.63,0.94,102,11,0.028,0.018000001,-0.021000002,-0.014,5.9904346,0,4,1,18
718771484,1541038582799928,298044561,1065397056,247770,221109,0.208,0.73110825,0.56100005,0.88900006,0.63,0.94,102,11,0.024,0.010000001,-0.022000002,-0.055000003,5.9904346,0,4,1,18
718965481,1541038582999929,298044561,1065397056,247788,221127,0.179,0.73111504,0.56100005,0.89000005,0.63,0.94,102,11,0.021000002,0.0050000004,-0.021000002,-0.020000001,5.9904346,0,4,1,18
719163489,1541038583199928,298044560,1065397056,247800,221138,0.22800002,0.7311236,0.56100005,0.89000005,0.63,0.94,102,11,0.042000003,-0.039,-0.016,-0.080000006,5.9904346,0,4,1,18
719358014,1541038583399928,298044559,1065397055,247822,221161,0.136,0.7311287,0.56100005,0.89100003,0.63,0.94,102,11,0.05,0.015000001,-0.048,0.003,5.9904346,0,4,1,18
719559626,1541038583599928,298044558,1065397055,247836,221175,0.16100001,0.7311348,0.56200004,0.89100003,0.63,0.94,102,11,0.029000001,0.022000002,0.020000001,0.002,5.9904346,0,4,1,18
719759483,1541038583799928,298044558,1065397056,247834,221172,0.179,0.7311414,0.56200004,0.89100003,0.63,0.94,102,11,0.011000001,0.006,0.010000001,-0.012,5.9904346,0,4,1,18
719979600,1541038583999928,298044557,1065397056,247835,221173,0.202,0.7311491,0.56200004,0.892,0.63,0.94,102,11,0.016,0.015000001,0.006,0.009000001,5.9904346,0,4,1,18
720173493,1541038584199927,298044556,1065397057,247851,221189,0.22900002,0.73115766,0.56200004,0.892,0.63,0.94,102,12,0.017,0.016,-0.006,0.069000006,5.9904346,0,4,1,18
720361477,1541038584399927,298044556,1065397057,247856,221195,0.19800001,0.731165,0.563,0.892,0.63,0.94,102,12,0.010000001,0.0050000004,-0.008,-0.023000002,5.9904346,0,4,1,18
720561904,1541038584599927,298044555,1065397057,247873,221212,0.18200001,0.73117197,0.563,0.89300007,0.63,0.94,102,12,0.009000001,0.0050000004,0.008,-0.016,5.9904346,0,4,1,18
720758601,1541038584799927,298044553,1065397057,247895,221234,0.16100001,0.73117787,0.563,0.89300007,0.63,0.94,102,12,0.025,-0.025,0.001,0.0,5.9904346,0,4,1,18
720964528,1541038584999928,298044552,1065397058,247908,221247,0.22800002,0.73118645,0.563,0.89400005,0.63,0.94,102,12,0.009000001,0.003,-0.008,0.053000003,5.9904346,0,4,1,18
721164465,1541038585199927,298044551,1065397058,247918,221257,0.20600002,0.7311943,0.563,0.89400005,0.63,0.94,102,11,0.044000003,-0.041,0.015000001,-0.036000002,5.9904346,0,4,1,18
721362624,1541038585399927,298044550,1065397058,247932,221271,0.22900002,0.73120284,0.563,0.89400005,0.63,0.94,102,11,0.003,-0.002,0.002,-0.054,5.9904346,0,4,1,18
721564372,1541038585599927,298044549,1065397058,247944,221283,0.22500001,0.73121125,0.564,0.89400005,0.63,0.94,102,11,0.013,-0.003,-0.013,-0.068,5.9904346,0,4,1,18
721764692,1541038585799927,298044548,1065397059,247960,221298,0.22500001,0.73121977,0.564,0.89400005,0.63,0.94,102,11,0.013,-0.004,0.012,-0.1,5.9904346,0,4,1,18
721978549,1541038585999928,298044547,1065397059,247988,221326,0.19800001,0.7312273,0.564,0.89500004,0.63,0.94,102,11,0.021000002,0.020000001,-0.0050000004,-0.042000003,5.9904346,0,4,1,18
722162623,1541038586199927,298044546,1065397059,248019,221358,0.23200001,0.73123586,0.564,0.89500004,0.63,0.94,102,11,0.002,-0.002,0.001,-0.039,5.9904346,0,4,1,18
722366756,1541038586399927,298044545,1065397059,248037,221375,0.22800002,0.73124456,0.564,0.89500004,0.63,0.94,102,11,0.017,-0.015000001,0.007,-0.093,5.9904346,0,4,1,18
722566759,1541038586599927,298044544,1065397059,248045,221383,0.22900002,0.73125315,0.565,0.89500004,0.63,0.94,102,11,0.009000001,-0.003,-0.009000001,-0.044000003,5.9904346,0,4,1,18
722766588,1541038586799927,298044543,1065397060,248064,221402,0.22600001,0.7312615,0.565,0.89500004,0.63,0.94,102,11,0.014,-0.007,0.012,-0.056,5.9904346,0,4,1,18
722964547,1541038586999928,298044542,1065397060,248093,221431,0.23,0.7312701,0.565,0.896,0.63,0.94,102,11,0.007,-0.007,-0.001,-0.085,5.9904346,0,4,1,18
723164676,1541038587199927,298044541,1065397060,248125,221464,0.186,0.73127705,0.565,0.896,0.63,0.94,102,12,0.025,0.024,0.008,-0.033,5.9904346,0,4,1,18
723364911,1541038587399927,298044541,1065397060,248118,221456,0.22800002,0.7312856,0.565,0.896,0.63,0.94,102,12,0.014,-0.010000001,0.010000001,-0.085,5.9904346,0,4,1,18
723564614,1541038587599927,298044539,1065397061,248139,221478,0.23200001,0.73129433,0.565,0.896,0.63,0.94,102,12,0.017,-0.016,-0.0050000004,-0.060000002,5.9904346,0,4,1,18
723766875,1541038587799927,298044538,1065397061,248164,221502,0.178,0.73130095,0.56600004,0.896,0.63,0.94,102,12,0.020000001,0.019000001,-0.006,-0.020000001,5.9904346,0,4,1,18
723974651,1541038587999927,298044537,1065397061,248177,221515,0.22800002,0.7313095,0.56600004,0.896,0.63,0.94,102,12,0.011000001,-0.011000001,0.002,-0.094000004,5.9904346,0,4,1,18
724166598,1541038588199926,298044536,1065397061,248182,221520,0.209,0.73131734,0.56600004,0.896,0.63,0.94,102,13,0.026,0.026,0.004,-0.07700001,5.9904346,0,4,1,18
724366743,1541038588399926,298044535,1065397062,248196,221535,0.14400001,0.7313226,0.56600004,0.896,0.63,0.94,102,13,0.029000001,-0.020000001,0.020000001,0.007,5.9904346,0,4,1,18
724565484,1541038588599926,298044534,1065397062,248208,221547,0.22700001,0.7313311,0.56600004,0.896,0.63,0.94,102,13,0.008,-0.003,0.007,-0.047000002,5.9904346,0,4,1,18
724766651,1541038588799926,298044533,1065397062,248228,221566,0.23,0.7313399,0.56600004,0.896,0.63,0.94,102,13,0.027,-0.027,0.001,-0.10700001,5.9904346,0,4,1,18
724958732,1541038588999927,298044531,1065397062,248246,221584,0.22500001,0.7313482,0.56600004,0.896,0.63,0.94,102,13,0.009000001,-0.009000001,-0.001,-0.015000001,5.9904346,0,4,1,18
725166729,1541038589199926,298044530,1065397062,248256,221594,0.23200001,0.731357,0.56600004,0.897,0.63,0.94,102,12,0.007,-0.007,0.0,-0.034,5.9904346,0,4,1,18
725366724,1541038589399926,298044529,1065397063,248256,221595,0.141,0.7313622,0.56600004,0.897,0.63,0.94,102,12,0.015000001,-0.006,0.013,-0.001,5.9904346,0,4,1,18
725566620,1541038589599926,298044528,1065397062,248252,221590,0.21300001,0.7313702,0.56700003,0.897,0.63,0.94,102,12,0.020000001,0.011000001,-0.016,0.030000001,5.9904346,0,4,1,18
725765496,1541038589799926,298044527,1065397063,248274,221613,0.17400001,0.7313767,0.56700003,0.897,0.63,0.94,102,12,0.037,0.009000001,0.036000002,-0.034,5.9904346,0,4,1,18
725983482,1541038589999927,298044526,1065397063,248283,221622,0.186,0.7313837,0.56700003,0.89800006,0.63,0.94,102,12,0.043,0.038000003,0.020000001,-0.058000002,5.9904346,0,4,1,18
726167603,1541038590199926,298044525,1065397063,248292,221630,0.23200001,0.7313924,0.56700003,0.89800006,0.63,0.94,102,12,0.014,-0.013,0.003,-0.083000004,5.9904346,0,4,1,18
726364482,1541038590399926,298044524,1065397063,248301,221640,0.22200002,0.7314008,0.56700003,0.89800006,0.63,0.94,102,12,0.022000002,-0.021000002,-0.003,-0.020000001,5.9904346,0,4,1,18
726572512,1541038590599926,298044523,1065397063,248311,221650,0.22100002,0.73140895,0.568,0.89800006,0.63,0.94,102,12,0.001,0.001,0.0,-0.067,5.9904346,0,4,1,18
726772475,1541038590799926,298044521,1065397062,248321,221660,0.19600001,0.7314163,0.568,0.89900005,0.63,0.94,102,12,0.017,-0.011000001,-0.013,-0.011000001,5.9904346,0,4,1,18
726975477,1541038590999927,298044520,1065397062,248330,221668,0.19600001,0.7314236,0.568,0.89900005,0.63,0.94,102,12,0.015000001,-0.006,0.014,0.021000002,5.9904346,0,4,1,18
727164499,1541038591199926,298044519,1065397062,248334,221673,0.22900002,0.7314324,0.568,0.89900005,0.63,0.94,102,12,0.013,0.010000001,0.008,0.027,5.9904346,0,4,1,18
727364490,1541038591399926,298044518,1065397062,248342,221680,0.19500001,0.7314397,0.568,0.89900005,0.63,0.94,102,12,0.035,0.035,0.001,0.015000001,5.9904346,0,4,1,18
727564520,1541038591599926,298044516,1065397062,248347,221686,0.21100001,0.7314475,0.568,0.89900005,0.63,0.94,102,12,0.072000004,-0.056,0.046000004,-0.079,5.9904346,0,4,1,18
727760483,1541038591799925,298044515,1065397063,248350,221689,0.2,0.731455,0.568,0.89900005,0.63,0.94,102,12,0.040000003,-0.029000001,0.028,-0.034,5.9904346,0,4,1,18
727975481,1541038591999926,298044513,1065397063,248356,221695,0.21200001,0.7314631,0.568,0.89900005,0.63,0.94,102,12,0.024,-0.007,0.023000002,-0.045,5.9904346,0,4,1,18
728167488,1541038592199925,298044512,1065397064,248378,221716,0.193,0.7314702,0.568,0.90000004,0.63,0.94,102,11,0.039,0.020000001,0.033,0.026,5.9904346,0,4,1,18
728367509,1541038592399925,298044511,1065397064,248373,221712,0.21000001,0.7314781,0.568,0.90000004,0.63,0.94,102,11,0.018000001,0.017,0.006,0.012,5.9904346,0,4,1,18
728583493,1541038592599925,298044510,1065397065,248364,221703,0.15200001,0.7314839,0.568,0.90000004,0.63,0.94,102,11,0.030000001,-0.026,0.016,0.008,5.9904346,0,4,1,18
728768594,1541038592799925,298044508,1065397065,248374,221712,0.216,0.73149186,0.568,0.90000004,0.63,0.94,102,11,0.006,-0.006,-0.002,0.060000002,5.9904346,0,4,1,18
728967665,1541038592999926,298044507,1065397066,248362,221700,0.162,0.731498,0.568,0.90000004,0.63,0.94,102,11,0.057000004,-0.018000001,0.054,0.035,5.9904346,0,4,1,18
729167492,1541038593199925,298044505,1065397068,248362,221700,0.13700001,0.73150307,0.56700003,0.90000004,0.63,0.94,102,11,0.076000005,-0.024,0.072000004,0.008,5.9904346,0,4,1,18
729367480,1541038593399925,298044504,1065397070,248325,221664,0.136,0.73150814,0.56700003,0.90000004,0.63,0.94,102,11,0.085,-0.009000001,0.08400001,0.007,5.9904346,0,4,1,18
729567479,1541038593599925,298044503,1065397072,248288,221627,0.22000001,0.7315165,0.56700003,0.90000004,0.63,0.94,102,11,0.056,-0.013,0.054,0.16800001,5.9904346,0,4,1,18
729767483,1541038593799925,298044501,1065397073,248276,221614,0.19500001,0.73152363,0.56600004,0.90000004,0.63,0.94,102,11,0.063,-0.043,0.047000002,0.091000006,5.9904346,0,4,1,18
729975593,1541038593999926,298044499,1065397074,248274,221612,0.23500001,0.7315326,0.56600004,0.90000004,0.63,0.94,102,11,0.038000003,0.035,0.015000001,0.067,5.9904346,0,4,1,18
730164537,1541038594199925,298044498,1065397075,248271,221609,0.23400001,0.7315413,0.56600004,0.901,0.63,0.94,102,11,0.012,0.009000001,0.008,0.061000004,5.9904346,0,4,1,18
730360655,1541038594399925,298044497,1065397075,248267,221605,0.23300001,0.73155,0.56600004,0.90200007,0.63,0.94,102,11,0.011000001,0.010000001,-0.004,0.044000003,5.9904346,0,4,1,18
730563841,1541038594599925,298044496,1065397075,248268,221607,0.216,0.731558,0.56700003,0.90300006,0.63,0.94,102,11,0.017,0.003,0.016,0.023000002,5.9904346,0,4,1,18
730767972,1541038594799925,298044495,1065397076,248263,221601,0.19700001,0.73156554,0.56700003,0.90400004,0.63,0.94,102,11,0.020000001,-0.019000001,-0.007,0.032,5.9904346,0,4,1,18
730968481,1541038594999926,298044494,1065397076,248254,221593,0.178,0.731572,0.568,0.90500003,0.63,0.94,102,11,0.035,0.010000001,0.033,0.016,5.9904346,0,4,1,18
731165515,1541038595199925,298044493,1065397076,248245,221584,0.22600001,0.73158056,0.568,0.906,0.63,0.94,102,12,0.030000001,0.018000001,-0.024,0.048,5.9904346,0,4,1,18
731367932,1541038595399925,298044492,1065397075,248222,221561,0.238,0.73158944,0.568,0.90700006,0.63,0.94,102,12,0.026,0.021000002,-0.015000001,0.080000006,5.9904346,0,4,1,18
731568614,1541038595599925,298044492,1065397075,248201,221539,0.23200001,0.7315982,0.569,0.90800005,0.63,0.94,102,12,0.012,0.003,0.012,0.049000002,5.9904346,0,4,1,18
731765476,1541038595799924,298044491,1065397074,248189,221528,0.209,0.731606,0.569,0.90900004,0.63,0.94,102,12,0.044000003,0.044000003,0.0050000004,0.021000002,5.9904346,0,4,1,18
731983811,1541038595999925,298044490,1065397073,248185,221523,0.155,0.7316118,0.569,0.91,0.63,0.94,102,12,0.051000003,-0.008,-0.05,-0.013,5.9904346,0,4,1,18
732165486,1541038596199924,298044489,1065397072,248165,221504,0.16700001,0.73161805,0.569,0.9110001,0.63,0.94,102,11,0.068,-0.033,-0.059000004,-0.016,5.9904346,0,4,1,18
732367960,1541038596399924,298044488,1065397069,248167,221506,0.157,0.73162436,0.569,0.91200006,0.63,0.94,102,11,0.16100001,0.037,-0.156,0.056,5.9904346,0,4,1,18
732571593,1541038596599924,298044488,1065397065,248161,221500,0.14500001,0.66798407,0.57000005,0.91300005,0.63,0.94,102,11,0.25800002,0.05,-0.25300002,0.036000002,5.400612,0,4,1,18
732769481,1541038596799924,298044488,1065397057,248134,221473,0.142,0.43150192,0.57000005,0.91400003,0.63,0.94,102,11,0.39400002,0.028,-0.393,-0.071,4.964337,0,4,1,18
732969483,1541038596999925,298044489,1065397048,248145,221484,0.133,0.33801946,0.569,0.915,0.63,0.94,102,11,0.48400003,0.143,-0.462,-0.030000001,4.993719,0,4,1,18
733163599,1541038597199924,298044491,1065397037,248136,221474,0.136,0.27800894,0.569,0.915,0.63,0.94,102,12,0.596,0.16000001,-0.574,-0.082,4.987795,0,4,1,18
733368472,1541038597399924,298044494,1065397024,248141,221480,0.135,0.23702547,0.568,0.915,0.63,0.94,102,12,0.69100004,0.27400002,-0.634,-0.186,5.064641,0,4,1,18
733568479,1541038597599924,298044499,1065397009,248158,221497,0.126,0.20320344,0.568,0.915,0.63,0.94,102,12,0.82400006,0.28800002,-0.772,-0.158,5.067483,0,4,1,18
733765492,1541038597799924,298044503,1065396992,248203,221541,0.13100001,0.18949422,0.568,0.915,0.63,0.94,102,12,0.93100005,0.31800002,-0.87500006,-0.178,5.063748,0,4,1,18
733976465,1541038597999925,298044510,1065396973,248185,221524,0.12900001,0.16496101,0.568,0.915,0.63,0.94,102,12,1.013,0.448,-0.90900004,-0.007,5.124389,0,4,1,18
734168637,1541038598199924,298044516,1065396953,248165,221503,0.132,0.16178852,0.568,0.91400003,0.63,0.94,102,12,1.023,0.37,-0.95400006,0.093,5.1029305,0,4,1,18
734376445,1541038598399924,298044523,1065396933,248124,221462,0.14400001,0.1455882,0.56700003,0.91400003,0.63,0.94,102,12,1.1320001,0.505,-1.014,0.275,5.142387,0,4,1,18
734565479,1541038598599924,298044530,1065396915,248061,221400,0.157,0.19917713,0.56700003,0.91300005,0.63,0.94,102,12,0.84300005,0.37500003,-0.75500005,0.272,5.1532483,0,4,1,18
734771482,1541038598799924,298044538,1065396899,247944,221282,0.16800001,0.18621825,0.56700003,0.91200006,0.63,0.94,102,12,0.87500006,0.46300003,-0.74200004,0.397,5.2157264,0,4,1,18
734974594,1541038598999925,298044545,1065396887,247919,221257,0.13700001,0.32050824,0.56700003,0.9110001,0.63,0.94,102,12,0.492,0.291,-0.397,-0.3,5.2482076,0,4,1,18
735171490,1541038599199924,298044547,1065396880,247991,221329,0.12100001,0.38013706,0.56600004,0.90900004,0.63,0.94,102,11,0.39200002,0.22600001,-0.321,-0.034,5.280472,0,4,1,18
735374551,1541038599399924,298044550,1065396877,247981,221320,0.143,0.38014734,0.565,0.90800005,0.63,0.94,102,11,0.133,0.133,-0.002,-0.010000001,5.280472,0,4,1,18
735570651,1541038599599924,298044551,1065396877,247992,221331,0.126,0.38015833,0.565,0.90800005,0.63,0.94,102,11,0.147,0.14,-0.043,-0.045,5.280472,0,4,1,18
735766568,1541038599799923,298044553,1065396877,248001,221339,0.165,0.38017023,0.564,0.90700006,0.63,0.94,102,11,0.078,0.063,0.047000002,-0.074,5.280472,0,4,1,18
735971524,1541038599999924,298044554,1065396880,248027,221365,0.178,0.6793905,0.564,0.90700006,0.63,0.94,102,11,0.20300001,0.11000001,0.171,-0.254,5.7575455,0,4,1,18
736171484,1541038600199923,298044555,1065396882,248069,221408,0.21700001,0.67940307,0.564,0.90700006,0.63,0.94,102,12,0.085,0.022000002,0.082,-0.303,5.7575455,0,4,1,18
736371541,1541038600399923,298044555,1065396885,248116,221455,0.19500001,0.7622107,0.564,0.90700006,0.63,0.94,102,12,0.20500001,0.035,0.202,-0.268,0.3257334,0,4,1,18
736571475,1541038600599923,298044555,1065396890,248168,221507,0.208,0.7222935,0.564,0.906,0.63,0.94,102,12,0.224,0.009000001,0.224,-0.356,0.96029407,0,4,1,18
736787481,1541038600799923,298044555,1065396895,248222,221560,0.155,0.591169,0.564,0.906,0.63,0.94,102,12,0.23300001,0.13100001,0.193,-0.14600001,0.96752197,0,4,1,18
736969977,1541038600999924,298044555,1065396899,248271,221609,0.18,0.6962025,0.563,0.90500003,0.63,0.94,102,12,0.215,0.003,0.215,-0.21000001,1.2137146,0,4,1,18
737167616,1541038601199923,298044555,1065396903,248313,221652,0.179,0.6986422,0.563,0.90400004,0.63,0.94,102,11,0.22100002,0.082,0.20500001,-0.24400002,1.202086,0,4,1,18
737362640,1541038601399923,298044556,1065396907,248334,221673,0.17300001,0.69865036,0.563,0.90500003,0.63,0.94,102,11,0.171,0.056,0.16100001,-0.11800001,1.202086,0,4,1,18
737565170,1541038601599923,298044556,1065396911,248365,221703,0.162,0.6986579,0.564,0.906,0.63,0.94,102,11,0.172,0.060000002,0.16100001,-0.07700001,1.202086,0,4,1,18
737763483,1541038601799923,298044557,1065396914,248362,221701,0.16600001,0.6986643,0.565,0.90700006,0.63,0.94,102,11,0.141,0.07,0.12200001,-0.074,1.202086,0,4,1,18
737995484,1541038601999924,298044558,1065396916,248373,221712,0.156,0.69867045,0.56600004,0.91,0.63,0.94,102,11,0.10300001,0.082,0.063,-0.030000001,1.202086,0,4,1,18
738171487,1541038602199923,298044559,1065396918,248403,221742,0.16700001,0.6986776,0.56600004,0.9110001,0.63,0.94,102,11,0.15100001,0.13700001,0.064,-0.102000006,1.202086,0,4,1,18
738374659,1541038602399923,298044561,1065396919,248426,221764,0.19600001,0.6986853,0.56600004,0.9110001,0.63,0.94,102,11,0.125,0.119,0.039,0.056,1.202086,0,4,1,18
738582650,1541038602599923,298044562,1065396920,248446,221784,0.21700001,0.6986938,0.56600004,0.91200006,0.63,0.94,102,11,0.043,0.042000003,0.004,-0.119,1.202086,0,4,1,18
738755477,1541038602799923,298044562,1065396920,248467,221805,0.16700001,0.6987003,0.565,0.91300005,0.63,0.94,102,11,0.052,0.028,-0.044000003,-0.036000002,1.202086,0,4,1,18
738964670,1541038602999924,298044563,1065396919,248459,221798,0.19100001,0.6987078,0.565,0.91300005,0.63,0.94,102,11,0.074,0.069000006,-0.028,0.038000003,1.202086,0,4,1,18
739165491,1541038603199923,298044563,1065396919,248464,221803,0.22100002,0.6987165,0.565,0.91400003,0.63,0.94,102,12,0.024,-0.007,-0.023000002,-0.035,1.202086,0,4,1,18
739360479,1541038603399923,298044562,1065396918,248453,221791,0.18100001,0.6987237,0.565,0.915,0.63,0.94,102,12,0.053000003,-0.026,-0.046000004,0.052,1.202086,0,4,1,18
739560481,1541038603599923,298044562,1065396917,248439,221778,0.15900001,0.69872993,0.56600004,0.91600007,0.63,0.94,102,12,0.079,-0.014,-0.07700001,0.045,1.202086,0,4,1,18
739760517,1541038603799922,298044561,1065396916,248446,221784,0.14500001,0.6987357,0.56600004,0.91700006,0.63,0.94,102,12,0.027,-0.002,-0.027,-0.0050000004,1.202086,0,4,1,18
739972483,1541038603999923,298044561,1065396916,248431,221769,0.21800001,0.6987441,0.56600004,0.91800004,0.63,0.94,102,12,0.031000001,0.019000001,-0.024,0.040000003,1.202086,0,4,1,18
740161505,1541038604199922,298044561,1065396917,248451,221789,0.16000001,0.69875175,0.565,0.91800004,0.63,0.94,102,12,0.178,0.031000001,0.17500001,0.07300001,1.202086,0,4,1,18
740368478,1541038604399922,298044561,1065396927,248452,221790,0.13700001,0.19337426,0.565,0.91700006,0.63,0.94,102,12,0.795,0.126,0.785,0.060000002,1.3966162,0,4,1,18
740565483,1541038604599922,298044563,1065396947,248447,221786,0.135,0.14455235,0.564,0.91600007,0.63,0.94,102,12,1.1170001,0.085,1.113,-0.029000001,1.4596158,0,4,1,18
740765482,1541038604799922,298044565,1065396976,248479,221817,0.136,0.093654536,0.564,0.915,0.63,0.94,102,12,1.6850001,0.289,1.6600001,0.049000002,1.4163704,0,4,1,18
740968476,1541038604999923,298044569,1065397013,248480,221818,0.136,0.082185104,0.563,0.915,0.63,0.94,102,12,1.9210001,0.26500002,1.9020001,0.020000001,1.4253616,0,4,1,18
741164629,1541038605199922,298044573,1065397054,248472,221810,0.13700001,0.078047805,0.563,0.91400003,0.63,0.94,103,12,2.092,0.224,2.0800002,0.109000005,1.4454623,0,4,1,18
741365497,1541038605399922,298044575,1065397098,248454,221793,0.136,0.074435845,0.56200004,0.91400003,0.63,0.94,103,12,2.161,0.179,2.153,0.112,1.4677776,0,4,1,18
741560494,1541038605599922,298044578,1065397138,248451,221790,0.13800001,0.10367953,0.56200004,0.915,0.63,0.94,103,12,1.6890001,0.142,1.6830001,-0.075,1.4743503,0,4,1,18
741764562,1541038605799922,298044581,1065397167,248452,221790,0.149,0.15798719,0.56200004,0.91700006,0.63,0.94,103,12,1.1190001,0.177,1.105,0.028,1.4555094,0,4,1,18
741975481,1541038605999923,298044584,1065397183,248415,221753,0.17500001,0.30099738,0.563,0.91800004,0.63,0.94,103,12,0.531,0.193,0.49400002,0.21400002,1.3999997,0,4,1,18
742164491,1541038606199922,298044586,1065397188,248351,221689,0.24200001,0.301022,0.563,0.919,0.63,0.94,103,11,0.072000004,0.069000006,-0.021000002,0.26000002,1.3999997,0,4,1,18
742366839,1541038606399922,298044587,1065397184,248311,221649,0.171,0.5051611,0.563,0.92100006,0.63,0.94,103,11,0.337,0.09200001,-0.324,0.192,0.6935226,0,4,1,18
742568509,1541038606599922,298044588,1065397177,248241,221579,0.163,0.4693356,0.563,0.92100006,0.63,0.94,103,11,0.33200002,-0.003,-0.33200002,0.19500001,5.756697,0,4,1,18
742767647,1541038606799922,298044587,1065397169,248218,221557,0.147,0.3595994,0.563,0.92100006,0.63,0.94,103,11,0.45100003,-0.008,-0.45100003,0.18300001,5.0870647,0,4,1,18
742965476,1541038606999923,298044585,1065397163,248179,221518,0.172,0.35961372,0.563,0.92200005,0.63,0.94,103,11,0.15,-0.087000005,-0.12200001,0.116000004,5.0870647,0,4,1,18
743165485,1541038607199922,298044584,1065397161,248126,221465,0.223,0.359631,0.564,0.924,0.63,0.94,103,12,0.10700001,-0.017,-0.105000004,0.19800001,5.0870647,0,4,1,18
743366745,1541038607399922,298044583,1065397158,248079,221417,0.20600002,0.3596495,0.565,0.9250001,0.63,0.94,103,12,0.16600001,-0.018000001,-0.165,0.179,5.0870647,0,4,1,18
743570219,1541038607599922,298044582,1065397157,248052,221390,0.23900001,0.35966766,0.565,0.92600006,0.63,0.94,103,12,0.004,0.004,-0.001,0.011000001,5.0870647,0,4,1,18
743762575,1541038607799921,298044581,1065397155,248012,221350,0.158,0.35968336,0.565,0.9250001,0.63,0.94,103,12,0.202,-0.093,-0.179,-0.038000003,5.0870647,0,4,1,18
743982902,1541038607999922,298044579,1065397153,248010,221349,0.15200001,0.35969505,0.564,0.924,0.63,0.94,103,12,0.020000001,0.0050000004,-0.020000001,0.007,5.0870647,0,4,1,18
744156548,1541038608199921,298044577,1065397152,248023,221362,0.187,0.3597092,0.564,0.924,0.63,0.94,103,11,0.039,-0.037,0.012,0.074,5.0870647,0,4,1,18
744358645,1541038608399921,298044575,1065397150,248021,221360,0.14500001,0.35972038,0.563,0.92300004,0.63,0.94,103,11,0.104,-0.064,-0.082,0.014,5.0870647,0,4,1,18
744561163,1541038608599921,298044572,1065397147,248048,221387,0.18,0.35973746,0.563,0.92300004,0.63,0.94,103,11,0.185,-0.054,-0.177,-0.128,5.0870647,0,4,1,18
744760770,1541038608799921,298044570,1065397141,248083,221421,0.14500001,0.4350526,0.563,0.92300004,0.63,0.94,103,11,0.37,-0.089,-0.35900003,0.002,4.8363023,0,4,1,18
744964406,1541038608999922,298044568,1065397131,248077,221416,0.15300001,0.29563257,0.563,0.924,0.63,0.94,103,11,0.569,-0.064,-0.565,0.002,4.6741686,0,4,1,18
745166630,1541038609199921,298044566,1065397117,248053,221392,0.147,0.22699663,0.563,0.9250001,0.63,0.94,103,13,0.74100006,-0.07300001,-0.73700005,0.13000001,4.6364794,0,4,1,18
745366639,1541038609399921,298044564,1065397099,248037,221375,0.14,0.1653017,0.563,0.92600006,0.63,0.94,103,13,1.005,-0.13000001,-0.99700004,-0.039,4.601247,0,4,1,18
745561359,1541038609599921,298044562,1065397076,248034,221373,0.13900001,0.13939211,0.563,0.92700005,0.63,0.94,103,13,1.1960001,-0.14400001,-1.187,-0.031000001,4.595483,0,4,1,18
745766646,1541038609799921,298044559,1065397050,248023,221361,0.13900001,0.12624158,0.563,0.92800003,0.63,0.94,103,13,1.3950001,-0.18,-1.3840001,0.053000003,4.5886135,0,4,1,18
745976705,1541038609999922,298044557,1065397020,248000,221339,0.136,0.11122808,0.563,0.92800003,0.63,0.94,103,13,1.5410001,-0.067,-1.539,0.042000003,4.6338468,0,4,1,18
746168954,1541038610199921,298044555,1065396987,247972,221311,0.136,0.10377465,0.56200004,0.92800003,0.63,0.94,103,12,1.646,-0.091000006,-1.6430001,0.085,4.6463675,0,4,1,18
746366631,1541038610399921,298044553,1065396952,247966,221304,0.13700001,0.09882176,0.56200004,0.929,0.63,0.94,103,12,1.7320001,-0.157,-1.725,0.006,4.633361,0,4,1,18
746570038,1541038610599921,298044550,1065396916,247967,221306,0.13800001,0.09774908,0.56200004,0.929,0.63,0.94,103,12,1.825,-0.15,-1.8190001,-0.053000003,4.63159,0,4,1,18
746774683,1541038610799921,298044547,1065396877,247968,221307,0.136,0.077001825,0.56200004,0.929,0.63,0.94,103,12,1.9560001,-0.16700001,-1.9490001,-0.004,4.628761,0,4,1,18
746964621,1541038610999922,298044545,1065396836,247962,221301,0.136,0.08189067,0.56100005,0.929,0.63,0.94,103,12,2.0270002,-0.11000001,-2.0240002,0.001,4.642731,0,4,1,18
747160720,1541038611199921,298044543,1065396793,247929,221268,0.136,0.07042508,0.56100005,0.92800003,0.63,0.94,103,12,2.141,-0.141,-2.1360002,-0.062000003,4.644768,0,4,1,18
747364654,1541038611399921,298044542,1065396749,247924,221262,0.136,0.071480475,0.56,0.929,0.63,0.94,103,12,2.2150002,-0.038000003,-2.2150002,0.038000003,4.669909,0,4,1,18
747569485,1541038611599920,298044541,1065396704,247892,221231,0.135,0.07369443,0.56,0.92800003,0.63,0.94,103,12,2.135,-0.067,-2.134,0.054,4.6752553,0,4,1,18
747767488,1541038611799920,298044540,1065396662,247883,221222,0.15100001,0.08096757,0.56,0.93000007,0.63,0.94,103,12,2.01,-0.098000005,-2.0080001,-0.026,4.669977,0,4,1,18
747975482,1541038611999921,298044539,1065396624,247880,221218,0.15100001,0.098744966,0.56,0.93100005,0.63,0.94,103,12,1.6520001,-0.051000003,-1.651,-0.112,4.6745634,0,4,1,18
748166625,1541038612199920,298044537,1065396594,247906,221245,0.149,0.11444088,0.56100005,0.93100005,0.63,0.94,103,11,1.393,-0.044000003,-1.3920001,-0.021000002,4.677214,0,4,1,18
748359481,1541038612399920,298044536,1065396571,247934,221273,0.15,0.21319126,0.56,0.93100005,0.63,0.94,103,11,0.845,0.018000001,-0.845,-0.17500001,4.689995,0,4,1,18
748567511,1541038612599920,298044537,1065396556,247918,221256,0.142,0.2750026,0.56,0.93000007,0.63,0.94,103,11,0.605,-0.046000004,-0.60300004,-0.003,4.670095,0,4,1,18
748788484,1541038612799920,298044536,1065396547,247942,221281,0.158,0.49253312,0.56,0.93000007,0.63,0.94,103,11,0.363,0.010000001,-0.363,-0.15200001,4.686899,0,4,1,18
748975485,1541038612999921,298044537,1065396540,247940,221278,0.16900001,0.52790934,0.56100005,0.93000007,0.63,0.94,103,11,0.36200002,0.023000002,-0.36100003,-0.108,4.7281876,0,4,1,18
749171649,1541038613199920,298044538,1065396534,247943,221281,0.15300001,0.5786663,0.56200004,0.93000007,0.63,0.94,103,11,0.31800002,0.172,-0.26700002,-0.014,4.980608,0,4,1,18
749364483,1541038613399920,298044540,1065396530,247951,221290,0.15200001,0.5786771,0.563,0.93000007,0.63,0.94,103,11,0.23,0.098000005,-0.208,-0.002,4.980608,0,4,1,18
749567511,1541038613599920,298044542,1065396527,247945,221284,0.21200001,0.5786885,0.564,0.93000007,0.63,0.94,103,11,0.20700002,0.17400001,-0.112,0.117000006,4.980608,0,4,1,18
749759492,1541038613799920,298044545,1065396525,247939,221278,0.18,0.578697,0.565,0.93100005,0.63,0.94,103,11,0.156,0.15,-0.042000003,-0.035,4.980608,0,4,1,18
749983480,1541038613999921,298044546,1065396525,247944,221282,0.18100001,0.5787056,0.56600004,0.93200004,0.63,0.94,103,11,0.102000006,0.098000005,-0.027,-0.07,4.980608,0,4,1,18
750164489,1541038614199920,298044548,1065396525,247962,221301,0.178,0.57871395,0.56600004,0.93200004,0.63,0.94,103,10,0.11800001,0.116000004,0.020000001,0.011000001,4.980608,0,4,1,18
750367485,1541038614399920,298044549,1065396526,247968,221306,0.18100001,0.57872254,0.56600004,0.93200004,0.63,0.94,103,10,0.141,0.13100001,0.054,0.025,4.980608,0,4,1,18
750564487,1541038614599920,298044550,1065396527,247954,221293,0.18400002,0.57873124,0.56600004,0.93200004,0.63,0.94,103,10,0.074,-0.037,0.064,-0.043,4.980608,0,4,1,18
750767478,1541038614799920,298044548,1065396528,247965,221303,0.18900001,0.5787401,0.56600004,0.93200004,0.63,0.94,103,10,0.074,-0.065000005,0.036000002,-0.026,4.980608,0,4,1,18
750967480,1541038614999921,298044546,1065396529,247943,221282,0.16600001,0.57874906,0.56600004,0.93200004,0.63,0.94,103,10,0.18,-0.177,0.030000001,0.053000003,4.980608,0,4,1,18
751164585,1541038615199920,298044541,1065396530,247938,221277,0.164,0.49983156,0.56700003,0.93200004,0.63,0.94,103,11,0.29200003,-0.28800002,0.047000002,0.08800001,3.83505,0,4,1,18
751367504,1541038615399920,298044534,1065396530,247930,221268,0.18800001,0.31923363,0.56700003,0.93200004,0.63,0.94,103,11,0.45100003,-0.45100003,0.010000001,0.026,3.3261604,0,4,1,18
751567658,1541038615599919,298044524,1065396530,247947,221285,0.194,0.29081738,0.56700003,0.933,0.63,0.94,103,11,0.48800004,-0.48400003,-0.056,-0.038000003,3.2887425,0,4,1,18
751768511,1541038615799919,298044514,1065396529,247982,221321,0.201,0.26184195,0.568,0.933,0.63,0.94,103,11,0.54,-0.53800005,-0.043,-0.135,3.2510061,0,4,1,18
751979729,1541038615999920,298044504,1065396527,247970,221308,0.19700001,0.21937792,0.568,0.933,0.63,0.94,103,11,0.65500003,-0.64500004,-0.11000001,-0.075,3.286276,0,4,1,18
752165882,1541038616199919,298044492,1065396526,248007,221345,0.187,0.2494536,0.568,0.934,0.63,0.94,103,11,0.554,-0.554,-0.019000001,-0.082,3.2381797,0,4,1,18
752368476,1541038616399919,298044481,1065396524,248045,221384,0.16900001,0.2387242,0.56700003,0.933,0.63,0.94,103,11,0.56200004,-0.549,-0.117000006,-0.074,3.2971501,0,4,1,18
752560494,1541038616599919,298044470,1065396523,248067,221405,0.186,0.20634939,0.56700003,0.933,0.63,0.94,103,11,0.661,-0.66,0.026,-0.165,3.185613,0,4,1,18
752768404,1541038616799919,298044458,1065396523,248099,221437,0.162,0.21449938,0.56600004,0.93200004,0.63,0.94,103,11,0.60300004,-0.60200006,-0.035,-0.09900001,3.192121,0,4,1,18
752969842,1541038616999920,298044445,1065396522,248146,221484,0.172,0.19494088,0.565,0.93100005,0.63,0.94,103,11,0.66200006,-0.65800005,-0.079,-0.187,3.229809,0,4,1,18
753165487,1541038617199919,298044433,1065396521,248184,221522,0.18,0.21799213,0.564,0.93100005,0.63,0.94,103,10,0.629,-0.628,0.014,-0.156,3.1803901,0,4,1,18
753364480,1541038617399919,298044421,1065396521,248199,221538,0.20500001,0.22385679,0.564,0.93100005,0.63,0.94,103,10,0.634,-0.634,-0.011000001,-0.19500001,3.1697798,0,4,1,18
753563767,1541038617599919,298044409,1065396521,248239,221578,0.202,0.19249758,0.564,0.93200004,0.63,0.94,103,10,0.711,-0.71000004,-0.049000002,-0.202,3.193528,0,4,1,18
753761780,1541038617799919,298044396,1065396521,248260,221598,0.19800001,0.21550801,0.564,0.933,0.63,0.94,103,10,0.64400005,-0.64000005,0.074,-0.148,3.1190958,0,4,1,18
753973476,1541038617999920,298044384,1065396522,248259,221598,0.16100001,0.18715234,0.564,0.93200004,0.63,0.94,103,10,0.71400005,-0.712,0.060000002,-0.085,3.0843136,0,4,1,18
754165514,1541038618199919,298044371,1065396524,248296,221635,0.16700001,0.18871267,0.563,0.93100005,0.63,0.94,103,12,0.70500004,-0.703,0.054,-0.17400001,3.0749376,0,4,1,18
754368495,1541038618399919,298044358,1065396525,248339,221677,0.158,0.20954421,0.56200004,0.93000007,0.63,0.94,103,12,0.64100003,-0.638,0.054,-0.142,3.0668037,0,4,1,18
754568482,1541038618599919,298044346,1065396526,248365,221704,0.171,0.20971352,0.56100005,0.929,0.63,0.94,103,12,0.64000005,-0.63500005,0.086,-0.12200001,3.03661,0,4,1,18
754771621,1541038618799919,298044333,1065396528,248380,221718,0.17300001,0.18669525,0.56100005,0.92800003,0.63,0.94,103,12,0.72700006,-0.711,0.15300001,-0.126,2.9768403,0,4,1,18
754965541,1541038618999920,298044321,1065396532,248375,221714,0.179,0.20781355,0.56,0.92800003,0.63,0.94,103,12,0.67700005,-0.647,0.19900002,-0.104,2.9170856,0,4,1,18
755161526,1541038619199919,298044307,1065396535,248408,221747,0.18900001,0.19428219,0.56100005,0.929,0.63,0.94,103,11,0.81700003,-0.809,0.115,-0.156,2.961221,0,4,1,18
755369783,1541038619399918,298044293,1065396538,248436,221774,0.19000001,0.21685208,0.56200004,0.93100005,0.63,0.94,103,11,0.72700006,-0.71000004,0.15900001,-0.18300001,2.9436805,0,4,1,18
755569478,1541038619599918,298044281,1065396541,248488,221826,0.19000001,0.23076655,0.56200004,0.93000007,0.63,0.94,103,11,0.58900005,-0.58400005,0.076000005,-0.287,2.975808,0,4,1,18
755768575,1541038619799918,298044271,1065396544,248525,221863,0.155,0.2856121,0.56100005,0.929,0.63,0.94,103,11,0.504,-0.46100003,0.20300001,-0.15900001,2.8773117,0,4,1,18
755985479,1541038619999919,298044265,1065396548,248562,221901,0.208,0.63977414,0.56,0.929,0.63,0.94,103,11,0.25500003,-0.17500001,0.186,-0.26000002,2.78604,0,4,1,18
756167493,1541038620199918,298044264,1065396551,248606,221945,0.20400001,0.6397853,0.56,0.929,0.63,0.94,103,10,0.128,0.036000002,0.123,-0.22600001,2.78604,0,4,1,18
756367704,1541038620399918,298044267,1065396555,248626,221964,0.16600001,0.36446244,0.56,0.929,0.63,0.94,103,10,0.379,0.333,0.18300001,-0.09900001,1.0615169,0,4,1,18
756566563,1541038620599918,298044275,1065396558,248631,221970,0.155,0.23620534,0.56,0.92800003,0.63,0.94,103,10,0.54800004,0.541,0.087000005,-0.041,0.42583832,0,4,1,18
756766578,1541038620799918,298044286,1065396560,248625,221963,0.162,0.20690213,0.559,0.92800003,0.63,0.94,103,10,0.65400004,0.643,0.115,-0.05,0.2849316,0,4,1,18
756974780,1541038620999919,298044300,1065396562,248605,221943,0.172,0.17498687,0.559,0.92800003,0.63,0.94,103,10,0.827,0.82400006,0.075,-0.011000001,0.1719603,0,4,1,18
757174559,1541038621199918,298044316,1065396564,248604,221943,0.17,0.15693423,0.56,0.92800003,0.63,0.94,103,11,0.92300004,0.92,0.080000006,-0.045,0.12463745,0,4,1,18
757371481,1541038621399918,298044333,1065396565,248613,221952,0.156,0.1426337,0.559,0.92800003,0.63,0.94,103,11,0.94100004,0.93900007,0.052,-0.061000004,0.08652923,0,4,1,18
757567501,1541038621599918,298044351,1065396567,248608,221947,0.149,0.1256494,0.559,0.92700005,0.63,0.94,103,11,1.072,1.0710001,0.064,-0.032,0.07151172,0,4,1,18
757767664,1541038621799918,298044371,1065396568,248611,221950,0.15300001,0.12875067,0.558,0.92700005,0.63,0.94,103,11,1.0600001,1.059,0.046000004,-0.054,0.057640366,0,4,1,18
757971483,1541038621999919,298044390,1065396569,248607,221946,0.155,0.14218202,0.558,0.92700005,0.63,0.94,103,11,1.0020001,1.0020001,0.017,-0.014,0.03920376,0,4,1,18
758166611,1541038622199918,298044408,1065396570,248606,221944,0.15,0.14158808,0.55700004,0.92700005,0.63,0.94,103,10,0.99600005,0.99500006,0.040000003,-0.068,0.039598376,0,4,1,18
758369780,1541038622399918,298044426,1065396571,248617,221956,0.15900001,0.15159528,0.558,0.92700005,0.63,0.94,103,10,1.0020001,1.0020001,-0.0050000004,-0.035,0.018881494,0,4,1,18
758567513,1541038622599918,298044443,1065396572,248608,221947,0.157,0.1692821,0.558,0.92800003,0.63,0.94,103,10,0.90200007,0.896,0.102000006,-0.080000006,0.061229464,0,4,1,18
758771555,1541038622799918,298044458,1065396573,248630,221968,0.16000001,0.18780544,0.558,0.929,0.63,0.94,103,10,0.763,0.763,-0.018000001,-0.057000004,0.023260001,0,4,1,18
758966617,1541038622999919,298044472,1065396575,248621,221960,0.18,0.18200728,0.558,0.92800003,0.63,0.94,103,10,0.73300004,0.72700006,0.097,0.12900001,0.080018975,0,4,1,18
759171485,1541038623199918,298044484,1065396577,248584,221922,0.18900001,0.23214884,0.55700004,0.92800003,0.63,0.94,103,11,0.57100004,0.565,0.08400001,0.187,0.10598424,0,4,1,18
759366584,1541038623399917,298044494,1065396579,248545,221883,0.16700001,0.23382384,0.55700004,0.92800003,0.63,0.94,103,11,0.559,0.55600005,0.054,0.062000003,0.10151306,0,4,1,18
759571590,1541038623599917,298044503,1065396581,248543,221882,0.15200001,0.32464185,0.55700004,0.92700005,0.63,0.94,103,11,0.40100002,0.39000002,0.094000004,-0.015000001,0.14748345,0,4,1,18
759766553,1541038623799917,298044510,1065396584,248553,221891,0.16000001,0.2899758,0.55600005,0.92600006,0.63,0.94,103,11,0.44300002,0.42000002,0.14,0.051000003,0.24446616,0,4,1,18
759979557,1541038623999918,298044517,1065396586,248542,221881,0.15,0.43523797,0.55600005,0.92600006,0.63,0.94,103,11,0.298,0.284,0.089,-0.064,0.26237604,0,4,1,18
760167684,1541038624199917,298044522,1065396589,248565,221904,0.13900001,0.45170897,0.55600005,0.924,0.63,0.94,103,11,0.27400002,0.261,0.085,-0.067,0.28715116,0,4,1,18
760367520,1541038624399917,298044527,1065396591,248584,221923,0.14600001,0.42111912,0.555,0.92300004,0.63,0.94,103,11,0.30100003,0.27800003,0.116000004,-0.036000002,0.3448533,0,4,1,18
760569481,1541038624599917,298044531,1065396594,248595,221934,0.148,0.47095788,0.555,0.92300004,0.63,0.94,103,11,0.27,0.22900002,0.143,-0.09200001,0.44045895,0,4,1,18
760761546,1541038624799917,298044535,1065396597,248603,221942,0.149,0.60380465,0.554,0.92200005,0.63,0.94,103,11,0.21300001,0.18900001,0.09900001,-0.08400001,0.4567694,0,4,1,18
760969516,1541038624999918,298044538,1065396599,248617,221955,0.164,0.60381216,0.554,0.92200005,0.63,0.94,103,11,0.09900001,0.091000006,0.039,0.014,0.4567694,0,4,1,18
761164553,1541038625199917,298044540,1065396600,248614,221953,0.158,0.6038193,0.554,0.92200005,0.63,0.94,103,12,0.127,0.08800001,0.09200001,-0.083000004,0.4567694,0,4,1,18
761367645,1541038625399917,298044539,1065396602,248647,221985,0.22200002,0.60382926,0.555,0.92200005,0.63,0.94,103,12,0.102000006,-0.080000006,0.064,-0.136,0.4567694,0,4,1,18
761565483,1541038625599917,298044539,1065396603,248654,221993,0.23,0.60383976,0.555,0.92200005,0.63,0.94,103,12,0.066,-0.044000003,0.049000002,-0.15,0.4567694,0,4,1,18
761767445,1541038625799917,298044539,1065396605,248663,222001,0.186,0.6038483,0.55600005,0.92200005,0.63,0.94,103,12,0.09,-0.033,0.08400001,-0.07700001,0.4567694,0,4,1,18
761984479,1541038625999918,298044538,1065396607,248659,221998,0.15100001,0.6038551,0.55600005,0.92200005,0.63,0.94,103,12,0.080000006,-0.061000004,0.051000003,0.046000004,0.4567694,0,4,1,18
762165525,1541038626199917,298044537,1065396608,248671,222009,0.141,0.6038614,0.555,0.92200005,0.63,0.94,103,11,0.117000006,-0.093,0.071,0.002,0.4567694,0,4,1,18
762369478,1541038626399917,298044535,1065396610,248678,222017,0.20700002,0.6038708,0.555,0.92200005,0.63,0.94,103,11,0.105000004,-0.104,0.003,-0.080000006,0.4567694,0,4,1,18
762572484,1541038626599917,298044533,1065396610,248697,222035,0.18400002,0.73368454,0.555,0.92200005,0.63,0.94,103,11,0.18800001,-0.18300001,0.045,-0.079,1.4439595,0,4,1,18
762769483,1541038626799917,298044531,1065396612,248710,222049,0.18900001,0.7336917,0.554,0.92200005,0.63,0.94,103,11,0.098000005,-0.091000006,0.038000003,-0.043,1.4439595,0,4,1,18
762972514,1541038626999918,298044530,1065396613,248723,222062,0.202,0.7336992,0.554,0.92100006,0.63,0.94,103,11,0.079,-0.052,0.060000002,-0.074,1.4439595,0,4,1,18
765769477,1541038629799916,298044515,1065396815,248675,222014,0.134,0.186091,0.55300003,0.91700006,0.63,0.94,103,8,0.87600005,-0.037,0.87500006,-0.013,1.5992262,0,4,1,18
765980634,1541038629999917,298044515,1065396832,248664,222003,0.13900001,0.1944829,0.55300003,0.91700006,0.63,0.94,103,8,0.814,0.058000002,0.81200004,0.068,1.551416,0,4,1,18
766169236,1541038630199916,298044515,1065396848,248637,221976,0.13700001,0.22375311,0.55300003,0.91800004,0.63,0.94,103,11,0.75000006,-0.022000002,0.75000006,-0.045,1.5726256,0,4,1,18
766358565,1541038630399916,298044516,1065396862,248624,221963,0.13700001,0.26055565,0.55300003,0.91700006,0.63,0.94,103,11,0.65900004,0.068,0.65500003,-0.086,1.5276798,0,4,1,18
766566551,1541038630599916,298044517,1065396875,248665,222004,0.143,0.29959744,0.55200005,0.915,0.63,0.94,103,11,0.559,0.064,0.555,-0.165,1.4968115,0,4,1,18
766766661,1541038630799916,298044517,1065396884,248693,222032,0.17400001,0.4144394,0.551,0.91200006,0.63,0.94,103,11,0.335,-0.044000003,0.33200002,-0.24400002,1.5675285,0,4,1,18
766974644,1541038630999917,298044515,1065396890,248745,222084,0.19100001,0.5010309,0.55,0.9110001,0.63,0.94,103,11,0.316,-0.109000005,0.296,-0.134,1.7122108,0,4,1,18
767169151,1541038631199915,298044514,1065396896,248735,222074,0.177,0.5230825,0.551,0.9110001,0.63,0.94,103,11,0.296,-0.006,0.296,0.102000006,1.65357,0,4,1,18
767366614,1541038631399915,298044513,1065396902,248745,222084,0.142,0.54848486,0.551,0.91,0.63,0.94,103,11,0.294,-0.026,0.293,-0.004,1.6570086,0,4,1,18
767570360,1541038631599915,298044513,1065396907,248742,222080,0.149,0.7772017,0.55,0.90700006,0.63,0.94,103,11,0.17600001,-0.021000002,0.17500001,-0.053000003,1.667436,0,4,1,18
767762627,1541038631799915,298044514,1065396912,248735,222074,0.135,0.4951984,0.54800004,0.90500003,0.63,0.94,103,11,0.263,0.010000001,0.263,-0.051000003,1.5729628,0,4,1,18
767989485,1541038631999916,298044515,1065396915,248726,222065,0.165,0.4952087,0.54800004,0.90400004,0.63,0.94,103,11,0.171,0.16100001,0.057000004,0.074,1.5729628,0,4,1,18
768170328,1541038632199915,298044518,1065396916,248747,222086,0.15400001,0.4952218,0.549,0.90300006,0.63,0.94,103,11,0.202,0.2,0.025,-0.11800001,1.5729628,0,4,1,18
768369281,1541038632399915,298044522,1065396916,248753,222092,0.149,0.6720671,0.549,0.90200007,0.63,0.94,103,11,0.22800002,0.22600001,0.029000001,-0.069000006,1.0649426,0,4,1,18
768578606,1541038632599915,298044526,1065396916,248735,222074,0.187,0.7556191,0.55,0.901,0.63,0.94,103,11,0.24300002,0.22000001,-0.10300001,0.192,0.4006642,0,4,1,18
768773545,1541038632799915,298044530,1065396914,248688,222026,0.20400001,0.75563276,0.551,0.901,0.63,0.94,103,11,0.22900002,0.21100001,-0.089,0.3,0.4006642,0,4,1,18
768975479,1541038632999916,298044534,1065396910,248599,221937,0.17500001,0.60585403,0.55200005,0.90200007,0.63,0.94,103,11,0.26700002,0.11000001,-0.24300002,0.202,5.741743,0,4,1,18
769167519,1541038633199915,298044537,1065396906,248562,221901,0.157,0.51269287,0.55200005,0.90200007,0.63,0.94,103,11,0.31,0.18100001,-0.25100002,0.13000001,5.5064406,0,4,1,18
769375483,1541038633399915,298044540,1065396901,248549,221887,0.13800001,0.56039065,0.551,0.90300006,0.63,0.94,103,11,0.28300002,0.105000004,-0.263,0.023000002,5.3180676,0,4,1,18
769572557,1541038633599915,298044542,1065396896,248534,221873,0.141,0.61183804,0.551,0.90300006,0.63,0.94,103,11,0.259,0.127,-0.22600001,-0.007,5.2748847,0,4,1,18
769768483,1541038633799915,298044544,1065396891,248526,221865,0.14500001,0.5148527,0.551,0.90400004,0.63,0.94,103,11,0.31800002,0.076000005,-0.30900002,0.032,5.0869355,0,4,1,18
769975512,1541038633999916,298044546,1065396886,248503,221842,0.14,0.7220123,0.551,0.90400004,0.63,0.94,103,11,0.24400002,0.080000006,-0.231,-0.002,5.0726247,0,4,1,18
770170832,1541038634199915,298044545,1065396882,248469,221807,0.15900001,0.54572237,0.551,0.90500003,0.63,0.94,103,10,0.26700002,-0.215,-0.158,0.058000002,4.247924,0,4,1,18
770376580,1541038634399915,298044539,1065396880,248493,221832,0.19000001,0.28745466,0.551,0.90400004,0.63,0.94,103,10,0.45000002,-0.446,-0.061000004,-0.16000001,3.4881544,0,4,1,18
770572525,1541038634599915,298044528,1065396879,248506,221845,0.16000001,0.15758874,0.551,0.90400004,0.63,0.94,103,10,0.82900006,-0.82500005,-0.083000004,-0.021000002,3.2983859,0,4,1,18
770772480,1541038634799915,298044513,1065396878,248506,221845,0.16100001,0.1480376,0.551,0.90400004,0.63,0.94,103,10,0.91,-0.91,0.027,-0.023000002,3.199519,0,4,1,18
770979968,1541038634999915,298044494,1065396878,248499,221837,0.17,0.10631952,0.55,0.90500003,0.63,0.94,103,10,1.274,-1.274,-0.029000001,-0.12100001,3.1764445,0,4,1,18
771168492,1541038635199914,298044470,1065396878,248504,221843,0.16600001,0.103751265,0.551,0.906,0.63,0.94,103,10,1.3720001,-1.3720001,0.011000001,-0.029000001,3.154584,0,4,1,18
771368495,1541038635399914,298044446,1065396878,248500,221838,0.16800001,0.11842774,0.551,0.90700006,0.63,0.94,103,10,1.315,-1.3130001,-0.063,-0.006,3.169878,0,4,1,18
771576603,1541038635599914,298044424,1065396876,248508,221846,0.156,0.1354049,0.551,0.90800005,0.63,0.94,103,10,1.1240001,-1.1220001,-0.071,-0.058000002,3.1852221,0,4,1,18
771760484,1541038635799914,298044404,1065396875,248525,221864,0.156,0.16644122,0.551,0.90800005,0.63,0.94,103,10,0.934,-0.93000007,-0.082,0.022000002,3.2030919,0,4,1,18
771975586,1541038635999915,298044390,1065396874,248548,221887,0.156,0.2600823,0.55200005,0.90900004,0.63,0.94,103,10,0.58000004,-0.577,-0.060000002,-0.056,3.2154346,0,4,1,18
772166623,1541038636199914,298044381,1065396872,248556,221895,0.15400001,0.3317897,0.55200005,0.91,0.63,0.94,103,10,0.46600002,-0.448,-0.12900001,0.018000001,3.2940145,0,4,1,18
772368545,1541038636399914,298044373,1065396870,248563,221902,0.158,0.40440953,0.55200005,0.91,0.63,0.94,103,10,0.372,-0.365,-0.071,-0.021000002,3.3104258,0,4,1,18
772575483,1541038636599914,298044368,1065396869,248563,221901,0.187,0.6237986,0.55200005,0.9110001,0.63,0.94,103,10,0.23900001,-0.22100002,-0.09,-0.097,3.37454,0,4,1,18
772774717,1541038636799914,298044365,1065396867,248583,221921,0.192,0.6238073,0.55200005,0.91200006,0.63,0.94,103,10,0.17500001,-0.120000005,-0.128,-0.098000005,3.37454,0,4,1,18
772975479,1541038636999915,298044364,1065396865,248574,221913,0.165,0.62381464,0.55200005,0.91200006,0.63,0.94,103,10,0.112,-0.069000006,-0.08800001,0.066,3.37454,0,4,1,18
773177931,1541038637199914,298044362,1065396864,248547,221885,0.19100001,0.6238234,0.55300003,0.91300005,0.63,0.94,103,11,0.133,-0.062000003,-0.11800001,0.148,3.37454,0,4,1,18
773373483,1541038637399914,298044363,1065396861,248501,221839,0.16100001,0.6238304,0.554,0.91400003,0.63,0.94,103,11,0.112,0.025,-0.109000005,0.022000002,3.37454,0,4,1,18
773568228,1541038637599914,298044363,1065396859,248467,221806,0.19600001,0.6238391,0.555,0.915,0.63,0.94,103,11,0.15100001,0.041,-0.14600001,0.106000006,3.37454,0,4,1,18
773768372,1541038637799914,298044365,1065396857,248429,221768,0.17600001,0.62384677,0.555,0.915,0.63,0.94,103,11,0.117000006,0.058000002,-0.101,0.048,3.37454,0,4,1,18
773993914,1541038637999915,298044366,1065396855,248421,221760,0.15200001,0.62385345,0.55600005,0.915,0.63,0.94,103,11,0.108,0.049000002,-0.096,-0.032,3.37454,0,4,1,18
774169504,1541038638199914,298044365,1065396852,248427,221766,0.171,0.62386197,0.55600005,0.91600007,0.63,0.94,103,10,0.17400001,-0.049000002,-0.16700001,-0.083000004,3.37454,0,4,1,18
774365482,1541038638399914,298044364,1065396848,248453,221791,0.202,0.6238749,0.55600005,0.91600007,0.63,0.94,103,10,0.20700002,-0.062000003,-0.19700001,-0.20700002,3.37454,0,4,1,18
774557514,1541038638599914,298044363,1065396845,248491,221830,0.22500001,0.62388504,0.55600005,0.91600007,0.63,0.94,103,10,0.10700001,-0.040000003,-0.1,-0.20700002,3.37454,0,4,1,18
774765479,1541038638799913,298044361,1065396842,248577,221915,0.21300001,0.6239018,0.55600005,0.91600007,0.63,0.94,103,10,0.22800002,-0.066,-0.21900001,-0.305,3.37454,0,4,1,18
774953362,1541038638999914,298044360,1065396840,248612,221951,0.245,0.6239173,0.55700004,0.91700006,0.63,0.94,103,10,0.117000006,-0.116000004,0.013,-0.33,3.37454,0,4,1,18
775169783,1541038639199913,298044359,1065396838,248680,222018,0.22900002,0.62393826,0.558,0.91700006,0.63,0.94,103,11,0.19600001,-0.059000004,-0.187,-0.437,3.37454,0,4,1,18
775365479,1541038639399913,298044357,1065396835,248792,222130,0.24100001,0.6239571,0.558,0.91800004,0.63,0.94,103,11,0.126,-0.087000005,-0.091000006,-0.409,3.37454,0,4,1,18
775568286,1541038639599913,298044355,1065396834,248899,222238,0.23700002,0.62398136,0.558,0.91800004,0.63,0.94,103,11,0.041,-0.036000002,-0.020000001,-0.55300003,3.37454,0,4,1,18
775769865,1541038639799913,298044353,1065396831,249026,222364,0.23300001,0.6240098,0.559,0.91800004,0.63,0.94,103,11,0.21100001,-0.108,-0.18200001,-0.61300004,3.37454,0,4,1,18
775973481,1541038639999914,298044351,1065396829,249195,222533,0.23200001,0.62404245,0.559,0.91700006,0.63,0.94,103,11,0.025,0.007,-0.024,-0.74,3.37454,0,4,1,18
776169534,1541038640199913,298044350,1065396828,249339,222678,0.23600002,0.6240747,0.559,0.91700006,0.63,0.94,103,11,0.12900001,-0.09,-0.09200001,-0.725,3.37454,0,4,1,18
776365479,1541038640399913,298044350,1065396827,249482,222821,0.223,0.62410194,0.56,0.91800004,0.63,0.94,103,11,0.1,0.089,0.045,-0.61200005,3.37454,0,4,1,18
776568302,1541038640599913,298044351,1065396828,249644,222983,0.22700001,0.6241346,0.56,0.91800004,0.63,0.94,103,11,0.11400001,0.11100001,0.024,-0.731,3.37454,0,4,1,18
776771819,1541038640799913,298044353,1065396829,249778,223117,0.21700001,0.624166,0.56,0.91700006,0.63,0.94,103,11,0.105000004,0.095000006,0.043,-0.708,3.37454,0,4,1,18
776976363,1541038640999914,298044353,1065396830,249927,223265,0.23300001,0.62420195,0.56,0.91700006,0.63,0.94,103,11,0.113000005,-0.022000002,0.11000001,-0.81200004,3.37454,0,4,1,18
777179630,1541038641199913,298044354,1065396834,250096,223435,0.21200001,0.518228,0.56100005,0.91700006,0.63,0.94,103,10,0.294,0.208,0.208,-0.703,1.8423461,0,4,1,18
777371516,1541038641399913,298044358,1065396836,250254,223592,0.216,0.6711117,0.56100005,0.91700006,0.63,0.94,103,10,0.20400001,0.20400001,-0.006,-0.80500007,1.1433355,0,4,1,18
777573386,1541038641599913,298044360,1065396838,250444,223782,0.22600001,0.67114764,0.56100005,0.91700006,0.63,0.94,103,10,0.216,0.09,0.19600001,-0.85300004,1.1433355,0,4,1,18
777771552,1541038641799913,298044361,1065396841,250641,223979,0.23200001,0.67118585,0.56100005,0.91700006,0.63,0.94,103,10,0.09200001,0.044000003,0.081,-0.93100005,1.1433355,0,4,1,18
777982597,1541038641999914,298044363,1065396843,250797,224135,0.22100002,0.68362725,0.56100005,0.91800004,0.63,0.94,103,10,0.21700001,0.19000001,0.104,-0.87900007,0.82849205,0,4,1,18
778170942,1541038642199913,298044366,1065396845,250999,224337,0.22600001,0.6836667,0.56100005,0.91800004,0.63,0.94,103,10,0.177,0.17300001,0.038000003,-0.96300006,0.82849205,0,4,1,18
778374578,1541038642399913,298044368,1065396846,251177,224516,0.23900001,0.68370736,0.56200004,0.91800004,0.63,0.94,103,10,0.063,0.0,0.063,-1.014,0.82849205,0,4,1,18
778571480,1541038642599913,298044370,1065396849,251357,224696,0.22100002,0.70217943,0.56200004,0.91800004,0.63,0.94,103,10,0.24300002,0.163,0.18,-0.83100003,0.83042884,0,4,1,18
778766616,1541038642799912,298044372,1065396852,251489,224827,0.23600002,0.7022114,0.56200004,0.91800004,0.63,0.94,103,10,0.096,0.017,0.095000006,-0.813,0.83042884,0,4,1,18
778963480,1541038642999913,298044372,1065396853,251692,225030,0.238,0.70224506,0.563,0.919,0.63,0.94,103,10,0.045,0.043,0.013,-0.85800004,0.83042884,0,4,1,18
779169571,1541038643199912,298044374,1065396855,251890,225228,0.22800002,0.62300956,0.563,0.919,0.63,0.94,103,9,0.245,0.209,0.128,-0.952,0.67322093,0,4,1,18
779387510,1541038643399912,298044376,1065396856,252082,225421,0.23900001,0.6230542,0.564,0.92,0.63,0.94,103,9,0.071,0.069000006,0.015000001,-1.016,0.67322093,0,4,1,18
779566625,1541038643599912,298044377,1065396857,252274,225612,0.24700001,0.6230998,0.564,0.92,0.63,0.94,103,9,0.015000001,-0.003,0.015000001,-1.0320001,0.67322093,0,4,1,18
779771483,1541038643799912,298044379,1065396858,252482,225821,0.23,0.6205844,0.565,0.92100006,0.63,0.94,103,9,0.23300001,0.22700001,0.051000003,-0.86500007,0.44526926,0,4,1,18
779990699,1541038643999913,298044382,1065396858,252638,225976,0.24100001,0.62062454,0.565,0.92200005,0.63,0.94,103,9,0.078,0.078,-0.002,-0.90700006,0.44526926,0,4,1,18
780175558,1541038644199912,298044382,1065396858,252831,226170,0.25300002,0.62067133,0.565,0.92200005,0.63,0.94,103,11,0.10300001,-0.102000006,-0.015000001,-1.051,0.44526926,0,4,1,18
780371477,1541038644399912,298044379,1065396858,253053,226391,0.24900001,0.62071985,0.56600004,0.92300004,0.63,0.94,103,11,0.091000006,-0.091000006,-0.010000001,-1.095,0.44526926,0,4,1,18
780566640,1541038644599912,298044380,1065396858,253271,226609,0.23500001,0.6207649,0.56600004,0.92300004,0.63,0.94,103,11,0.142,0.14,0.028,-1.011,0.44526926,0,4,1,18
780767535,1541038644799912,298044381,1065396858,253468,226807,0.23900001,0.62080854,0.56600004,0.92300004,0.63,0.94,103,11,0.039,0.039,0.0,-0.98800004,0.44526926,0,4,1,18
780967714,1541038644999913,298044379,1065396858,253691,227029,0.24700001,0.7392619,0.56600004,0.92300004,0.63,0.94,103,11,0.187,-0.186,0.025,-1.1470001,1.5058259,0,4,1,18
781169538,1541038645199912,298044375,1065396858,253904,227243,0.25,0.67268634,0.56700003,0.924,0.63,0.94,103,10,0.21200001,-0.21000001,-0.024,-0.92300004,2.4617963,0,4,1,18
781366735,1541038645399912,298044373,1065396858,254030,227369,0.24900001,0.6727134,0.56700003,0.924,0.63,0.94,103,10,0.132,-0.116000004,0.063,-0.64900005,2.4617963,0,4,1,18
781565505,1541038645599912,298044370,1065396859,254202,227541,0.25,0.6727441,0.56700003,0.9250001,0.63,0.94,103,10,0.10300001,-0.101,-0.022000002,-0.744,2.4617963,0,4,1,18
781768557,1541038645799912,298044367,1065396859,254329,227667,0.252,0.6759028,0.568,0.9250001,0.63,0.94,103,10,0.20600002,-0.201,0.047000002,-0.65900004,2.6862402,0,4,1,18
781977491,1541038645999913,298044366,1065396861,254401,227739,0.23,0.6759267,0.568,0.92600006,0.63,0.94,103,10,0.187,0.062000003,0.17600001,-0.563,2.6862402,0,4,1,18
782165532,1541038646199912,298044366,1065396862,254520,227858,0.25,0.6759447,0.568,0.92600006,0.63,0.94,103,10,0.058000002,-0.021000002,-0.054,-0.439,2.6862402,0,4,1,18
782369512,1541038646399912,298044364,1065396860,254625,227963,0.256,0.6759639,0.569,0.92700005,0.63,0.94,103,10,0.13700001,-0.123,-0.061000004,-0.45200002,2.6862402,0,4,1,18
782567483,1541038646599911,298044362,1065396860,254708,228047,0.24900001,0.6759836,0.569,0.92700005,0.63,0.94,103,10,0.072000004,-0.044000003,0.057000004,-0.47800002,2.6862402,0,4,1,18
782765482,1541038646799911,298044362,1065396862,254771,228109,0.22000001,0.6759943,0.569,0.92700005,0.63,0.94,103,10,0.12200001,0.040000003,0.115,-0.23500001,2.6862402,0,4,1,18
782961521,1541038646999912,298044362,1065396863,254812,228150,0.245,0.67600995,0.569,0.92700005,0.63,0.94,103,10,0.068,-0.029000001,0.062000003,-0.381,2.6862402,0,4,1,18
783168643,1541038647199911,298044361,1065396864,254891,228230,0.25100002,0.6760246,0.569,0.92700005,0.63,0.94,103,10,0.027,-0.027,0.001,-0.36,2.6862402,0,4,1,18
783369478,1541038647399911,298044361,1065396864,255012,228350,0.23900001,0.6760496,0.57000005,0.92800003,0.63,0.94,103,10,0.059000004,0.059000004,-0.006,-0.61300004,2.6862402,0,4,1,18
783568483,1541038647599911,298044361,1065396864,255089,228427,0.25500003,0.67606527,0.57000005,0.92800003,0.63,0.94,103,10,0.07,-0.07,0.0,-0.381,2.6862402,0,4,1,18
783768519,1541038647799911,298044360,1065396864,255166,228505,0.245,0.6760829,0.57000005,0.929,0.63,0.94,103,10,0.013,0.011000001,0.006,-0.43400002,2.6862402,0,4,1,18
783973484,1541038647999912,298044360,1065396864,255222,228560,0.25,0.6760951,0.57100004,0.929,0.63,0.94,103,10,0.048,-0.046000004,0.013,-0.3,2.6862402,0,4,1,18
784168488,1541038648199911,298044358,1065396864,255277,228616,0.254,0.67611086,0.57100004,0.929,0.63,0.94,103,10,0.105000004,-0.093,0.049000002,-0.37100002,2.6862402,0,4,1,18
784373477,1541038648399911,298044358,1065396863,255331,228669,0.23300001,0.6761288,0.572,0.929,0.63,0.94,103,10,0.143,0.0050000004,-0.142,-0.41900003,2.6862402,0,4,1,18
784572498,1541038648599911,298044356,1065396859,255442,228781,0.22700001,0.48222274,0.572,0.93000007,0.63,0.94,103,10,0.354,-0.108,-0.337,-0.57600003,3.8242378,0,4,1,18
784773484,1541038648799911,298044354,1065396851,255507,228846,0.209,0.47826976,0.573,0.93000007,0.63,0.94,103,10,0.407,-0.162,-0.37300003,-0.337,4.0654607,0,4,1,18
784973522,1541038648999912,298044350,1065396841,255582,228921,0.192,0.3097788,0.573,0.93100005,0.63,0.94,103,10,0.651,-0.254,-0.59900004,-0.37800002,4.238489,0,4,1,18
785168529,1541038649199911,298044347,1065396828,255613,228952,0.177,0.28352347,0.574,0.93200004,0.63,0.94,103,10,0.694,-0.16900001,-0.67300004,-0.34500003,4.3627462,0,4,1,18
785373524,1541038649399911,298044343,1065396814,255656,228995,0.171,0.25436217,0.57500005,0.93200004,0.63,0.94,103,10,0.767,-0.208,-0.73800004,-0.337,4.403946,0,4,1,18
785569481,1541038649599911,298044337,1065396798,255760,229099,0.19500001,0.19995399,0.57500005,0.933,0.63,0.94,103,10,0.96000004,-0.40300003,-0.87100005,-0.55600005,4.3265123,0,4,1,18
785770648,1541038649799911,298044332,1065396780,255791,229129,0.16800001,0.20306975,0.57500005,0.934,0.63,0.94,103,10,0.86800003,-0.277,-0.823,-0.323,4.3565335,0,4,1,18
785994583,1541038649999912,298044326,1065396762,255850,229189,0.16000001,0.17536107,0.57500005,0.934,0.63,0.94,103,10,1.0,-0.33600003,-0.94200003,-0.26200002,4.36398,0,4,1,18
786173484,1541038650199911,298044319,1065396743,255943,229282,0.18300001,0.17543124,0.57500005,0.93500006,0.63,0.94,103,9,1.0090001,-0.36,-0.94200003,-0.505,4.355441,0,4,1,18
786377056,1541038650399910,298044313,1065396723,256019,229358,0.171,0.15833277,0.57500005,0.93600005,0.63,0.94,103,9,1.033,-0.31800002,-0.98200005,-0.416,4.379465,0,4,1,18
786577898,1541038650599910,298044306,1065396703,256123,229462,0.18400002,0.18223733,0.57500005,0.93600005,0.63,0.94,103,9,1.1010001,-0.37300003,-1.036,-0.577,4.374095,0,4,1,18
786777471,1541038650799910,298044301,1065396681,256182,229521,0.164,0.17488983,0.57500005,0.93600005,0.63,0.94,103,9,1.0860001,-0.275,-1.051,-0.388,4.4168024,0,4,1,18
786977738,1541038650999911,298044295,1065396659,256240,229579,0.16800001,0.16582721,0.57600003,0.93700004,0.63,0.94,103,9,1.1680001,-0.36800003,-1.1090001,-0.42700002,4.403814,0,4,1,18
787180672,1541038651199910,298044288,1065396636,256334,229672,0.165,0.17696294,0.57600003,0.93700004,0.63,0.94,103,11,1.166,-0.381,-1.103,-0.377,4.392593,0,4,1,18
787380570,1541038651399910,298044281,1065396614,256435,229773,0.172,0.16257724,0.577,0.93700004,0.63,0.94,103,11,1.126,-0.29500002,-1.087,-0.48900002,4.4223604,0,4,1,18
787582622,1541038651599910,298044276,1065396591,256492,229830,0.17,0.16839598,0.577,0.938,0.63,0.94,103,11,1.192,-0.34600002,-1.141,-0.37300003,4.420146,0,4,1,18
787780570,1541038651799910,298044269,1065396568,256558,229896,0.16800001,0.17257692,0.578,0.938,0.63,0.94,103,11,1.1450001,-0.37500003,-1.0810001,-0.38900003,4.3999295,0,4,1,18
787985837,1541038651999911,298044264,1065396546,256634,229972,0.164,0.18587162,0.578,0.938,0.63,0.94,103,11,1.093,-0.18,-1.0780001,-0.45800003,4.468131,0,4,1,18
788178581,1541038652199910,298044259,1065396523,256706,230044,0.162,0.13711551,0.578,0.938,0.63,0.94,104,10,1.1980001,-0.29900002,-1.1600001,-0.42700002,4.4630537,0,4,1,18
788369940,1541038652399910,298044254,1065396499,256781,230120,0.156,0.13914776,0.578,0.93900007,0.63,0.94,104,10,1.199,-0.254,-1.172,-0.34800002,4.480831,0,4,1,18
788574633,1541038652599910,298044250,1065396476,256836,230174,0.16700001,0.18171792,0.578,0.93900007,0.63,0.94,104,10,1.0910001,-0.22800002,-1.067,-0.44400004,4.488699,0,4,1,18
788778660,1541038652799910,298044246,1065396455,256893,230231,0.156,0.20510758,0.578,0.938,0.63,0.94,104,10,0.89800006,-0.15200001,-0.88500005,-0.30800003,4.512524,0,4,1,18
788980503,1541038652999911,298044244,1065396438,256978,230317,0.17,0.21076001,0.578,0.938,0.63,0.94,104,10,0.771,-0.081,-0.76600003,-0.441,4.558554,0,4,1,18
789204476,1541038653199910,298044243,1065396426,257029,230367,0.17400001,0.46096864,0.578,0.938,0.63,0.94,104,9,0.45100003,0.004,-0.45100003,-0.27800003,4.586623,0,4,1,18
