timestamp,timestamp_sample,control[0],control[1],control[2],control[3],control[4],control[5],control[6],control[7]
717093825,717093622,-0.38557857,0.38975158,0.0001533319,0.0,0.0,0.0,0.0,-1.0
717097889,717097652,-0.3857163,0.38996726,0.00016772184,0.0,0.0,0.0,0.0,-1.0
717101838,717101629,-0.38568354,0.3900666,9.891105e-05,0.0,0.0,0.0,0.0,-1.0
717105918,717105622,-0.3855903,0.38988402,0.00039694674,0.0,0.0,0.0,0.0,-1.0
717109917,717109622,-0.38527018,0.38996273,0.000390196,0.0,0.0,0.0,0.0,-1.0
717113831,717113621,-0.38488513,0.38971138,0.0002465653,0.0,0.0,0.0,0.0,-1.0
717117879,717117640,-0.38480115,0.3894351,0.00016619715,0.0,0.0,0.0,0.0,-1.0
717121837,717121628,-0.38481382,0.38957047,0.00038348816,0.0,0.0,0.0,0.0,-1.0
717125865,717125635,-0.38522395,0.38961768,0.00021747795,0.0,0.0,0.0,0.0,-1.0
717129909,717129622,-0.38559595,0.38976952,0.000105185434,0.0,0.0,0.0,0.0,-1.0
717133835,717133622,-0.3856208,0.3898626,0.0002352797,0.0,0.0,0.0,0.0,-1.0
717137876,717137640,-0.38559246,0.38946205,0.00028541402,0.0,0.0,0.0,0.0,-1.0
717141823,717141622,-0.38541982,0.38915166,0.00031729403,0.0,0.0,0.0,0.0,-1.0
717145864,717145637,-0.3854863,0.3892713,0.00027890422,0.0,0.0,0.0,0.0,-1.0
717149886,717149622,-0.3853958,0.38970947,7.694187e-05,0.0,0.0,0.0,0.0,-1.0
717153842,717153628,-0.38540784,0.38993216,-5.598173e-05,0.0,0.0,0.0,0.0,-1.0
717157876,717157640,-0.38555074,0.39009908,0.0004819443,0.0,0.0,0.0,0.0,-1.0
717161830,717161622,-0.38551387,0.38995275,0.0006050847,0.0,0.0,0.0,0.0,-1.0
717165866,717165638,-0.38563284,0.3897668,0.00037618217,0.0,0.0,0.0,0.0,-1.0
717169907,717169622,-0.3852349,0.38964218,0.0005769942,0.0,0.0,0.0,0.0,-1.0
717173822,717173622,-0.3849522,0.3890519,0.00051791914,0.0,0.0,0.0,0.0,-1.0
717177867,717177640,-0.38512498,0.38905966,0.00046684043,0.0,0.0,0.0,0.0,-1.0
717181796,717181622,-0.38521963,0.3893073,0.0004555937,0.0,0.0,0.0,0.0,-1.0
717185891,717185651,-0.38539028,0.38957748,0.00043593842,0.0,0.0,0.0,0.0,-1.0
717189900,717189622,-0.38538522,0.38925046,0.0004995667,0.0,0.0,0.0,0.0,-1.0
717193875,717193628,-0.3854983,0.38947567,0.00057649164,0.0,0.0,0.0,0.0,-1.0
717197888,717197640,-0.38555443,0.39004925,0.00019656048,0.0,0.0,0.0,0.0,-1.0
717201822,717201622,-0.38528553,0.39041945,0.0001994635,0.0,0.0,0.0,0.0,-1.0
717205870,717205636,-0.3851229,0.39033663,1.7560227e-05,0.0,0.0,0.0,0.0,-1.0
717209832,717209635,-0.38534686,0.3902849,9.42213e-05,0.0,0.0,0.0,0.0,-1.0
717213879,717213628,-0.38531741,0.38990644,0.00029114514,0.0,0.0,0.0,0.0,-1.0
717217878,717217640,-0.38481715,0.39004532,-4.5136548e-07,0.0,0.0,0.0,0.0,-1.0
717221819,717221622,-0.38449565,0.38959637,0.00019073287,0.0,0.0,0.0,0.0,-1.0
717226667,717226460,-0.38468185,0.38929904,0.00026709706,0.0,0.0,0.0,0.0,-1.0
717230689,717230422,-0.38523287,0.38912886,3.2366162e-05,0.0,0.0,0.0,0.0,-1.0
717235433,717235221,-0.3860578,0.38944232,0.00032815136,0.0,0.0,0.0,0.0,-1.0
717239445,717239238,-0.38635588,0.389826,0.0002748325,0.0,0.0,0.0,0.0,-1.0
717243432,717243234,-0.3861415,0.39025155,0.0004547131,0.0,0.0,0.0,0.0,-1.0
717247640,717247222,-0.38557073,0.39004132,0.000471453,0.0,0.0,0.0,0.0,-1.0
717251455,717251222,-0.38506222,0.38971436,0.00053948903,0.0,0.0,0.0,0.0,-1.0
717255429,717255222,-0.384876,0.3895632,0.00043403357,0.0,0.0,0.0,0.0,-1.0
717259449,717259245,-0.38494998,0.38993073,0.0006187417,0.0,0.0,0.0,0.0,-1.0
717263434,717263225,-0.3851564,0.38980454,0.00048578274,0.0,0.0,0.0,0.0,-1.0
717267487,717267224,-0.38526633,0.38968804,8.268627e-05,0.0,0.0,0.0,0.0,-1.0
717271476,717271230,-0.3852765,0.3899339,0.00028004707,0.0,0.0,0.0,0.0,-1.0
717275434,717275222,-0.3850009,0.3896198,0.00027899529,0.0,0.0,0.0,0.0,-1.0
717279473,717279222,-0.3846692,0.38886675,0.00015493936,0.0,0.0,0.0,0.0,-1.0
717283422,717283222,-0.38467637,0.3891357,4.0019862e-05,0.0,0.0,0.0,0.0,-1.0
717287467,717287222,-0.38482627,0.38972962,3.991823e-05,0.0,0.0,0.0,0.0,-1.0
717291636,717291222,-0.38496235,0.39021638,0.00025801407,0.0,0.0,0.0,0.0,-1.0
717295438,717295228,-0.38532996,0.38993526,0.00054425775,0.0,0.0,0.0,0.0,-1.0
717299474,717299222,-0.38561076,0.3893884,0.0005104959,0.0,0.0,0.0,0.0,-1.0
717303423,717303222,-0.38577184,0.38945422,0.00059361063,0.0,0.0,0.0,0.0,-1.0
717307461,717307222,-0.38591188,0.38962853,0.0006263815,0.0,0.0,0.0,0.0,-1.0
717311510,717311222,-0.38565934,0.38959432,0.0004702731,0.0,0.0,0.0,0.0,-1.0
717315526,717315228,-0.38574043,0.3895492,0.00033518998,0.0,0.0,0.0,0.0,-1.0
717319489,717319222,-0.38548568,0.3895316,0.00055846537,0.0,0.0,0.0,0.0,-1.0
717323441,717323222,-0.38493684,0.38971993,0.00044976856,0.0,0.0,0.0,0.0,-1.0
717327438,717327238,-0.3848941,0.39011934,0.00042613308,0.0,0.0,0.0,0.0,-1.0
717331491,717331222,-0.3850594,0.3905079,0.00065545685,0.0,0.0,0.0,0.0,-1.0
717335435,717335222,-0.38538307,0.3901471,0.00012722453,0.0,0.0,0.0,0.0,-1.0
717339552,717339222,-0.3855288,0.38951334,-3.777675e-05,0.0,0.0,0.0,0.0,-1.0
717343423,717343222,-0.3854592,0.38930643,0.00035461163,0.0,0.0,0.0,0.0,-1.0
717347468,717347251,-0.3856184,0.38955003,0.0003442728,0.0,0.0,0.0,0.0,-1.0
717351506,717351222,-0.38595885,0.38966754,0.0004423336,0.0,0.0,0.0,0.0,-1.0
717355432,717355222,-0.38588202,0.389365,0.00043296293,0.0,0.0,0.0,0.0,-1.0
717359482,717359222,-0.38557097,0.38927427,0.00049030996,0.0,0.0,0.0,0.0,-1.0
717363513,717363222,-0.3857418,0.3891636,0.0002260184,0.0,0.0,0.0,0.0,-1.0
717367438,717367231,-0.38532743,0.38966352,0.0005136627,0.0,0.0,0.0,0.0,-1.0
717371501,717371222,-0.3849557,0.39001635,0.00047465545,0.0,0.0,0.0,0.0,-1.0
717375436,717375222,-0.38467723,0.39012003,1.813597e-05,0.0,0.0,0.0,0.0,-1.0
717379467,717379222,-0.38487038,0.38988316,0.00013307275,0.0,0.0,0.0,0.0,-1.0
717383434,717383222,-0.3850954,0.39018878,0.00032735354,0.0,0.0,0.0,0.0,-1.0
717387681,717387253,-0.38522282,0.3899467,0.000724042,0.0,0.0,0.0,0.0,-1.0
717391545,717391241,-0.38571545,0.38964185,0.00053228665,0.0,0.0,0.0,0.0,-1.0
717395487,717395222,-0.38564083,0.3897009,0.00032374886,0.0,0.0,0.0,0.0,-1.0
717399450,717399222,-0.3854093,0.38975045,0.00016824047,0.0,0.0,0.0,0.0,-1.0
717404237,717404021,-0.385032,0.38940784,0.00036405597,0.0,0.0,0.0,0.0,-1.0
717409027,717408828,-0.38484284,0.3892329,0.00041895403,0.0,0.0,0.0,0.0,-1.0
717413060,717412821,-0.38472205,0.38918313,0.00046708,0.0,0.0,0.0,0.0,-1.0
717417022,717416821,-0.38458848,0.3895754,0.00057821296,0.0,0.0,0.0,0.0,-1.0
717421059,717420850,-0.38483942,0.39034832,0.00058321405,0.0,0.0,0.0,0.0,-1.0
717425089,717424821,-0.38511503,0.39034668,0.0003561315,0.0,0.0,0.0,0.0,-1.0
717429066,717428828,-0.38515916,0.39002806,0.00051745604,0.0,0.0,0.0,0.0,-1.0
717433052,717432821,-0.38567856,0.390101,0.00040635894,0.0,0.0,0.0,0.0,-1.0
717437022,717436821,-0.38611788,0.39003193,-8.760041e-05,0.0,0.0,0.0,0.0,-1.0
717441059,717440822,-0.3858012,0.3900651,0.00010908116,0.0,0.0,0.0,0.0,-1.0
717445033,717444834,-0.3852908,0.38978222,0.00034550633,0.0,0.0,0.0,0.0,-1.0
717449076,717448831,-0.38526472,0.38953236,0.00051929394,0.0,0.0,0.0,0.0,-1.0
717453071,717452821,-0.38549805,0.38895544,0.0003618594,0.0,0.0,0.0,0.0,-1.0
717457024,717456822,-0.38556498,0.38882542,0.00033196041,0.0,0.0,0.0,0.0,-1.0
717461058,717460821,-0.38543728,0.38933685,0.00043407836,0.0,0.0,0.0,0.0,-1.0
717465047,717464847,-0.38517004,0.39022598,0.00029542382,0.0,0.0,0.0,0.0,-1.0
717469068,717468828,-0.38482073,0.39067048,0.00033842443,0.0,0.0,0.0,0.0,-1.0
717473058,717472821,-0.38453117,0.39029515,0.0005449473,0.0,0.0,0.0,0.0,-1.0
717477033,717476821,-0.38491157,0.38991508,0.0005300493,0.0,0.0,0.0,0.0,-1.0
717481072,717480832,-0.38566417,0.38930705,0.0004190249,0.0,0.0,0.0,0.0,-1.0
717485019,717484822,-0.3857341,0.38927114,0.0007060505,0.0,0.0,0.0,0.0,-1.0
717489061,717488822,-0.3855708,0.38975278,0.0008509963,0.0,0.0,0.0,0.0,-1.0
717493075,717492822,-0.38511336,0.3897745,0.00026223462,0.0,0.0,0.0,0.0,-1.0
717497022,717496822,-0.3854328,0.38995734,0.00030472566,0.0,0.0,0.0,0.0,-1.0
717501069,717500828,-0.3854659,0.38951844,0.00028781217,0.0,0.0,0.0,0.0,-1.0
717505029,717504822,-0.38526917,0.38900942,0.00044158185,0.0,0.0,0.0,0.0,-1.0
717509078,717508831,-0.38523,0.38922182,0.00047524003,0.0,0.0,0.0,0.0,-1.0
717513095,717512821,-0.38548025,0.38908765,0.00032934928,0.0,0.0,0.0,0.0,-1.0
717517034,717516822,-0.38580072,0.38915998,0.0003487674,0.0,0.0,0.0,0.0,-1.0
717521067,717520828,-0.3858454,0.3898391,-0.0002047503,0.0,0.0,0.0,0.0,-1.0
717525025,717524821,-0.38580617,0.3903838,1.3916916e-05,0.0,0.0,0.0,0.0,-1.0
717529037,717528837,-0.3850143,0.39082643,0.00050562836,0.0,0.0,0.0,0.0,-1.0
717533049,717532821,-0.3844257,0.39076805,0.00029500635,0.0,0.0,0.0,0.0,-1.0
717537019,717536822,-0.3844018,0.39028096,3.5729052e-05,0.0,0.0,0.0,0.0,-1.0
717541069,717540830,-0.38456243,0.38962913,0.00027947195,0.0,0.0,0.0,0.0,-1.0
717545023,717544822,-0.3850475,0.3891179,0.00033773296,0.0,0.0,0.0,0.0,-1.0
717549065,717548861,-0.3856918,0.38908318,0.00065039325,0.0,0.0,0.0,0.0,-1.0
717553088,717552821,-0.38606143,0.3895918,0.00059416756,0.0,0.0,0.0,0.0,-1.0
717557020,717556822,-0.38590512,0.38986427,0.0005428903,0.0,0.0,0.0,0.0,-1.0
717561079,717560828,-0.3856883,0.39001653,0.0006517636,0.0,0.0,0.0,0.0,-1.0
717565029,717564821,-0.38515854,0.39016107,0.000607138,0.0,0.0,0.0,0.0,-1.0
717569061,717568852,-0.3848338,0.39003247,0.00022881536,0.0,0.0,0.0,0.0,-1.0
717573114,717572821,-0.38516513,0.38987994,0.0004170107,0.0,0.0,0.0,0.0,-1.0
717577022,717576822,-0.3855673,0.38947982,0.00040035034,0.0,0.0,0.0,0.0,-1.0
717581853,717581629,-0.38562888,0.3894604,0.0006552053,0.0,0.0,0.0,0.0,-1.0
717585829,717585622,-0.3855156,0.389111,0.00055965915,0.0,0.0,0.0,0.0,-1.0
717589856,717589639,-0.38550657,0.38906363,0.0005927288,0.0,0.0,0.0,0.0,-1.0
717593826,717593622,-0.3855292,0.38949403,0.00020706642,0.0,0.0,0.0,0.0,-1.0
717597829,717597654,-0.38557863,0.39001343,0.00024463198,0.0,0.0,0.0,0.0,-1.0
717601830,717601628,-0.38547897,0.38987932,0.00023354818,0.0,0.0,0.0,0.0,-1.0
717605830,717605622,-0.3850567,0.38948423,0.0005086856,0.0,0.0,0.0,0.0,-1.0
717609877,717609646,-0.38489124,0.38912567,0.00031155228,0.0,0.0,0.0,0.0,-1.0
717613892,717613642,-0.3850898,0.38920587,0.00033592785,0.0,0.0,0.0,0.0,-1.0
717617814,717617640,-0.38540336,0.38950834,0.00025827144,0.0,0.0,0.0,0.0,-1.0
717621867,717621628,-0.38557535,0.38969654,1.671305e-05,0.0,0.0,0.0,0.0,-1.0
717625827,717625622,-0.38566956,0.38962322,0.00039880676,0.0,0.0,0.0,0.0,-1.0
717629845,717629669,-0.38567463,0.3895968,0.00037279338,0.0,0.0,0.0,0.0,-1.0
717633851,717633622,-0.38575846,0.3898296,0.00032345377,0.0,0.0,0.0,0.0,-1.0
717637836,717637640,-0.38533804,0.39002004,0.00031816107,0.0,0.0,0.0,0.0,-1.0
717641838,717641628,-0.38477153,0.39002326,0.00017770681,0.0,0.0,0.0,0.0,-1.0
717645856,717645622,-0.3848639,0.38970518,0.00043211607,0.0,0.0,0.0,0.0,-1.0
717649862,717649675,-0.38529894,0.38983637,0.0006476451,0.0,0.0,0.0,0.0,-1.0
717653836,717653622,-0.38566917,0.3900401,0.00055257947,0.0,0.0,0.0,0.0,-1.0
717657819,717657640,-0.3852947,0.38957024,0.0002046827,0.0,0.0,0.0,0.0,-1.0
717661847,717661622,-0.38505173,0.38935843,0.0002595184,0.0,0.0,0.0,0.0,-1.0
717665841,717665622,-0.3850927,0.38974327,0.00014043335,0.0,0.0,0.0,0.0,-1.0
717669839,717669622,-0.38567007,0.38984266,2.1762773e-05,0.0,0.0,0.0,0.0,-1.0
717673838,717673622,-0.38591555,0.38988352,0.00030233394,0.0,0.0,0.0,0.0,-1.0
717677827,717677649,-0.38564903,0.3895976,0.0004879649,0.0,0.0,0.0,0.0,-1.0
717681854,717681622,-0.3855593,0.3896768,0.00020154422,0.0,0.0,0.0,0.0,-1.0
717685850,717685622,-0.38540792,0.38950506,0.00020766938,0.0,0.0,0.0,0.0,-1.0
717689860,717689622,-0.38514772,0.38956282,0.00026477198,0.0,0.0,0.0,0.0,-1.0
717693873,717693628,-0.38472074,0.38963857,0.00048804443,0.0,0.0,0.0,0.0,-1.0
717697872,717697661,-0.3846521,0.3896071,0.00014945022,0.0,0.0,0.0,0.0,-1.0
717701873,717701621,-0.38484812,0.38970423,0.00021712428,0.0,0.0,0.0,0.0,-1.0
717705848,717705622,-0.3851218,0.3895233,0.00034617283,0.0,0.0,0.0,0.0,-1.0
717709859,717709622,-0.38510668,0.38917017,0.00018749385,0.0,0.0,0.0,0.0,-1.0
717713850,717713653,-0.38532618,0.3891057,0.00039783755,0.0,0.0,0.0,0.0,-1.0
717717866,717717669,-0.38562182,0.38942528,0.00039778798,0.0,0.0,0.0,0.0,-1.0
717721871,717721622,-0.38550004,0.39019468,0.00052339677,0.0,0.0,0.0,0.0,-1.0
717725855,717725622,-0.3854602,0.38998562,0.0006312889,0.0,0.0,0.0,0.0,-1.0
717729860,717729622,-0.38543645,0.38985774,0.00028017207,0.0,0.0,0.0,0.0,-1.0
717733849,717733649,-0.38580912,0.38999918,0.00036484402,0.0,0.0,0.0,0.0,-1.0
717737871,717737649,-0.38604343,0.3901333,8.80301e-05,0.0,0.0,0.0,0.0,-1.0
717741908,717741657,-0.38584462,0.38960335,0.00012639044,0.0,0.0,0.0,0.0,-1.0
717746642,717746422,-0.38549304,0.38942885,0.00020650627,0.0,0.0,0.0,0.0,-1.0
717750694,717750436,-0.385268,0.38929835,0.0001661493,0.0,0.0,0.0,0.0,-1.0
717754728,717754428,-0.38553438,0.38937047,0.00033313126,0.0,0.0,0.0,0.0,-1.0
717758638,717758422,-0.3853437,0.3894998,0.00020512014,0.0,0.0,0.0,0.0,-1.0
717762682,717762426,-0.38525808,0.38946483,0.0005797876,0.0,0.0,0.0,0.0,-1.0
717766644,717766422,-0.3852711,0.38960606,0.00025185445,0.0,0.0,0.0,0.0,-1.0
717770675,717770422,-0.38545355,0.38967425,0.00021984043,0.0,0.0,0.0,0.0,-1.0
717774677,717774428,-0.38570705,0.38976464,0.00056408107,0.0,0.0,0.0,0.0,-1.0
717778631,717778422,-0.385599,0.39004657,0.000473309,0.0,0.0,0.0,0.0,-1.0
717783454,717783221,-0.38512915,0.39013284,0.00028396485,0.0,0.0,0.0,0.0,-1.0
717787422,717787222,-0.38478926,0.390189,0.00033854,0.0,0.0,0.0,0.0,-1.0
717791499,717791262,-0.38480213,0.38999394,0.00029061385,0.0,0.0,0.0,0.0,-1.0
717795473,717795222,-0.38488066,0.3893271,0.00037736454,0.0,0.0,0.0,0.0,-1.0
717799513,717799222,-0.38513562,0.38915783,0.00029668666,0.0,0.0,0.0,0.0,-1.0
717803463,717803222,-0.3852037,0.38917905,0.00029874427,0.0,0.0,0.0,0.0,-1.0
717807434,717807222,-0.3853588,0.3896968,0.0003914809,0.0,0.0,0.0,0.0,-1.0
717811497,717811237,-0.38535145,0.39023933,0.00056382065,0.0,0.0,0.0,0.0,-1.0
717815461,717815222,-0.38534456,0.3904076,0.00040444988,0.0,0.0,0.0,0.0,-1.0
717819441,717819222,-0.38561314,0.38999692,9.301468e-06,0.0,0.0,0.0,0.0,-1.0
717823659,717823222,-0.38624737,0.39015698,0.00034187722,0.0,0.0,0.0,0.0,-1.0
717827441,717827222,-0.38601542,0.38986823,0.00014044878,0.0,0.0,0.0,0.0,-1.0
717831485,717831273,-0.38549456,0.3894333,-0.00014105058,0.0,0.0,0.0,0.0,-1.0
717835458,717835222,-0.38526928,0.3891912,-1.781853e-05,0.0,0.0,0.0,0.0,-1.0
717839394,717839222,-0.38507164,0.38945943,0.00022254682,0.0,0.0,0.0,0.0,-1.0
717843473,717843222,-0.38497132,0.38969272,0.0005632068,0.0,0.0,0.0,0.0,-1.0
717847515,717847225,-0.3849092,0.38993433,0.0002936356,0.0,0.0,0.0,0.0,-1.0
717851494,717851225,-0.3847871,0.3900932,0.00035467744,0.0,0.0,0.0,0.0,-1.0
717855475,717855222,-0.38513327,0.3899326,0.00079621765,0.0,0.0,0.0,0.0,-1.0
717859403,717859222,-0.385496,0.38985932,0.0006289078,0.0,0.0,0.0,0.0,-1.0
717863458,717863222,-0.38565505,0.38977242,0.00032919744,0.0,0.0,0.0,0.0,-1.0
717867421,717867222,-0.3852934,0.39002308,0.00017820181,0.0,0.0,0.0,0.0,-1.0
717871552,717871222,-0.38495517,0.3898527,0.00017561464,0.0,0.0,0.0,0.0,-1.0
717875473,717875222,-0.38485557,0.38948342,0.0006711473,0.0,0.0,0.0,0.0,-1.0
717879446,717879222,-0.3850664,0.38944158,0.00058872247,0.0,0.0,0.0,0.0,-1.0
717883466,717883222,-0.38570175,0.38935053,0.00033017155,0.0,0.0,0.0,0.0,-1.0
717887436,717887230,-0.3858911,0.38912922,0.00056909607,0.0,0.0,0.0,0.0,-1.0
717891463,717891222,-0.38588387,0.388953,0.00043746733,0.0,0.0,0.0,0.0,-1.0
717895584,717895222,-0.38597408,0.3892764,0.00032911773,0.0,0.0,0.0,0.0,-1.0
717899491,717899261,-0.38542464,0.38975397,0.00024353187,0.0,0.0,0.0,0.0,-1.0
717903456,717903222,-0.3849097,0.3900856,0.00017169552,0.0,0.0,0.0,0.0,-1.0
717907430,717907222,-0.38502023,0.3900833,0.00023229272,0.0,0.0,0.0,0.0,-1.0
717911471,717911222,-0.38538933,0.3901143,0.00025264616,0.0,0.0,0.0,0.0,-1.0
717915455,717915247,-0.38593072,0.39010555,0.0004898759,0.0,0.0,0.0,0.0,-1.0
717919655,717919227,-0.38594222,0.3901918,0.00016577894,0.0,0.0,0.0,0.0,-1.0
717924264,717924021,-0.38573286,0.39001784,0.00017717786,0.0,0.0,0.0,0.0,-1.0
717929073,717928827,-0.38535196,0.38980025,7.530819e-05,0.0,0.0,0.0,0.0,-1.0
717933052,717932826,-0.3852248,0.3893708,0.00036185357,0.0,0.0,0.0,0.0,-1.0
717937050,717936822,-0.38507047,0.38862917,0.00040526787,0.0,0.0,0.0,0.0,-1.0
717941021,717940821,-0.3852841,0.3886734,0.0005488054,0.0,0.0,0.0,0.0,-1.0
717945063,717944822,-0.38566765,0.3891527,0.00035183656,0.0,0.0,0.0,0.0,-1.0
717949060,717948853,-0.38587102,0.38974392,0.00033917112,0.0,0.0,0.0,0.0,-1.0
717953122,717952863,-0.38571367,0.38966772,0.00050322217,0.0,0.0,0.0,0.0,-1.0
717957066,717956821,-0.38549554,0.38971537,0.00022297064,0.0,0.0,0.0,0.0,-1.0
717961018,717960822,-0.38527408,0.38968125,0.00034619385,0.0,0.0,0.0,0.0,-1.0
717965047,717964822,-0.3847838,0.3898636,0.00035413992,0.0,0.0,0.0,0.0,-1.0
717969060,717968854,-0.38495773,0.38963333,0.00012928635,0.0,0.0,0.0,0.0,-1.0
717973109,717972866,-0.38537234,0.38915253,0.0003251228,0.0,0.0,0.0,0.0,-1.0
717977021,717976822,-0.38569954,0.38919443,0.00035959165,0.0,0.0,0.0,0.0,-1.0
717981034,717980821,-0.38547474,0.38911596,0.00064360985,0.0,0.0,0.0,0.0,-1.0
717985070,717984821,-0.3854854,0.38922143,0.000320649,0.0,0.0,0.0,0.0,-1.0
717989035,717988821,-0.38551462,0.38955903,0.00023328036,0.0,0.0,0.0,0.0,-1.0
717993101,717992847,-0.38530308,0.38987136,0.00033086896,0.0,0.0,0.0,0.0,-1.0
717997018,717996821,-0.3851698,0.39019555,0.00043271185,0.0,0.0,0.0,0.0,-1.0
718001032,718000828,-0.38562128,0.3902235,0.00041216673,0.0,0.0,0.0,0.0,-1.0
718005044,718004821,-0.38577452,0.38945895,0.00029929992,0.0,0.0,0.0,0.0,-1.0
718009035,718008821,-0.38548267,0.38943145,0.000109912806,0.0,0.0,0.0,0.0,-1.0
718013102,718012821,-0.38537148,0.3897602,0.00014666091,0.0,0.0,0.0,0.0,-1.0
718017058,718016821,-0.38508937,0.38992697,2.9245904e-05,0.0,0.0,0.0,0.0,-1.0
718021028,718020828,-0.38527963,0.38988185,0.0004354276,0.0,0.0,0.0,0.0,-1.0
718025060,718024821,-0.3850949,0.3899033,0.000553618,0.0,0.0,0.0,0.0,-1.0
718029025,718028822,-0.38497204,0.3900915,0.000339771,0.0,0.0,0.0,0.0,-1.0
718033089,718032847,-0.38496915,0.38993603,0.00032778652,0.0,0.0,0.0,0.0,-1.0
718037061,718036821,-0.38539204,0.38950107,0.0005145829,0.0,0.0,0.0,0.0,-1.0
718041028,718040828,-0.38532096,0.38922793,0.0006273114,0.0,0.0,0.0,0.0,-1.0
718045055,718044821,-0.3853832,0.38939035,0.00063343183,0.0,0.0,0.0,0.0,-1.0
718049035,718048822,-0.38554442,0.39000216,0.00079268793,0.0,0.0,0.0,0.0,-1.0
718053099,718052852,-0.38584194,0.3901626,0.00056373555,0.0,0.0,0.0,0.0,-1.0
718057047,718056821,-0.3855382,0.39020392,0.0004912302,0.0,0.0,0.0,0.0,-1.0
718061042,718060828,-0.38490573,0.39016098,0.00049658737,0.0,0.0,0.0,0.0,-1.0
718065072,718064821,-0.3847623,0.38997895,0.00025919854,0.0,0.0,0.0,0.0,-1.0
718069024,718068822,-0.3849863,0.3896208,8.763303e-06,0.0,0.0,0.0,0.0,-1.0
718073060,718072822,-0.38539532,0.3892825,-2.4034596e-05,0.0,0.0,0.0,0.0,-1.0
718077058,718076821,-0.38537523,0.3889748,0.00021913434,0.0,0.0,0.0,0.0,-1.0
718081031,718080831,-0.38567775,0.3893956,5.8973117e-05,0.0,0.0,0.0,0.0,-1.0
718085053,718084821,-0.38616413,0.39023256,0.00033025857,0.0,0.0,0.0,0.0,-1.0
718089018,718088821,-0.38617587,0.39047468,0.0005660102,0.0,0.0,0.0,0.0,-1.0
718093071,718092828,-0.38592628,0.39029118,0.00023320667,0.0,0.0,0.0,0.0,-1.0
718105066,718104822,-0.3844933,0.3893885,0.0003121723,0.0,0.0,0.0,0.0,-1.0
718109021,718108822,-0.3852118,0.38933355,0.00055513467,0.0,0.0,0.0,0.0,-1.0
718113064,718112828,-0.38546562,0.38939744,0.00043429388,0.0,0.0,0.0,0.0,-1.0
718117063,718116847,-0.38573492,0.38991696,0.00014664014,0.0,0.0,0.0,0.0,-1.0
718121074,718120820,-0.38593256,0.39009047,-0.00012867362,0.0,0.0,0.0,0.0,-1.0
718125024,718124822,-0.3859146,0.39014408,-0.00017051399,0.0,0.0,0.0,0.0,-1.0
718129027,718128822,-0.3855616,0.3896742,0.00014017371,0.0,0.0,0.0,0.0,-1.0
718133097,718132828,-0.3852045,0.3893989,0.00020303126,0.0,0.0,0.0,0.0,-1.0
718137075,718136863,-0.38502476,0.38916963,0.0004138397,0.0,0.0,0.0,0.0,-1.0
718141079,718140852,-0.38539684,0.38960814,0.00038502357,0.0,0.0,0.0,0.0,-1.0
718145035,718144821,-0.38590452,0.3901341,0.00019608527,0.0,0.0,0.0,0.0,-1.0
718149032,718148821,-0.38594246,0.3898247,3.7405942e-05,0.0,0.0,0.0,0.0,-1.0
718153056,718152827,-0.38565585,0.3892478,0.00010868635,0.0,0.0,0.0,0.0,-1.0
718157031,718156821,-0.38519412,0.38923138,0.00052999466,0.0,0.0,0.0,0.0,-1.0
718161073,718160822,-0.38519478,0.3899324,0.00028264328,0.0,0.0,0.0,0.0,-1.0
718165020,718164822,-0.38542268,0.39031398,0.00015066753,0.0,0.0,0.0,0.0,-1.0
718169030,718168821,-0.3851767,0.3901144,0.00059570716,0.0,0.0,0.0,0.0,-1.0
718173079,718172828,-0.38526332,0.39001796,0.00080360344,0.0,0.0,0.0,0.0,-1.0
718177028,718176822,-0.38542166,0.3895646,0.00031917891,0.0,0.0,0.0,0.0,-1.0
718181107,718180821,-0.38550875,0.38941047,0.0003160791,0.0,0.0,0.0,0.0,-1.0
718185065,718184827,-0.38567036,0.38924938,6.5757406e-05,0.0,0.0,0.0,0.0,-1.0
718189825,718189621,-0.38579232,0.38958544,-0.00016652995,0.0,0.0,0.0,0.0,-1.0
718193882,718193628,-0.38547546,0.38979986,3.808113e-05,0.0,0.0,0.0,0.0,-1.0
718197893,718197640,-0.38509616,0.39010152,0.00048109013,0.0,0.0,0.0,0.0,-1.0
718201872,718201627,-0.38517335,0.38975257,0.0008584858,0.0,0.0,0.0,0.0,-1.0
718205904,718205622,-0.38545546,0.38994431,0.0005766968,0.0,0.0,0.0,0.0,-1.0
718209837,718209632,-0.38510916,0.38965455,0.00022309423,0.0,0.0,0.0,0.0,-1.0
718213870,718213628,-0.38489172,0.38926855,0.0003851096,0.0,0.0,0.0,0.0,-1.0
718217896,718217678,-0.38516164,0.38916445,0.0004945486,0.0,0.0,0.0,0.0,-1.0
718221880,718221635,-0.3858383,0.38941568,0.0003595281,0.0,0.0,0.0,0.0,-1.0
718225873,718225622,-0.38627476,0.3901411,4.3349737e-05,0.0,0.0,0.0,0.0,-1.0
718229831,718229622,-0.3859467,0.3901606,0.00024856543,0.0,0.0,0.0,0.0,-1.0
718233866,718233622,-0.38544878,0.38976556,0.00073457434,0.0,0.0,0.0,0.0,-1.0
718237874,718237654,-0.38508838,0.38923436,0.0004553564,0.0,0.0,0.0,0.0,-1.0
718241931,718241622,-0.38533387,0.3895781,0.00043710266,0.0,0.0,0.0,0.0,-1.0
718245868,718245622,-0.3853717,0.38970393,0.00041672212,0.0,0.0,0.0,0.0,-1.0
718249826,718249622,-0.3852203,0.38965264,0.00045457654,0.0,0.0,0.0,0.0,-1.0
718253875,718253622,-0.3852018,0.38971162,0.000172036,0.0,0.0,0.0,0.0,-1.0
718257867,718257659,-0.38557568,0.38995737,8.272752e-05,0.0,0.0,0.0,0.0,-1.0
718261920,718261629,-0.3854753,0.38985938,0.0003734554,0.0,0.0,0.0,0.0,-1.0
718265858,718265622,-0.38534805,0.38950053,0.00067007926,0.0,0.0,0.0,0.0,-1.0
718269795,718269622,-0.38524345,0.38928154,0.00045888507,0.0,0.0,0.0,0.0,-1.0
718273871,718273622,-0.38552144,0.38931316,0.00045982582,0.0,0.0,0.0,0.0,-1.0
718277848,718277641,-0.38592193,0.38951868,0.00044100304,0.0,0.0,0.0,0.0,-1.0
718281905,718281622,-0.38584232,0.38981676,0.00022642822,0.0,0.0,0.0,0.0,-1.0
718285911,718285628,-0.38579318,0.38981283,0.0001313078,0.0,0.0,0.0,0.0,-1.0
718289822,718289622,-0.38558447,0.3898767,0.00029141118,0.0,0.0,0.0,0.0,-1.0
718293862,718293622,-0.38522756,0.38982657,0.0004856133,0.0,0.0,0.0,0.0,-1.0
718297848,718297640,-0.3852021,0.38966152,5.6449186e-05,0.0,0.0,0.0,0.0,-1.0
718301891,718301650,-0.3852042,0.38918984,8.189771e-05,0.0,0.0,0.0,0.0,-1.0
718306643,718306429,-0.38506526,0.3890684,0.00047512088,0.0,0.0,0.0,0.0,-1.0
718310634,718310422,-0.3852949,0.38923645,0.00061994285,0.0,0.0,0.0,0.0,-1.0
718314674,718314422,-0.38521704,0.38986143,0.00053940166,0.0,0.0,0.0,0.0,-1.0
718318661,718318447,-0.3849009,0.3896632,0.0002442617,0.0,0.0,0.0,0.0,-1.0
718322713,718322422,-0.38479272,0.389744,0.000291009,0.0,0.0,0.0,0.0,-1.0
718326649,718326429,-0.3847673,0.38969174,0.00030358005,0.0,0.0,0.0,0.0,-1.0
718330651,718330422,-0.3853308,0.38994092,0.00026461194,0.0,0.0,0.0,0.0,-1.0
718334666,718334422,-0.38577628,0.3899374,0.00012032746,0.0,0.0,0.0,0.0,-1.0
718338661,718338448,-0.38567418,0.38975957,1.3416773e-05,0.0,0.0,0.0,0.0,-1.0
718342699,718342422,-0.38538465,0.3894922,0.00026249778,0.0,0.0,0.0,0.0,-1.0
718346638,718346428,-0.38546538,0.38953835,0.0005173703,0.0,0.0,0.0,0.0,-1.0
718350638,718350422,-0.38536802,0.38930833,0.00059355,0.0,0.0,0.0,0.0,-1.0
718355471,718355228,-0.38536334,0.3891382,0.0004855902,0.0,0.0,0.0,0.0,-1.0
718359440,718359222,-0.3850167,0.38945812,0.00034105955,0.0,0.0,0.0,0.0,-1.0
718363469,718363265,-0.3850405,0.3899777,0.0004835391,0.0,0.0,0.0,0.0,-1.0
718367395,718367222,-0.3855389,0.3900414,0.00051835,0.0,0.0,0.0,0.0,-1.0
718371423,718371222,-0.38599136,0.3898263,0.00056455954,0.0,0.0,0.0,0.0,-1.0
718375484,718375222,-0.38570243,0.38982642,0.0005992711,0.0,0.0,0.0,0.0,-1.0
718379468,718379222,-0.3849238,0.38987505,0.0006716987,0.0,0.0,0.0,0.0,-1.0
718383445,718383237,-0.38488868,0.3897879,0.0004914136,0.0,0.0,0.0,0.0,-1.0
718387421,718387222,-0.3852923,0.38954014,0.00022353992,0.0,0.0,0.0,0.0,-1.0
718391423,718391222,-0.38539368,0.3894688,-0.0001643841,0.0,0.0,0.0,0.0,-1.0
718395458,718395222,-0.3850559,0.38927507,0.00011688581,0.0,0.0,0.0,0.0,-1.0
718399467,718399222,-0.38544428,0.38941565,0.00033161163,0.0,0.0,0.0,0.0,-1.0
718403486,718403245,-0.38584572,0.38999483,0.00050582766,0.0,0.0,0.0,0.0,-1.0
718407699,718407222,-0.385722,0.39049193,0.0007331427,0.0,0.0,0.0,0.0,-1.0
718411440,718411222,-0.38530657,0.39002094,0.0005044681,0.0,0.0,0.0,0.0,-1.0
718415477,718415222,-0.38503614,0.38958412,0.00059763243,0.0,0.0,0.0,0.0,-1.0
718419450,718419247,-0.38490838,0.3897792,0.00036930613,0.0,0.0,0.0,0.0,-1.0
718423517,718423222,-0.38490507,0.38995183,0.00021055802,0.0,0.0,0.0,0.0,-1.0
718427423,718427222,-0.3854237,0.38991445,0.00027774207,0.0,0.0,0.0,0.0,-1.0
718432229,718432022,-0.38561237,0.38991684,0.0003498159,0.0,0.0,0.0,0.0,-1.0
718436317,718436047,-0.385457,0.3898475,0.0004117353,0.0,0.0,0.0,0.0,-1.0
718440276,718440028,-0.38506937,0.38979912,0.00038876987,0.0,0.0,0.0,0.0,-1.0
718444274,718444063,-0.3848978,0.38958937,0.0003506167,0.0,0.0,0.0,0.0,-1.0
718448261,718448021,-0.3849775,0.38961288,0.00030743415,0.0,0.0,0.0,0.0,-1.0
718452229,718452022,-0.38536942,0.38958818,0.00055668096,0.0,0.0,0.0,0.0,-1.0
718456285,718456049,-0.3858059,0.3891799,0.0004444681,0.0,0.0,0.0,0.0,-1.0
718460261,718460022,-0.38562205,0.3891041,0.0005317514,0.0,0.0,0.0,0.0,-1.0
718464239,718464032,-0.38523343,0.3893653,0.0004866464,0.0,0.0,0.0,0.0,-1.0
718468230,718468022,-0.38518083,0.3898103,0.00033027175,0.0,0.0,0.0,0.0,-1.0
718473058,718472852,-0.3854908,0.39000505,2.054032e-05,0.0,0.0,0.0,0.0,-1.0
718477110,718476822,-0.38516533,0.38974267,0.0001835554,0.0,0.0,0.0,0.0,-1.0
718481021,718480821,-0.3848069,0.38932613,0.0002749559,0.0,0.0,0.0,0.0,-1.0
718485028,718484822,-0.38506827,0.38934174,-7.867399e-05,0.0,0.0,0.0,0.0,-1.0
718489062,718488822,-0.38560027,0.38963526,0.00034093182,0.0,0.0,0.0,0.0,-1.0
718493024,718492822,-0.3853941,0.3901588,0.00067963055,0.0,0.0,0.0,0.0,-1.0
718497104,718496822,-0.38495773,0.389994,0.00060473307,0.0,0.0,0.0,0.0,-1.0
718501035,718500828,-0.3845511,0.38987684,0.00037691157,0.0,0.0,0.0,0.0,-1.0
718505026,718504826,-0.38475254,0.3900511,0.0004434313,0.0,0.0,0.0,0.0,-1.0
718509052,718508822,-0.38498595,0.39014888,1.1127303e-05,0.0,0.0,0.0,0.0,-1.0
718513032,718512821,-0.38536766,0.39000702,0.00034306655,0.0,0.0,0.0,0.0,-1.0
718517101,718516822,-0.385861,0.3894806,0.0003593977,0.0,0.0,0.0,0.0,-1.0
718521068,718520828,-0.38603958,0.3895426,0.0005045513,0.0,0.0,0.0,0.0,-1.0
718525060,718524859,-0.385462,0.3895327,0.000599194,0.0,0.0,0.0,0.0,-1.0
718529064,718528821,-0.38510868,0.38969257,0.00031824326,0.0,0.0,0.0,0.0,-1.0
718533020,718532822,-0.38539198,0.38939917,0.0004423698,0.0,0.0,0.0,0.0,-1.0
718537098,718536852,-0.38539234,0.3892217,0.0004486041,0.0,0.0,0.0,0.0,-1.0
718541079,718540830,-0.3854694,0.3892154,0.00061818416,0.0,0.0,0.0,0.0,-1.0
718545069,718544866,-0.38553,0.38959402,0.00061667216,0.0,0.0,0.0,0.0,-1.0
718549021,718548822,-0.38543394,0.3899737,0.0001740196,0.0,0.0,0.0,0.0,-1.0
718553020,718552822,-0.3853155,0.39000696,5.205283e-05,0.0,0.0,0.0,0.0,-1.0
718557088,718556839,-0.38522065,0.3902699,0.0002994197,0.0,0.0,0.0,0.0,-1.0
718561834,718561628,-0.38496792,0.3897528,0.00039390015,0.0,0.0,0.0,0.0,-1.0
718565857,718565622,-0.38454157,0.38930756,0.00035997524,0.0,0.0,0.0,0.0,-1.0
718569871,718569622,-0.3845899,0.38941935,0.00014270651,0.0,0.0,0.0,0.0,-1.0
718573846,718573648,-0.38496614,0.3894434,0.0004671808,0.0,0.0,0.0,0.0,-1.0
718577901,718577640,-0.38528267,0.38960397,0.00052011455,0.0,0.0,0.0,0.0,-1.0
718581827,718581628,-0.38567045,0.3895584,0.00047586072,0.0,0.0,0.0,0.0,-1.0
718585861,718585634,-0.385231,0.38978752,0.00022342031,0.0,0.0,0.0,0.0,-1.0
718589866,718589622,-0.385049,0.3901025,0.00018003296,0.0,0.0,0.0,0.0,-1.0
718593828,718593622,-0.38498682,0.3901199,-9.6462434e-05,0.0,0.0,0.0,0.0,-1.0
718597912,718597640,-0.3853087,0.39033794,0.00014878782,0.0,0.0,0.0,0.0,-1.0
718601826,718601628,-0.38556927,0.39022875,0.0006207027,0.0,0.0,0.0,0.0,-1.0
718605880,718605647,-0.38563362,0.3899326,0.0003146179,0.0,0.0,0.0,0.0,-1.0
718609868,718609622,-0.38541344,0.38959113,6.5199754e-05,0.0,0.0,0.0,0.0,-1.0
718613797,718613622,-0.38551554,0.38938746,3.1803644e-05,0.0,0.0,0.0,0.0,-1.0
718617928,718617640,-0.38586825,0.3895569,0.00045005578,0.0,0.0,0.0,0.0,-1.0
718621798,718621622,-0.3855376,0.38969243,0.0005149969,0.0,0.0,0.0,0.0,-1.0
718625866,718625635,-0.38525358,0.38956842,0.0002995863,0.0,0.0,0.0,0.0,-1.0
718629800,718629622,-0.3851456,0.38964373,0.00024917355,0.0,0.0,0.0,0.0,-1.0
718633816,718633637,-0.3852578,0.3897967,0.00040151068,0.0,0.0,0.0,0.0,-1.0
718637915,718637681,-0.38528693,0.39003345,0.0005459905,0.0,0.0,0.0,0.0,-1.0
718641842,718641622,-0.38489363,0.38987774,0.0007313305,0.0,0.0,0.0,0.0,-1.0
718645842,718645630,-0.38511166,0.3893339,0.0005183066,0.0,0.0,0.0,0.0,-1.0
718649798,718649622,-0.38501117,0.38909364,0.00030879126,0.0,0.0,0.0,0.0,-1.0
718653805,718653622,-0.3848083,0.38916585,0.00042945877,0.0,0.0,0.0,0.0,-1.0
718657866,718657653,-0.38463202,0.38942164,0.00081146177,0.0,0.0,0.0,0.0,-1.0
718661821,718661622,-0.3851361,0.38993102,0.00085277105,0.0,0.0,0.0,0.0,-1.0
718665854,718665622,-0.38579747,0.39033842,0.00035049187,0.0,0.0,0.0,0.0,-1.0
718669798,718669622,-0.38603944,0.39039832,0.00053849135,0.0,0.0,0.0,0.0,-1.0
718673823,718673638,-0.38543773,0.39020398,0.00031135368,0.0,0.0,0.0,0.0,-1.0
718677925,718677684,-0.3851042,0.39007103,0.00011965826,0.0,0.0,0.0,0.0,-1.0
718681822,718681622,-0.38506988,0.3901306,0.00027313852,0.0,0.0,0.0,0.0,-1.0
718685906,718685622,-0.3852267,0.38995472,0.0006274946,0.0,0.0,0.0,0.0,-1.0
718689802,718689622,-0.38495412,0.3895906,0.0006137639,0.0,0.0,0.0,0.0,-1.0
718693804,718693628,-0.38498452,0.3893994,0.00013530246,0.0,0.0,0.0,0.0,-1.0
718697875,718697641,-0.3850645,0.3894897,0.0004626251,0.0,0.0,0.0,0.0,-1.0
718701836,718701622,-0.3853823,0.3899217,0.00064290984,0.0,0.0,0.0,0.0,-1.0
718705893,718705622,-0.38568723,0.39010954,0.00020776899,0.0,0.0,0.0,0.0,-1.0
718709802,718709622,-0.38523656,0.38988566,0.00017950614,0.0,0.0,0.0,0.0,-1.0
718713804,718713628,-0.3850248,0.38981742,0.00043756908,0.0,0.0,0.0,0.0,-1.0
718717860,718717640,-0.38520864,0.3898875,0.0006019319,0.0,0.0,0.0,0.0,-1.0
718721822,718721647,-0.38550088,0.38965386,0.00035251936,0.0,0.0,0.0,0.0,-1.0
718725911,718725622,-0.38538873,0.38987124,0.0004264092,0.0,0.0,0.0,0.0,-1.0
718729817,718729622,-0.3851257,0.3904057,0.00050167175,0.0,0.0,0.0,0.0,-1.0
718733821,718733644,-0.3847373,0.39064634,0.00012613226,0.0,0.0,0.0,0.0,-1.0
718737865,718737640,-0.3847097,0.3899533,-3.4043635e-05,0.0,0.0,0.0,0.0,-1.0
718741825,718741652,-0.3852419,0.38938573,0.00018577662,0.0,0.0,0.0,0.0,-1.0
718745891,718745622,-0.38543183,0.38895226,0.0006406537,0.0,0.0,0.0,0.0,-1.0
718749813,718749622,-0.38530168,0.3894343,0.00063389883,0.0,0.0,0.0,0.0,-1.0
718753826,718753646,-0.38504794,0.38975045,0.0004570372,0.0,0.0,0.0,0.0,-1.0
718757823,718757640,-0.3851413,0.38977453,0.00016305468,0.0,0.0,0.0,0.0,-1.0
718761799,718761622,-0.38556886,0.38938367,0.0004948718,0.0,0.0,0.0,0.0,-1.0
718765910,718765622,-0.3861851,0.38959494,0.0004222503,0.0,0.0,0.0,0.0,-1.0
718769800,718769622,-0.38622776,0.39000696,0.00053098274,0.0,0.0,0.0,0.0,-1.0
718773806,718773628,-0.38602105,0.39049256,0.0005439163,0.0,0.0,0.0,0.0,-1.0
718777821,718777644,-0.38518912,0.3906189,0.00040141313,0.0,0.0,0.0,0.0,-1.0
718781795,718781622,-0.38476783,0.3904615,0.00031392244,0.0,0.0,0.0,0.0,-1.0
718785904,718785628,-0.3848331,0.38995725,0.0003535459,0.0,0.0,0.0,0.0,-1.0
718789802,718789622,-0.38529363,0.3897974,0.0002878882,0.0,0.0,0.0,0.0,-1.0
718793813,718793635,-0.38561982,0.38968638,0.00015429237,0.0,0.0,0.0,0.0,-1.0
718797847,718797640,-0.38549522,0.3894762,0.00041414375,0.0,0.0,0.0,0.0,-1.0
718801803,718801631,-0.3848807,0.38958362,0.0005433488,0.0,0.0,0.0,0.0,-1.0
718805882,718805641,-0.38476524,0.3891006,0.000476381,0.0,0.0,0.0,0.0,-1.0
718809839,718809622,-0.38546184,0.38940203,0.0003353221,0.0,0.0,0.0,0.0,-1.0
718813881,718813622,-0.38574928,0.3897844,0.00036511468,0.0,0.0,0.0,0.0,-1.0
718817860,718817641,-0.38558576,0.38997182,0.00012664699,0.0,0.0,0.0,0.0,-1.0
718821803,718821622,-0.3852626,0.38971746,8.450302e-05,0.0,0.0,0.0,0.0,-1.0
718825915,718825649,-0.3854178,0.38953567,0.00027427688,0.0,0.0,0.0,0.0,-1.0
718829846,718829622,-0.38548717,0.38935953,0.00024038828,0.0,0.0,0.0,0.0,-1.0
718833863,718833622,-0.3851628,0.38946638,0.0002822063,0.0,0.0,0.0,0.0,-1.0
718837839,718837640,-0.3847715,0.39002267,0.00039928444,0.0,0.0,0.0,0.0,-1.0
718841834,718841622,-0.38449153,0.3901206,0.00013738629,0.0,0.0,0.0,0.0,-1.0
718845901,718845625,-0.38491568,0.38984814,0.00016365926,0.0,0.0,0.0,0.0,-1.0
718849870,718849622,-0.38532135,0.38963374,0.00050600426,0.0,0.0,0.0,0.0,-1.0
718853906,718853622,-0.3857168,0.38934034,0.00065416744,0.0,0.0,0.0,0.0,-1.0
718857849,718857640,-0.38587672,0.3892975,0.00022263433,0.0,0.0,0.0,0.0,-1.0
718861831,718861622,-0.38559163,0.38909075,0.000120770885,0.0,0.0,0.0,0.0,-1.0
718865891,718865634,-0.38514635,0.3889329,0.00024042084,0.0,0.0,0.0,0.0,-1.0
718869879,718869623,-0.38494736,0.38956147,0.00012804501,0.0,0.0,0.0,0.0,-1.0
718873942,718873646,-0.38518175,0.39031675,5.430542e-07,0.0,0.0,0.0,0.0,-1.0
718877861,718877646,-0.38512212,0.3909566,0.00025962156,0.0,0.0,0.0,0.0,-1.0
718881861,718881647,-0.3850961,0.3911431,0.00031589667,0.0,0.0,0.0,0.0,-1.0
718885889,718885622,-0.38529092,0.39058015,-5.87618e-07,0.0,0.0,0.0,0.0,-1.0
718889840,718889634,-0.38533473,0.38973737,0.000113732785,0.0,0.0,0.0,0.0,-1.0
718893886,718893622,-0.3848679,0.38932002,0.00051517715,0.0,0.0,0.0,0.0,-1.0
718897864,718897646,-0.384771,0.38910016,0.0003399158,0.0,0.0,0.0,0.0,-1.0
718901858,718901651,-0.3850836,0.3894339,7.754462e-05,0.0,0.0,0.0,0.0,-1.0
718905899,718905621,-0.38549197,0.389402,0.0001528153,0.0,0.0,0.0,0.0,-1.0
718909864,718909641,-0.38545737,0.3894182,0.00022417605,0.0,0.0,0.0,0.0,-1.0
718913897,718913622,-0.3853332,0.38986316,0.00053409796,0.0,0.0,0.0,0.0,-1.0
718917858,718917640,-0.3852485,0.3902333,0.00039015143,0.0,0.0,0.0,0.0,-1.0
718921836,718921632,-0.38513714,0.39011562,-9.844166e-05,0.0,0.0,0.0,0.0,-1.0
718925859,718925622,-0.38497227,0.38971227,-0.000118779186,0.0,0.0,0.0,0.0,-1.0
718929846,718929638,-0.38495675,0.38949087,0.0001282272,0.0,0.0,0.0,0.0,-1.0
718933883,718933622,-0.38512084,0.3893376,6.850283e-05,0.0,0.0,0.0,0.0,-1.0
718937839,718937640,-0.38520882,0.38973236,0.00037879762,0.0,0.0,0.0,0.0,-1.0
718941844,718941640,-0.3851309,0.3904819,0.0003916773,0.0,0.0,0.0,0.0,-1.0
718945904,718945622,-0.38476324,0.39070117,0.00021098042,0.0,0.0,0.0,0.0,-1.0
718949845,718949622,-0.38475612,0.39058268,0.00012655459,0.0,0.0,0.0,0.0,-1.0
718953921,718953622,-0.3853469,0.39067048,5.3211348e-05,0.0,0.0,0.0,0.0,-1.0
718957890,718957640,-0.38580498,0.39020637,0.00019076506,0.0,0.0,0.0,0.0,-1.0
718961872,718961622,-0.38585466,0.38977152,0.0001533153,0.0,0.0,0.0,0.0,-1.0
718965862,718965622,-0.38549572,0.38946152,0.0004798336,0.0,0.0,0.0,0.0,-1.0
718969833,718969629,-0.3853756,0.3893101,0.00042215802,0.0,0.0,0.0,0.0,-1.0
718973879,718973647,-0.38541594,0.38916406,0.0002642858,0.0,0.0,0.0,0.0,-1.0
718977904,718977640,-0.38563657,0.3891514,0.00048889586,0.0,0.0,0.0,0.0,-1.0
718981867,718981622,-0.385708,0.38917592,0.00039097664,0.0,0.0,0.0,0.0,-1.0
718985876,718985622,-0.38540047,0.38948682,0.0005837137,0.0,0.0,0.0,0.0,-1.0
718989834,718989628,-0.38485882,0.3902429,6.428089e-05,0.0,0.0,0.0,0.0,-1.0
718994680,718994421,-0.3846261,0.39005017,0.00010496038,0.0,0.0,0.0,0.0,-1.0
718998621,718998422,-0.38492405,0.39018238,0.00022765683,0.0,0.0,0.0,0.0,-1.0
719002677,719002466,-0.38516027,0.38989696,0.00021544281,0.0,0.0,0.0,0.0,-1.0
719006630,719006426,-0.38565066,0.38964555,0.00041299357,0.0,0.0,0.0,0.0,-1.0
719010653,719010448,-0.38579938,0.3896582,0.00045809578,0.0,0.0,0.0,0.0,-1.0
719014798,719014423,-0.38569787,0.38964137,0.00047474774,0.0,0.0,0.0,0.0,-1.0
719018626,719018422,-0.38574868,0.38967463,0.00025595154,0.0,0.0,0.0,0.0,-1.0
719022658,719022447,-0.3859136,0.3895659,0.00013849256,0.0,0.0,0.0,0.0,-1.0
719026636,719026422,-0.38603365,0.3897345,0.000408322,0.0,0.0,0.0,0.0,-1.0
719030647,719030447,-0.38585916,0.3898758,0.0003596136,0.0,0.0,0.0,0.0,-1.0
719034696,719034426,-0.38526896,0.39022863,0.00031554725,0.0,0.0,0.0,0.0,-1.0
719038626,719038422,-0.384962,0.3903479,0.0003501548,0.0,0.0,0.0,0.0,-1.0
719042669,719042422,-0.38509363,0.3904684,0.00037797083,0.0,0.0,0.0,0.0,-1.0
719046628,719046422,-0.38522303,0.39008155,0.00057954894,0.0,0.0,0.0,0.0,-1.0
719050636,719050428,-0.38542244,0.38969707,0.0005529749,0.0,0.0,0.0,0.0,-1.0
719054708,719054422,-0.3854472,0.38939956,0.00062251714,0.0,0.0,0.0,0.0,-1.0
719058653,719058422,-0.38539648,0.38908708,0.00052372244,0.0,0.0,0.0,0.0,-1.0
719062660,719062426,-0.3855309,0.38922334,0.0006133621,0.0,0.0,0.0,0.0,-1.0
719066636,719066421,-0.38547444,0.38988608,0.0005832322,0.0,0.0,0.0,0.0,-1.0
719070626,719070422,-0.38521487,0.39050883,0.00027941505,0.0,0.0,0.0,0.0,-1.0
719074701,719074448,-0.38498718,0.39039186,0.0005406153,0.0,0.0,0.0,0.0,-1.0
719078657,719078422,-0.38503724,0.38965988,0.0006017503,0.0,0.0,0.0,0.0,-1.0
719082668,719082422,-0.38561273,0.38971102,0.0005540738,0.0,0.0,0.0,0.0,-1.0
719087456,719087221,-0.3859199,0.39001748,0.00035930562,0.0,0.0,0.0,0.0,-1.0
719092208,719092028,-0.38590062,0.39008197,0.0006192484,0.0,0.0,0.0,0.0,-1.0
719096224,719096022,-0.38564026,0.38994065,0.0004753204,0.0,0.0,0.0,0.0,-1.0
719100200,719100022,-0.38509026,0.38983756,0.00052857795,0.0,0.0,0.0,0.0,-1.0
719104225,719104049,-0.384999,0.3895732,0.0005581954,0.0,0.0,0.0,0.0,-1.0
719108273,719108047,-0.38525453,0.38952398,-9.681969e-05,0.0,0.0,0.0,0.0,-1.0
719112250,719112027,-0.38537365,0.3899249,-3.659269e-05,0.0,0.0,0.0,0.0,-1.0
719116241,719116021,-0.3852813,0.3902874,6.1852836e-05,0.0,0.0,0.0,0.0,-1.0
719120197,719120021,-0.3851351,0.3901442,0.0003778695,0.0,0.0,0.0,0.0,-1.0
719124216,719124033,-0.38478947,0.39025748,0.00030078745,0.0,0.0,0.0,0.0,-1.0
719128257,719128049,-0.38458133,0.390019,0.00023080668,0.0,0.0,0.0,0.0,-1.0
719132253,719132021,-0.38463947,0.38926768,0.00024309327,0.0,0.0,0.0,0.0,-1.0
719136236,719136021,-0.38522375,0.38916856,0.00047293538,0.0,0.0,0.0,0.0,-1.0
719140200,719140021,-0.3861509,0.38907564,0.00066499814,0.0,0.0,0.0,0.0,-1.0
719144221,719144042,-0.38649175,0.38942558,0.00073277,0.0,0.0,0.0,0.0,-1.0
719148252,719148022,-0.38623795,0.3898927,0.00030081326,0.0,0.0,0.0,0.0,-1.0
719152423,719152021,-0.38544786,0.3901719,2.278986e-05,0.0,0.0,0.0,0.0,-1.0
719156260,719156021,-0.38488522,0.39048317,0.00034093327,0.0,0.0,0.0,0.0,-1.0
719160219,719160022,-0.38478765,0.39101124,0.00025893582,0.0,0.0,0.0,0.0,-1.0
719164282,719164075,-0.38485453,0.39098966,0.00036346432,0.0,0.0,0.0,0.0,-1.0
719168206,719168022,-0.38484228,0.3904576,0.00015642594,0.0,0.0,0.0,0.0,-1.0
719172249,719172021,-0.38473856,0.38997564,0.00015638807,0.0,0.0,0.0,0.0,-1.0
719176409,719176021,-0.38527536,0.38986796,9.9940415e-05,0.0,0.0,0.0,0.0,-1.0
719180202,719180022,-0.38557246,0.39005062,0.00044397428,0.0,0.0,0.0,0.0,-1.0
719184211,719184030,-0.3853052,0.3896057,0.0005828251,0.0,0.0,0.0,0.0,-1.0
719188207,719188021,-0.38518026,0.38896936,0.00052105327,0.0,0.0,0.0,0.0,-1.0
719192233,719192051,-0.38527164,0.3887441,0.00060652103,0.0,0.0,0.0,0.0,-1.0
719196275,719196021,-0.3853193,0.38900077,0.0002838878,0.0,0.0,0.0,0.0,-1.0
719200200,719200021,-0.3851708,0.3896021,6.253377e-05,0.0,0.0,0.0,0.0,-1.0
719204244,719204063,-0.38550344,0.39017642,0.0001439577,0.0,0.0,0.0,0.0,-1.0
719208202,719208022,-0.3861351,0.39047226,0.0002500302,0.0,0.0,0.0,0.0,-1.0
719212227,719212052,-0.3858709,0.39028117,0.00040162905,0.0,0.0,0.0,0.0,-1.0
719216261,719216022,-0.3854966,0.38998565,0.00029868507,0.0,0.0,0.0,0.0,-1.0
719220468,719220021,-0.38510165,0.38977584,0.00021095372,0.0,0.0,0.0,0.0,-1.0
719224240,719224021,-0.38476035,0.3894736,0.0003426298,0.0,0.0,0.0,0.0,-1.0
719228201,719228022,-0.38483143,0.38973543,0.00025741238,0.0,0.0,0.0,0.0,-1.0
719232224,719232046,-0.3854308,0.39015695,2.6364974e-05,0.0,0.0,0.0,0.0,-1.0
719236288,719236028,-0.38598895,0.3906615,0.0002749609,0.0,0.0,0.0,0.0,-1.0
719240222,719240021,-0.38592115,0.39045423,0.0006385698,0.0,0.0,0.0,0.0,-1.0
719244255,719244021,-0.38549894,0.38976446,0.0006549827,0.0,0.0,0.0,0.0,-1.0
719248225,719248021,-0.38515285,0.38909543,0.0003574914,0.0,0.0,0.0,0.0,-1.0
719252205,719252026,-0.38482335,0.38928166,0.0006019046,0.0,0.0,0.0,0.0,-1.0
719256294,719256028,-0.38399306,0.39012188,0.00066859985,0.0,0.0,0.0,0.0,-1.0
719260198,719260021,-0.38429347,0.39007643,0.00046709995,0.0,0.0,0.0,0.0,-1.0
719264261,719264021,-0.38456324,0.39044872,0.000453986,0.0,0.0,0.0,0.0,-1.0
719268228,719268021,-0.38454238,0.39062324,0.00019249645,0.0,0.0,0.0,0.0,-1.0
719272238,719272034,-0.38473815,0.39057598,0.00011211746,0.0,0.0,0.0,0.0,-1.0
719276303,719276053,-0.38497967,0.39077377,0.00021666462,0.0,0.0,0.0,0.0,-1.0
719280234,719280025,-0.37831798,0.39754838,0.00042941186,0.0,0.0,0.0,0.0,-1.0
719284266,719284022,-0.37787697,0.39743593,0.00027365724,0.0,0.0,0.0,0.0,-1.0
719288222,719288021,-0.3777891,0.3972883,0.00038072476,0.0,0.0,0.0,0.0,-1.0
719292432,719292040,-0.37764344,0.39713833,0.000813993,0.0,0.0,0.0,0.0,-1.0
719296310,719296055,-0.37787703,0.39717045,0.00059938524,0.0,0.0,0.0,0.0,-1.0
719300249,719300022,-0.37838846,0.39681154,0.00048274407,0.0,0.0,0.0,0.0,-1.0
719304267,719304021,-0.3070327,0.45555285,0.001092478,0.0,0.0,0.0,0.0,-1.0
719308222,719308021,-0.3066338,0.45571724,0.0013154252,0.0,0.0,0.0,0.0,-1.0
719312226,719312026,-0.3064458,0.4556934,0.001675424,0.0,0.0,0.0,0.0,-1.0
719316432,719316021,-0.30635408,0.45555612,0.00162332,0.0,0.0,0.0,0.0,-1.0
719320265,719320022,-0.30667123,0.4553381,0.0016468633,0.0,0.0,0.0,0.0,-1.0
719324251,719324021,-0.30688953,0.45549825,0.0016148007,0.0,0.0,0.0,0.0,-1.0
719328237,719328028,-0.07270263,0.45392713,0.0030319404,0.0,0.0,0.0,0.0,-1.0
719332237,719332032,-0.07219207,0.45376334,0.0028147583,0.0,0.0,0.0,0.0,-1.0
719336230,719336022,-0.072104275,0.45415115,0.0032236301,0.0,0.0,0.0,0.0,-1.0
719340457,719340021,-0.07255141,0.45451462,0.0032378957,0.0,0.0,0.0,0.0,-1.0
719344323,719344021,-0.07300795,0.45477742,0.0033462818,0.0,0.0,0.0,0.0,-1.0
719348233,719348028,-0.07350851,0.45459893,0.0034644105,0.0,0.0,0.0,0.0,-1.0
719352263,719352021,0.074318334,0.26112863,0.0030605018,0.0,0.0,0.0,0.0,-1.0
719356222,719356021,0.074646264,0.26090437,0.0028081173,0.0,0.0,0.0,0.0,-1.0
719360247,719360047,0.07493242,0.2608931,0.002749745,0.0,0.0,0.0,0.0,-1.0
719364299,719364021,0.07484491,0.26104096,0.0029423244,0.0,0.0,0.0,0.0,-1.0
719368232,719368028,0.074585594,0.26103652,0.0026698709,0.0,0.0,0.0,0.0,-1.0
719372251,719372022,0.07460846,0.26099885,0.0026345549,0.0,0.0,0.0,0.0,-1.0
719376225,719376022,0.1239747,0.043985337,0.0010891103,0.0,0.0,0.0,0.0,-1.0
719380232,719380024,0.124164894,0.044064812,0.001352195,0.0,0.0,0.0,0.0,-1.0
719384337,719384025,0.12413851,0.04451035,0.0012181726,0.0,0.0,0.0,0.0,-1.0
719388475,719388028,0.12421774,0.044799015,0.0010303435,0.0,0.0,0.0,0.0,-1.0
719392280,719392021,0.12436509,0.044545785,0.0010676894,0.0,0.0,0.0,0.0,-1.0
719396232,719396022,0.12418257,0.044169046,0.0009139241,0.0,0.0,0.0,0.0,-1.0
719400247,719400037,0.1515157,-0.05650741,0.00034080003,0.0,0.0,0.0,0.0,-1.0
719404300,719404021,0.15121777,-0.056454796,0.00032565728,0.0,0.0,0.0,0.0,-1.0
719408243,719408032,0.15100993,-0.056676216,0.00027549468,0.0,0.0,0.0,0.0,-1.0
719412457,719412021,0.15103482,-0.05658013,0.00045952798,0.0,0.0,0.0,0.0,-1.0
719416238,719416022,0.15087463,-0.05629298,0.0005385121,0.0,0.0,0.0,0.0,-1.0
719420251,719420041,0.118217565,-0.05068348,-0.00024919942,0.0,0.0,0.0,0.0,-1.0
719424305,719424021,0.1187182,-0.05021082,4.142311e-05,0.0,0.0,0.0,0.0,-1.0
719428269,719428022,0.11933582,-0.050014835,0.00025283752,0.0,0.0,0.0,0.0,-1.0
719432267,719432021,0.119431704,-0.050056946,0.00020720372,0.0,0.0,0.0,0.0,-1.0
719436232,719436022,0.11895548,-0.050354574,0.00041079367,0.0,0.0,0.0,0.0,-1.0
719440267,719440053,0.11836471,-0.05047,0.00022742372,0.0,0.0,0.0,0.0,-1.0
719444293,719444047,0.13034196,-0.02903389,0.0003659059,0.0,0.0,0.0,0.0,-1.0
719448293,719448021,0.13022383,-0.029156562,0.00041539498,0.0,0.0,0.0,0.0,-1.0
719452281,719452021,0.1302276,-0.02922002,0.000562852,0.0,0.0,0.0,0.0,-1.0
719456229,719456022,0.1304298,-0.029133532,0.00067415874,0.0,0.0,0.0,0.0,-1.0
719460436,719460033,0.13079147,-0.028870726,0.0005060229,0.0,0.0,0.0,0.0,-1.0
719464317,719464051,0.13115507,-0.029303405,0.0005540031,0.0,0.0,0.0,0.0,-1.0
719468277,719468021,0.13134283,-0.030049711,0.00047732724,0.0,0.0,0.0,0.0,-1.0
719472258,719472021,0.12917052,-0.023384355,0.0003287757,0.0,0.0,0.0,0.0,-1.0
719476239,719476022,0.12895656,-0.02310958,0.00060401595,0.0,0.0,0.0,0.0,-1.0
719480255,719480040,0.12874171,-0.022370148,0.0007135388,0.0,0.0,0.0,0.0,-1.0
719484456,719484021,0.12866296,-0.021609414,0.00049657316,0.0,0.0,0.0,0.0,-1.0
719488281,719488022,0.12848163,-0.021044977,0.00030527552,0.0,0.0,0.0,0.0,-1.0
719492315,719492021,0.12834673,-0.021531172,0.0003856083,0.0,0.0,0.0,0.0,-1.0
719496232,719496022,0.056644995,-0.023692202,0.00015733925,0.0,0.0,0.0,0.0,-1.0
719500278,719500028,0.0574773,-0.02424315,0.00019619626,0.0,0.0,0.0,0.0,-1.0
719504229,719504022,0.05787387,-0.024126204,0.0003397135,0.0,0.0,0.0,0.0,-1.0
719508462,719508021,0.057566203,-0.023555288,0.0003092082,0.0,0.0,0.0,0.0,-1.0
719512305,719512021,0.056958172,-0.023417015,4.670329e-05,0.0,0.0,0.0,0.0,-1.0
719516231,719516022,0.056554947,-0.023736164,0.0003306634,0.0,0.0,0.0,0.0,-1.0
719520263,719520022,0.014819231,-0.025841542,-0.00013072875,0.0,0.0,0.0,0.0,-1.0
719524233,719524021,0.01539322,-0.025723511,-0.00021315568,0.0,0.0,0.0,0.0,-1.0
719528225,719528034,0.015482031,-0.025913818,-0.00049658155,0.0,0.0,0.0,0.0,-1.0
719532322,719532028,0.014982607,-0.025918392,-0.0008519692,0.0,0.0,0.0,0.0,-1.0
719536229,719536022,0.014508886,-0.025856262,-0.0005633477,0.0,0.0,0.0,0.0,-1.0
719540268,719540022,0.014356117,-0.025734104,-1.9949466e-05,0.0,0.0,0.0,0.0,-1.0
719544226,719544022,0.01897791,-0.026196126,-0.00018926342,0.0,0.0,0.0,0.0,-1.0
719548265,719548062,0.019025,-0.025959307,-0.00023166025,0.0,0.0,0.0,0.0,-1.0
719552297,719552028,0.019395038,-0.02599374,-0.0003187082,0.0,0.0,0.0,0.0,-1.0
719556448,719556021,0.019845411,-0.02616731,-0.0006925324,0.0,0.0,0.0,0.0,-1.0
719560265,719560021,0.019975988,-0.0261216,-0.0006483657,0.0,0.0,0.0,0.0,-1.0
719564237,719564021,0.020320918,-0.02614415,-0.00038512363,0.0,0.0,0.0,0.0,-1.0
719568237,719568028,0.030213857,-0.026135152,0.00021261901,0.0,0.0,0.0,0.0,-1.0
719572313,719572028,0.029768433,-0.026352745,0.00010379737,0.0,0.0,0.0,0.0,-1.0
719576221,719576022,0.029228779,-0.026378991,-7.459938e-05,0.0,0.0,0.0,0.0,-1.0
719580461,719580021,0.029090323,-0.026279423,-0.0002350413,0.0,0.0,0.0,0.0,-1.0
719584233,719584021,0.02892108,-0.026338995,-0.00045290097,0.0,0.0,0.0,0.0,-1.0
719588260,719588051,0.029158395,-0.026401604,-0.00036069148,0.0,0.0,0.0,0.0,-1.0
719592308,719592028,0.032507848,-0.026445992,-0.0001306136,0.0,0.0,0.0,0.0,-1.0
719596262,719596021,0.032934923,-0.026543124,-0.00021558929,0.0,0.0,0.0,0.0,-1.0
719600248,719600021,0.03296411,-0.02645303,-8.227732e-05,0.0,0.0,0.0,0.0,-1.0
719604471,719604021,0.033087287,-0.025945412,0.00030745784,0.0,0.0,0.0,0.0,-1.0
719608239,719608036,0.03311252,-0.02549188,-7.4078e-05,0.0,0.0,0.0,0.0,-1.0
719612309,719612047,0.032617312,-0.025611155,4.329509e-06,0.0,0.0,0.0,0.0,-1.0
719616266,719616022,0.0311278,-0.025671339,2.568888e-05,0.0,0.0,0.0,0.0,-1.0
719620264,719620021,0.030734394,-0.02578426,-0.0001915675,0.0,0.0,0.0,0.0,-1.0
719624227,719624028,0.03062858,-0.02537047,-0.00014878696,0.0,0.0,0.0,0.0,-1.0
719628246,719628039,0.030832883,-0.025054155,-0.00028180963,0.0,0.0,0.0,0.0,-1.0
719632241,719632036,0.03174881,-0.025533266,-0.000100296435,0.0,0.0,0.0,0.0,-1.0
719636268,719636021,0.031705976,-0.02550067,2.9414286e-05,0.0,0.0,0.0,0.0,-1.0
719640262,719640021,0.03186759,-0.025765492,2.2047874e-05,0.0,0.0,0.0,0.0,-1.0
719644227,719644027,0.031240191,-0.02586942,-0.00017511366,0.0,0.0,0.0,0.0,-1.0
719648266,719648021,0.030822905,-0.02524638,-0.00042569125,0.0,0.0,0.0,0.0,-1.0
719652414,719652021,0.030294416,-0.025578855,-0.00019409107,0.0,0.0,0.0,0.0,-1.0
719656277,719656021,0.029976694,-0.026202325,-0.00013952768,0.0,0.0,0.0,0.0,-1.0
719660249,719660022,0.029579634,-0.026036302,-0.0003011056,0.0,0.0,0.0,0.0,-1.0
719664232,719664028,0.02930871,-0.025558984,-0.00046071628,0.0,0.0,0.0,0.0,-1.0
719668249,719668021,0.029412676,-0.02542318,-0.00056488573,0.0,0.0,0.0,0.0,-1.0
719672221,719672022,0.030160367,-0.02560472,-0.00025368217,0.0,0.0,0.0,0.0,-1.0
719676262,719676022,0.03068091,-0.02586592,-0.00013843286,0.0,0.0,0.0,0.0,-1.0
719680304,719680022,0.030700004,-0.026078485,-0.00013564444,0.0,0.0,0.0,0.0,-1.0
719684231,719684028,0.030597365,-0.026018575,-0.00047185738,0.0,0.0,0.0,0.0,-1.0
719688262,719688021,0.030994466,-0.026160033,-0.0003095929,0.0,0.0,0.0,0.0,-1.0
719692225,719692022,0.031095687,-0.025677418,1.5216205e-05,0.0,0.0,0.0,0.0,-1.0
719696280,719696070,0.03079326,-0.02523273,-0.00012824575,0.0,0.0,0.0,0.0,-1.0
719700304,719700021,0.030873759,-0.025440637,-0.00029231183,0.0,0.0,0.0,0.0,-1.0
719704237,719704028,0.030974923,-0.025905883,-0.00030483777,0.0,0.0,0.0,0.0,-1.0
719708256,719708021,0.031176612,-0.02609907,-0.00020836988,0.0,0.0,0.0,0.0,-1.0
719712224,719712022,0.031109255,-0.025964946,-0.00036481148,0.0,0.0,0.0,0.0,-1.0
719716223,719716022,0.030653797,-0.02584078,-0.00054289104,0.0,0.0,0.0,0.0,-1.0
719720319,719720022,0.030036103,-0.025577191,-0.0001585353,0.0,0.0,0.0,0.0,-1.0
719724246,719724021,0.029330214,-0.025773158,0.00011852498,0.0,0.0,0.0,0.0,-1.0
719728273,719728023,0.02958406,-0.02588379,-0.00034600272,0.0,0.0,0.0,0.0,-1.0
719732226,719732021,0.0303815,-0.026185904,-0.0003970407,0.0,0.0,0.0,0.0,-1.0
719736243,719736030,0.030749084,-0.025775446,-7.310372e-05,0.0,0.0,0.0,0.0,-1.0
719740313,719740021,0.030991245,-0.025113612,-0.00025852452,0.0,0.0,0.0,0.0,-1.0
719744233,719744022,0.030638613,-0.024684602,-3.2101293e-06,0.0,0.0,0.0,0.0,-1.0
719748265,719748021,0.030725595,-0.025139133,-0.00013527895,0.0,0.0,0.0,0.0,-1.0
719752231,719752021,0.03087354,-0.026339158,-0.0003580772,0.0,0.0,0.0,0.0,-1.0
719756238,719756031,0.031215036,-0.026784679,-0.00037260924,0.0,0.0,0.0,0.0,-1.0
719760317,719760021,0.031279,-0.026469091,-0.00025067964,0.0,0.0,0.0,0.0,-1.0
719764422,719764021,0.030841775,-0.02561731,1.5983218e-05,0.0,0.0,0.0,0.0,-1.0
719768240,719768022,0.03027486,-0.025361096,-0.00022705177,0.0,0.0,0.0,0.0,-1.0
719772233,719772021,0.030018087,-0.025304269,-0.0004348436,0.0,0.0,0.0,0.0,-1.0
719776270,719776063,0.03020304,-0.025365578,-0.00026708687,0.0,0.0,0.0,0.0,-1.0
719780296,719780046,0.030594712,-0.02560838,-8.522323e-05,0.0,0.0,0.0,0.0,-1.0
719784274,719784022,0.03075131,-0.02578458,-0.00031113008,0.0,0.0,0.0,0.0,-1.0
719788461,719788021,0.03018442,-0.025755633,-0.0006036141,0.0,0.0,0.0,0.0,-1.0
719792225,719792022,0.029848576,-0.025893426,-0.00057046127,0.0,0.0,0.0,0.0,-1.0
719796276,719796028,0.030082293,-0.026391782,-0.00049001677,0.0,0.0,0.0,0.0,-1.0
719800252,719800053,0.030678157,-0.026147699,-0.0006827475,0.0,0.0,0.0,0.0,-1.0
719804263,719804021,0.030905856,-0.02584181,-0.00035520794,0.0,0.0,0.0,0.0,-1.0
719808266,719808021,0.031066593,-0.025700107,-0.00024033392,0.0,0.0,0.0,0.0,-1.0
719812414,719812021,0.03102947,-0.025840744,-0.00026924882,0.0,0.0,0.0,0.0,-1.0
719816265,719816022,0.030962368,-0.026152482,-0.00034693078,0.0,0.0,0.0,0.0,-1.0
719820241,719820022,0.030487772,-0.02590409,-0.00024421728,0.0,0.0,0.0,0.0,-1.0
719824269,719824021,0.03036208,-0.02577643,-0.0003972143,0.0,0.0,0.0,0.0,-1.0
719828274,719828028,0.03081122,-0.025141465,-0.00026957112,0.0,0.0,0.0,0.0,-1.0
719832224,719832022,0.031177629,-0.025101928,-0.00014438732,0.0,0.0,0.0,0.0,-1.0
719836270,719836021,0.031074317,-0.025479238,1.0139519e-05,0.0,0.0,0.0,0.0,-1.0
719840228,719840021,0.030513424,-0.025743585,-0.00021892697,0.0,0.0,0.0,0.0,-1.0
719844287,719844038,0.030149436,-0.0258105,-0.00021300775,0.0,0.0,0.0,0.0,-1.0
719848322,719848028,0.029997213,-0.026050635,-0.0003537845,0.0,0.0,0.0,0.0,-1.0
719852237,719852033,0.03001572,-0.025935855,-0.00034997074,0.0,0.0,0.0,0.0,-1.0
719856270,719856021,0.03023259,-0.025640402,-0.0003005412,0.0,0.0,0.0,0.0,-1.0
719860451,719860021,0.03032273,-0.025332252,-2.5007874e-05,0.0,0.0,0.0,0.0,-1.0
719864285,719864079,0.03064875,-0.02558926,-6.0250703e-05,0.0,0.0,0.0,0.0,-1.0
719868323,719868028,0.030718982,-0.026179092,-0.00014131579,0.0,0.0,0.0,0.0,-1.0
719872222,719872022,0.030755505,-0.026567616,-1.7797807e-06,0.0,0.0,0.0,0.0,-1.0
719876264,719876021,0.030527186,-0.026166365,-0.00030245574,0.0,0.0,0.0,0.0,-1.0
719880224,719880022,0.030502811,-0.025433902,-0.00021200732,0.0,0.0,0.0,0.0,-1.0
719884245,719884039,0.030732736,-0.025181765,0.000312176,0.0,0.0,0.0,0.0,-1.0
719888305,719888028,0.030819355,-0.025512556,0.0003113239,0.0,0.0,0.0,0.0,-1.0
719892233,719892023,0.030636534,-0.025806721,-3.615208e-06,0.0,0.0,0.0,0.0,-1.0
719896249,719896022,0.030505449,-0.026154626,-1.704963e-05,0.0,0.0,0.0,0.0,-1.0
719900222,719900021,0.030583715,-0.02632256,0.00010680182,0.0,0.0,0.0,0.0,-1.0
719904232,719904030,0.030474346,-0.025931569,-6.358884e-05,0.0,0.0,0.0,0.0,-1.0
719908509,719908028,0.03049087,-0.025366992,-0.00018178609,0.0,0.0,0.0,0.0,-1.0
719912224,719912022,0.030415732,-0.025096487,-3.1939428e-05,0.0,0.0,0.0,0.0,-1.0
719916270,719916022,0.030653792,-0.025461325,-0.00016070265,0.0,0.0,0.0,0.0,-1.0
719920226,719920022,0.0303689,-0.025835076,-0.00037943735,0.0,0.0,0.0,0.0,-1.0
719925043,719924822,0.030083358,-0.02593519,-0.00037111962,0.0,0.0,0.0,0.0,-1.0
719929074,719928828,0.030219022,-0.025651425,-0.0003193116,0.0,0.0,0.0,0.0,-1.0
719933023,719932822,0.03053782,-0.025290435,0.0002126287,0.0,0.0,0.0,0.0,-1.0
719937061,719936822,0.03077449,-0.025231741,0.00011050354,0.0,0.0,0.0,0.0,-1.0
719941052,719940836,0.031153278,-0.025654757,-0.00013856756,0.0,0.0,0.0,0.0,-1.0
719945079,719944849,0.031112133,-0.026144693,-0.00024110897,0.0,0.0,0.0,0.0,-1.0
719949107,719948828,0.030764643,-0.026287239,-0.00017981433,0.0,0.0,0.0,0.0,-1.0
719953022,719952822,0.030466272,-0.026204703,-0.00043884479,0.0,0.0,0.0,0.0,-1.0
719957049,719956822,0.030557062,-0.025842493,-0.0004459852,0.0,0.0,0.0,0.0,-1.0
719961021,719960822,0.03078912,-0.02597005,-0.0005578788,0.0,0.0,0.0,0.0,-1.0
719965127,719964898,0.031106353,-0.025812738,-0.0005343125,0.0,0.0,0.0,0.0,-1.0
719969054,719968822,0.03140658,-0.02564731,-0.00061442424,0.0,0.0,0.0,0.0,-1.0
719972998,719972822,0.031002132,-0.025426423,-0.0004913524,0.0,0.0,0.0,0.0,-1.0
719977048,719976822,0.030380446,-0.02581674,-0.00030009638,0.0,0.0,0.0,0.0,-1.0
719981022,719980822,0.02973673,-0.02598938,-0.00023172784,0.0,0.0,0.0,0.0,-1.0
719985073,719984874,0.029928656,-0.026219774,-0.00028149565,0.0,0.0,0.0,0.0,-1.0
719989035,719988822,0.030394409,-0.026312074,-0.0005733639,0.0,0.0,0.0,0.0,-1.0
719993001,719992828,0.030899087,-0.02643918,-0.0005737917,0.0,0.0,0.0,0.0,-1.0
719997035,719996821,0.03077139,-0.026247036,-0.00028743592,0.0,0.0,0.0,0.0,-1.0
720001001,720000822,0.030316155,-0.025631936,-6.391674e-05,0.0,0.0,0.0,0.0,-1.0
720005888,720005621,0.030385723,-0.025386756,-6.740505e-05,0.0,0.0,0.0,0.0,-1.0
720009852,720009622,0.030220455,-0.025797842,1.08185695e-05,0.0,0.0,0.0,0.0,-1.0
720013821,720013622,0.030225359,-0.025992243,-0.00019401559,0.0,0.0,0.0,0.0,-1.0
720017889,720017640,0.03055967,-0.02559053,-9.3576455e-05,0.0,0.0,0.0,0.0,-1.0
720021821,720021622,0.03073214,-0.025382934,-0.00017178517,0.0,0.0,0.0,0.0,-1.0
720025925,720025652,0.030565614,-0.025194768,-0.00030994878,0.0,0.0,0.0,0.0,-1.0
720029863,720029621,0.030390915,-0.025230672,-0.00018447936,0.0,0.0,0.0,0.0,-1.0
720033819,720033622,0.030499682,-0.025220156,-0.00021747689,0.0,0.0,0.0,0.0,-1.0
720037883,720037650,0.030839391,-0.025393607,-8.114875e-05,0.0,0.0,0.0,0.0,-1.0
720041818,720041622,0.031123169,-0.025826285,-7.41998e-05,0.0,0.0,0.0,0.0,-1.0
720045929,720045652,0.03082527,-0.026253093,-0.0002453802,0.0,0.0,0.0,0.0,-1.0
720049947,720049654,0.03038082,-0.026292227,-0.00027314294,0.0,0.0,0.0,0.0,-1.0
720053825,720053621,0.03010557,-0.025817577,-0.00038405095,0.0,0.0,0.0,0.0,-1.0
720057896,720057640,0.030240031,-0.02556872,-0.0005256741,0.0,0.0,0.0,0.0,-1.0
720061843,720061628,0.030537974,-0.02592876,-0.0003290258,0.0,0.0,0.0,0.0,-1.0
720065899,720065673,0.030671129,-0.025958274,-0.00027046236,0.0,0.0,0.0,0.0,-1.0
720069859,720069622,0.030624857,-0.025860038,7.908913e-05,0.0,0.0,0.0,0.0,-1.0
720073837,720073622,0.030150969,-0.025409933,-0.00023456286,0.0,0.0,0.0,0.0,-1.0
720077873,720077640,0.029769676,-0.025475077,-0.00044961265,0.0,0.0,0.0,0.0,-1.0
720081824,720081628,0.029900784,-0.025986915,-0.00051636755,0.0,0.0,0.0,0.0,-1.0
720085906,720085675,0.030204665,-0.026200011,-0.00028286394,0.0,0.0,0.0,0.0,-1.0
720089902,720089622,0.030776558,-0.026124356,-6.2219406e-05,0.0,0.0,0.0,0.0,-1.0
720093821,720093621,0.03111487,-0.025724534,4.439624e-05,0.0,0.0,0.0,0.0,-1.0
720097891,720097640,0.030802513,-0.025211489,-0.00012268811,0.0,0.0,0.0,0.0,-1.0
720101836,720101628,0.030691002,-0.025272273,-0.0004585789,0.0,0.0,0.0,0.0,-1.0
720105900,720105622,0.030685794,-0.025977558,-0.00014030669,0.0,0.0,0.0,0.0,-1.0
720109864,720109622,0.030678788,-0.026536498,0.00010088976,0.0,0.0,0.0,0.0,-1.0
720113819,720113622,0.030917754,-0.026278855,-0.0002910296,0.0,0.0,0.0,0.0,-1.0
720117877,720117645,0.030676575,-0.025929607,-0.0006757954,0.0,0.0,0.0,0.0,-1.0
720121823,720121622,0.030890338,-0.025616948,-0.00073954056,0.0,0.0,0.0,0.0,-1.0
720125877,720125622,0.030846627,-0.025373567,-0.00040047924,0.0,0.0,0.0,0.0,-1.0
720129866,720129622,0.030581225,-0.025751818,-0.000502789,0.0,0.0,0.0,0.0,-1.0
720133872,720133622,0.030567702,-0.026092889,-0.0003644405,0.0,0.0,0.0,0.0,-1.0
720137892,720137640,0.030669976,-0.025935436,4.5538112e-05,0.0,0.0,0.0,0.0,-1.0
720141821,720141622,0.030585298,-0.025582008,4.263909e-05,0.0,0.0,0.0,0.0,-1.0
720145913,720145622,0.030589508,-0.02573683,-0.00024496947,0.0,0.0,0.0,0.0,-1.0
720149848,720149651,0.030106846,-0.025576819,-0.00044880048,0.0,0.0,0.0,0.0,-1.0
720153863,720153622,0.029811604,-0.02566339,-0.0005400859,0.0,0.0,0.0,0.0,-1.0
720157885,720157640,0.030305203,-0.025470825,-3.2375312e-05,0.0,0.0,0.0,0.0,-1.0
720161830,720161622,0.030850077,-0.025728228,-0.0003858618,0.0,0.0,0.0,0.0,-1.0
720165912,720165627,0.030971978,-0.026167553,-0.00035903466,0.0,0.0,0.0,0.0,-1.0
720169855,720169649,0.030702438,-0.026585879,3.170548e-06,0.0,0.0,0.0,0.0,-1.0
720173895,720173655,0.030631175,-0.026300203,-1.7533102e-05,0.0,0.0,0.0,0.0,-1.0
720177879,720177640,0.030530788,-0.025869986,6.593168e-05,0.0,0.0,0.0,0.0,-1.0
720181838,720181621,0.030530307,-0.025557226,-0.00016599384,0.0,0.0,0.0,0.0,-1.0
720185917,720185622,0.030967562,-0.02550272,-0.00027658182,0.0,0.0,0.0,0.0,-1.0
720189819,720189622,0.03095099,-0.025238657,-0.00033830825,0.0,0.0,0.0,0.0,-1.0
720193906,720193666,0.030429084,-0.025362499,-9.344558e-05,0.0,0.0,0.0,0.0,-1.0
720197866,720197640,0.029702665,-0.025397489,-0.00015003157,0.0,0.0,0.0,0.0,-1.0
