timestamp,gyro_rad[0],gyro_rad[1],gyro_rad[2],gyro_integral_dt,accelerometer_timestamp_relative,accelerometer_m_s2[0],accelerometer_m_s2[1],accelerometer_m_s2[2],accelerometer_integral_dt
717093622,0.0005026654,-0.0006613289,0.002907477,4000,0,0.20591551,0.29812604,-9.66588,4000
717097652,-0.0010128297,-0.001102792,0.0028815835,4030,0,0.2192336,0.2917133,-9.6552305,4030
717101629,5.899846e-05,-0.0009919972,0.0030008566,3977,0,0.20335054,0.29413906,-9.655041,3977
717105622,-4.11931e-06,-0.0007381633,0.0013062888,3993,0,0.21692525,0.29393798,-9.640036,3993
717109622,-0.002379094,-0.0020606087,0.0023009032,4000,0,0.22783993,0.28523037,-9.633244,4000
717113621,-0.0018588118,0.0004766843,0.002671225,3999,0,0.2232269,0.29572192,-9.633127,3999
717117640,-0.0016492432,-0.00025235428,0.002872606,4019,0,0.2152753,0.29610258,-9.629564,4019
717121628,-0.0018167135,-0.001608964,0.00135842,3988,0,0.20796114,0.28398013,-9.646095,3988
717125635,-0.00091054244,0.00017331495,0.0031121047,4007,0,0.20954305,0.27978265,-9.650873,4007
717129622,-0.00059481885,-0.0016473943,0.0034070439,3987,0,0.20338698,0.27556205,-9.656844,3987
717133622,-0.0011957681,-0.00055484916,0.0018143872,4000,0,0.20006223,0.27890354,-9.655854,4000
717137640,-0.00036930572,0.0012408503,0.0027178335,4018,0,0.18752682,0.2965153,-9.654433,4018
717141622,-0.00087276415,0.00040901962,0.0016228338,3982,0,0.19078398,0.30117393,-9.6490555,3982
717145637,-0.00047085335,-4.2752436e-05,0.0027944641,4015,0,0.20315824,0.2735819,-9.645486,4015
717149622,-0.001240955,-0.0014395127,0.003811854,3985,0,0.2050981,0.28923705,-9.646001,3985
717153628,0.00014332325,-0.00066524616,0.0032328942,4006,0,0.20180061,0.2864168,-9.64759,4006
717157640,-0.00042874832,-0.0012711312,0.00053935853,4012,0,0.19183215,0.2875782,-9.633533,4012
717161622,-0.00022761778,-0.00033395796,0.0010960988,3982,0,0.197491,0.28831157,-9.650061,3982
717165638,-0.0002400854,-0.0012914179,0.0020318602,4016,0,0.20853929,0.30163196,-9.651006,4016
717169622,-0.002228759,0.00022477059,0.00031128828,3984,0,0.1988072,0.2926654,-9.623298,3984
717173622,-0.0014046021,0.0024330113,0.0015392919,4000,0,0.19082378,0.3007247,-9.650961,4000
717177640,-0.000647907,-0.00076209416,0.001185051,4018,0,0.19270308,0.29927593,-9.6513815,4018
717181622,-0.0015110837,0.000411146,0.0016085407,3982,0,0.20934348,0.30332717,-9.6629,3982
717185651,-0.00065553683,-6.744967e-06,0.0013038042,4029,0,0.1970435,0.28548822,-9.649165,4029
717189622,-0.0010754731,0.0026517557,0.0011238531,3971,0,0.20300756,0.29402122,-9.618537,3971
717193628,-0.00043377708,-0.0013846019,0.0010639555,4006,0,0.20755191,0.28516534,-9.628948,4006
717197640,-0.0006812402,-0.0016287061,0.002771094,4012,0,0.21992595,0.2847164,-9.662865,4012
717201622,-0.0020722335,-0.001527332,0.0027359729,3982,0,0.21379541,0.30533677,-9.668892,3982
717205636,-0.0011365676,-0.0014374586,0.00382449,4014,0,0.18988574,0.29931343,-9.6524315,4014
717209635,0.00027891176,-0.00248004,0.0026637018,3999,0,0.20477748,0.2830937,-9.649996,3999
717213628,-0.0030139452,-0.0006578785,0.0021958402,3993,0,0.20812641,0.2845065,-9.650826,3993
717217640,-0.0030631458,-0.0030345195,0.0043924632,4012,0,0.2045734,0.294751,-9.662696,4012
717221622,-0.0031085662,0.000621777,0.001570604,3982,0,0.22591268,0.29061794,-9.673119,3982
717226460,-0.00244109,-0.00033357835,0.003460188,4838,0,0.21538764,0.2957104,-9.6487,4838
717230422,-0.00048377877,-3.1329037e-05,0.003323808,3962,0,0.2222189,0.29333878,-9.635551,3962
717235221,0.0014087536,-0.0011074102,0.0019332746,4799,0,0.21786256,0.28632572,-9.633397,4799
717239238,-0.00024973447,-0.0016288096,0.0024572157,4017,0,0.21244259,0.2774207,-9.652251,4017
717243234,0.00019696867,-0.0022370073,0.001180608,3996,0,0.21109205,0.28518242,-9.6556,3996
717247222,-0.0010766651,-0.00043460575,0.0014952571,3988,0,0.21256632,0.29650572,-9.652893,3988
717251222,-0.001599771,-0.0005366821,0.0008467378,4000,0,0.19917902,0.28849432,-9.659532,4000
717255222,-0.0012940734,-0.0009648208,0.0016943365,4000,0,0.20935862,0.27620497,-9.663826,4000
717259245,-0.0011638744,-0.0022272721,0.00051405386,4023,0,0.20365569,0.2820696,-9.646187,4023
717263225,-0.0013001142,8.327693e-05,0.0016055033,3980,0,0.2035346,0.28073525,-9.619569,3980
717267224,-0.0014535146,-0.0008991796,0.0038264436,3999,0,0.20001535,0.29866958,-9.613696,3999
717271230,-0.001616958,-0.002782561,0.0016586807,4006,0,0.20721401,0.2966111,-9.634023,4006
717275222,-0.0030231776,0.0011304193,0.002646452,3992,0,0.20615448,0.28893635,-9.629903,3992
717279222,-0.0030229497,0.0022099067,0.0027694693,4000,0,0.20182672,0.29796204,-9.627987,4000
717283222,-0.0023008664,-0.0016432324,0.0034740875,4000,0,0.21189743,0.30561796,-9.629002,4000
717287222,-0.0029379865,-0.0009924029,0.0034687726,4000,0,0.2193401,0.30134815,-9.657211,4000
717291222,-0.0026907742,-0.0013008122,0.0019799087,4000,0,0.20459183,0.28049552,-9.665237,4000
717295228,-0.0010754251,0.00042553572,0.00096972956,4006,0,0.1999256,0.28022084,-9.651549,4006
717299222,-0.001166365,0.0009431677,0.0012129524,3994,0,0.20558973,0.2910211,-9.666483,3994
717303222,-0.0005326245,-0.001385795,0.00075162534,4000,0,0.20793234,0.2982403,-9.643952,4000
717307222,1.0789146e-05,-0.00022148731,0.0004636368,4000,0,0.2152334,0.28453988,-9.648258,4000
717311222,-0.001090711,0.00052066566,0.0015113127,4000,0,0.21360055,0.27840686,-9.681703,4000
717315228,0.00093054585,-0.0002371033,0.0019773163,4006,0,0.22080216,0.28775337,-9.700864,4006
717319222,-0.0013747318,-0.00011309968,0.00075669267,3994,0,0.20973282,0.2945186,-9.678731,3994
717323222,-0.0024756936,-0.00076702016,0.001887291,4000,0,0.21080066,0.29428598,-9.663914,4000
717327238,-0.0007622682,-0.0020375913,0.0013662842,4016,0,0.19476677,0.28068736,-9.674961,4016
717331222,-0.0011683374,-0.0024417292,0.00051369035,3984,0,0.20745361,0.2923428,-9.661663,3984
717335222,-0.0006915076,-0.00016731423,0.0033231368,4000,0,0.2027229,0.29114673,-9.647005,4000
717339222,-0.00060343737,-4.9585557e-05,0.0037546058,4000,0,0.2007587,0.294763,-9.665069,4000
717343222,-0.0011933859,-0.0010747134,0.0014864855,4000,0,0.21229276,0.29533857,-9.668736,4000
717347251,0.0012427677,-0.0009784667,0.002605416,4029,0,0.2203203,0.28531504,-9.640503,4029
717351222,0.0010504094,-0.00022950314,0.0011264774,3971,0,0.21486837,0.28904867,-9.633043,3971
717355222,-0.00023265953,0.0013889814,0.0015600118,4000,0,0.2198582,0.2715365,-9.640802,4000
717359222,-0.00032546467,-0.00011590825,0.0009847475,4000,0,0.2175266,0.27630866,-9.642666,4000
717363222,0.0020700423,0.0011311272,0.0026576184,4000,0,0.21441807,0.28826082,-9.654389,4000
717367231,-0.0021219403,-0.0017022071,0.0006027431,4009,0,0.19872141,0.29326802,-9.660418,4009
717371222,-0.0011921767,-0.00054737355,0.0016014231,3991,0,0.20318064,0.28719842,-9.666115,3991
717375222,-0.001774804,-0.0009024149,0.004026583,4000,0,0.21135955,0.29866096,-9.66722,4000
717379222,-0.0009924489,-0.00011620156,0.0024659822,4000,0,0.21358766,0.29449207,-9.64545,4000
717383222,-0.0016261482,-0.00310269,0.001975247,4000,0,0.21236648,0.28545773,-9.647817,4000
717387253,-0.0015619646,0.00022754629,-0.00019366769,4031,0,0.21608695,0.2953543,-9.641345,4031
717391241,0.0008262978,-0.00034168424,0.0015453647,3988,0,0.22050357,0.29367498,-9.630971,3988
717395222,-0.0017436405,-0.0020492226,0.002202768,3981,0,0.20951942,0.29083523,-9.630742,3981
717399222,-0.0013277773,-0.00068569474,0.0028739218,4000,0,0.20767249,0.29089922,-9.629214,4000
717404021,-0.002400719,0.0012882111,0.0017984839,4799,0,0.20745969,0.28513348,-9.634065,4799
717408828,-0.0023043826,0.00023383385,0.0014274291,4807,0,0.20756157,0.29921335,-9.621124,4807
717412821,-0.0033154963,0.00019769718,0.0016751841,3993,0,0.19980194,0.3054065,-9.644457,3993
717416821,-0.0028819742,-0.0013828219,0.0006936887,4000,0,0.19514719,0.3020234,-9.671284,4000
717420850,-0.0022380825,-0.0029792136,0.0011200297,4029,0,0.1935536,0.28765932,-9.664892,4029
717424821,-0.0028081003,-1.9280968e-05,0.0022111915,3971,0,0.19512054,0.28488493,-9.671638,3971
717428828,-0.0020239246,-0.0012766231,0.000505113,4007,0,0.209448,0.2795723,-9.667554,4007
717432821,0.0002709349,-0.0029169573,0.0027673335,3993,0,0.20900966,0.28500208,-9.648384,3993
717436821,2.9496423e-05,-0.0013352353,0.0043854974,4000,0,0.20781863,0.2884728,-9.659467,4000
717440822,-0.002164485,-0.0022602656,0.0023031626,4001,0,0.2007294,0.28111258,-9.642946,4001
717444834,-0.0014164093,-0.00045388442,0.002022843,4012,0,0.20390095,0.27872658,-9.615943,4012
717448831,0.00031089195,-0.0006471714,0.0012106679,3997,0,0.22109337,0.2975821,-9.632324,3997
717452821,-0.0003523774,0.0021057026,0.0020905512,3990,0,0.21647336,0.2786384,-9.639794,3990
717456822,-0.0007829404,-0.00087661186,0.0021380782,4001,0,0.21542513,0.2809144,-9.635115,4001
717460821,-0.0006494458,-0.0011812504,0.0012871335,3999,0,0.20880632,0.29529232,-9.640139,3999
717464847,-0.0022731044,-0.0035405157,0.0024693504,4026,0,0.20820735,0.28506687,-9.678181,4026
717468828,-0.0021404063,-0.0009534105,0.0014605351,3981,0,0.19539091,0.28663993,-9.662923,3981
717472821,-0.0030939968,-0.0012865715,0.0010130971,3993,0,0.21713494,0.29734692,-9.646583,3993
717476821,-1.8296545e-05,-0.0005577699,0.0012032082,4000,0,0.2292932,0.2885282,-9.629928,4000
717480832,0.0001946735,0.00042203517,0.0014373593,4011,0,0.21626726,0.28039032,-9.630695,4011
717484822,-0.0016754476,-0.0013671883,-0.00044617156,3990,0,0.21132933,0.28636646,-9.645477,3990
717488822,-0.0013738713,-0.0018048156,0.00029909486,4000,0,0.2165973,0.27731055,-9.645044,4000
717492822,-0.0014392606,0.00091706705,0.0030030983,4000,0,0.21688642,0.27955377,-9.63692,4000
717496822,0.00061287056,-0.002490291,0.0020283507,4000,0,0.21220703,0.289632,-9.640213,4000
717500828,-0.0014085696,0.0023070814,0.00187098,4006,0,0.21316332,0.28137526,-9.662009,4006
717504822,-0.0020429788,0.001154414,0.0016102112,3994,0,0.20670761,0.2764775,-9.652911,3994
717508831,9.153293e-05,-0.00075670646,0.0014161607,4009,0,0.19023567,0.296989,-9.625842,4009
717512821,0.0001761563,0.0028462454,0.0023284953,3990,0,0.20951656,0.29956275,-9.608717,3990
717516822,7.870365e-05,8.790985e-05,0.0022682715,4001,0,0.21849449,0.29498023,-9.645709,4001
717520828,0.0009516199,-0.0016719084,0.0053557185,4006,0,0.21304493,0.283821,-9.636008,4006
717524821,-0.00044404864,-0.00150749,0.0018246758,3993,0,0.1972806,0.27054742,-9.638958,3993
717528837,-0.0029917553,-0.0032040912,0.001303974,4016,0,0.204596,0.28495812,-9.646184,4016
717532821,-0.0026267178,-0.001861897,0.003784498,3984,0,0.19997147,0.28490227,-9.672882,3984
717536822,-0.0021533815,-0.0010133716,0.0028666637,4001,0,0.20287469,0.29782394,-9.650105,4001
717540830,-0.002709794,-0.0005659021,0.0027364306,4008,0,0.20811197,0.2931588,-9.652103,4008
717544822,-0.00076365576,0.0005144395,0.0014165799,3992,0,0.21379614,0.28450602,-9.647375,3992
717548861,0.0006598873,-0.0011575777,-0.00017684892,4039,0,0.20014179,0.27633247,-9.641636,4039
717552821,-0.0006567725,-0.0017220135,0.0015965081,3960,0,0.19316854,0.29056305,-9.668756,3960
717556822,-0.00021682026,-0.0006430947,0.00087782164,4001,0,0.2148252,0.297276,-9.671852,4001
717560828,-0.0006291359,-0.0010560789,0.00043823276,4006,0,0.20335118,0.28206107,-9.672815,4006
717564821,-0.0022381179,-0.0025531529,0.0011161951,3993,0,0.20226319,0.27712047,-9.665255,3993
717568852,-0.0013202468,-0.00057437323,0.0026523299,4031,0,0.21839382,0.28801823,-9.659202,4031
717572821,0.00083630934,-0.0013983932,0.0014239019,3969,0,0.23682338,0.300557,-9.6679535,3969
717576822,-0.00076239725,0.00030786535,0.0015240907,4001,0,0.22874132,0.29883185,-9.650139,4001
717581629,-0.0005987168,-0.0008108462,0.00029870562,4807,0,0.20955035,0.29974264,-9.653924,4807
717585622,-0.0003330414,0.0016784983,0.0010201377,3993,0,0.20611666,0.28408507,-9.64853,3993
717589639,-0.0001169426,0.00051867985,0.0011193624,4017,0,0.22283903,0.29481667,-9.664566,4017
717593622,0.00016269097,-0.0011003371,0.00300641,3983,0,0.22763897,0.30814543,-9.6661625,3983
717597654,0.0002922691,-0.0010780075,0.0021651979,4032,0,0.21449731,0.297935,-9.657976,4032
717601628,-0.00090103335,0.00081706524,0.0024760582,3974,0,0.21344727,0.2794606,-9.634552,3974
717605622,-0.0018247938,0.0009513472,0.0009678385,3994,0,0.20431243,0.27938294,-9.632857,3994
717609646,-0.0011093377,0.0010239537,0.0028004798,4024,0,0.20092954,0.2898393,-9.6552725,4024
717613642,-0.00044964522,0.000406996,0.001739427,3996,0,0.1987463,0.29231438,-9.65844,3996
717617640,-0.0004746494,-0.00014298107,0.00280376,3998,0,0.19397154,0.30199048,-9.6398945,3998
717621628,-0.00038428072,5.1612493e-05,0.0035417932,3988,0,0.21078168,0.2951935,-9.663024,3988
717625622,-0.00011639104,0.0006322523,0.0011114778,3994,0,0.22171903,0.29229552,-9.658455,3994
717629669,0.00028875412,0.00073409115,0.0021849435,4047,0,0.22837219,0.28275153,-9.657086,4047
717633622,0.00027743285,-0.0021901499,0.002364681,3953,0,0.20546862,0.2857479,-9.666612,3953
717637640,-0.0019418906,-0.00034196916,0.0016940321,4018,0,0.21243455,0.30076355,-9.651436,4018
717641628,-0.0025095758,-0.00057191885,0.003382816,3988,0,0.21426624,0.29685172,-9.648557,3988
717645622,0.000102111975,3.325651e-06,0.00068814674,3994,0,0.201786,0.29212412,-9.64612,3994
717649675,-0.00030648074,-0.0023407186,0.00041934403,4053,0,0.20568423,0.27579913,-9.672089,4053
717653622,-0.0005708012,-0.00128464,0.0017304101,3947,0,0.20164965,0.27338433,-9.664236,3947
717657640,-0.0028121704,0.0015677442,0.0025552013,4018,0,0.20159382,0.28482732,-9.640468,4018
717661622,-0.0009919925,-0.0013074932,0.0023397242,3982,0,0.21325609,0.294792,-9.665741,3982
717665622,-0.0010158693,-0.0019638478,0.0031794629,4000,0,0.21332952,0.28343365,-9.669732,4000
717669622,0.0012033323,-0.00068830093,0.0038838151,4000,0,0.21177255,0.29374537,-9.663015,4000
717673622,-0.000645533,-0.00075790996,0.0011907646,4000,0,0.20352617,0.29425445,-9.661736,4000
717677649,-0.00087972713,-0.00022977707,0.001829229,4027,0,0.20656122,0.29305154,-9.64691,4027
717681622,0.00047992414,-0.0007687943,0.002915613,3973,0,0.21069673,0.27319026,-9.659099,3973
717685622,-0.000781982,7.973416e-05,0.002473355,4000,0,0.20880027,0.28563258,-9.661308,4000
717689622,-0.0016273858,-0.00023673281,0.0020221514,4000,0,0.21637927,0.28954038,-9.635816,4000
717693628,-0.00267736,-0.0010724559,0.0014497199,4006,0,0.20862883,0.29897106,-9.632023,4006
717697661,-0.001983895,5.6551526e-05,0.0036173393,4033,0,0.21937364,0.2932529,-9.6599655,4033
717701621,-0.0016125534,-0.00031710326,0.0015738016,3960,0,0.21495974,0.28361833,-9.658666,3960
717705622,-0.0019608056,0.00049519114,0.0026650615,4001,0,0.21347399,0.29556844,-9.654806,4001
717709622,-0.0024914197,0.001456891,0.0025623422,4000,0,0.22026427,0.2899063,-9.658061,4000
717713653,-0.0006527027,0.00052556384,0.0012045607,4031,0,0.21384674,0.2760535,-9.65134,4031
717717669,-0.00033738327,-0.0010041348,0.0021510853,4016,0,0.21227,0.29208165,-9.645683,4016
717721622,-0.002226797,-0.0023377466,0.0002474965,3953,0,0.2131019,0.2988771,-9.679656,3953
717725622,-0.00065169885,0.0012687222,0.001323012,4000,0,0.21460322,0.29807958,-9.662347,4000
717729622,-0.0004589312,-0.0011962861,0.0021403986,4000,0,0.22221482,0.2913591,-9.659414,4000
717733649,0.0010181728,-0.0024684924,0.0021649078,4027,0,0.21664691,0.28593233,-9.649196,4027
717737649,0.0012237603,-0.000990936,0.0033483147,4000,0,0.20005073,0.27992177,-9.658224,4000
717741657,-0.00091928634,0.0014598739,0.0031440323,4008,0,0.18309355,0.2981122,-9.6521225,4008
717746422,-0.00019379082,-0.0012067183,0.00215061,4765,0,0.20028204,0.30033153,-9.647426,4765
717750436,-0.00016201183,0.00017223255,0.0031212885,4014,0,0.20068656,0.28966802,-9.641884,4014
717754428,0.0011345102,0.0002912411,0.002094773,3992,0,0.19410865,0.29605126,-9.626233,3992
717758422,-0.0015324978,-0.00045829214,0.0022477917,3994,0,0.20407347,0.28168863,-9.624809,3994
717762426,-0.00042702287,0.0006363926,0.00078783516,4004,0,0.22437362,0.28404585,-9.649035,4004
717766422,-0.0003658225,-0.000672892,0.0026844935,3996,0,0.21464147,0.28106484,-9.64312,3996
717770422,0.00017146839,-3.066211e-05,0.002493936,4000,0,0.21679902,0.31173757,-9.653503,4000
717774428,0.0005376428,-0.00074393314,0.0004682606,4006,0,0.22506423,0.30324006,-9.658664,4006
717778422,-0.0007634151,-0.001821928,0.0018046362,3994,0,0.20084508,0.28176168,-9.627222,3994
717783221,-0.0020649065,-0.0015549164,0.0023801764,4799,0,0.2083845,0.29154605,-9.640605,4799
717787222,-0.0016241822,-0.0017247089,0.0018926663,4001,0,0.2120373,0.300334,-9.655238,4001
717791262,-0.0015413776,-0.0011856662,0.0024380975,4040,0,0.21640871,0.2932526,-9.6594715,4040
717795222,-0.0020287372,0.0022302056,0.000986945,3960,0,0.20520166,0.29324326,-9.630288,3960
717799222,-0.0012004203,-0.0007616118,0.0024372917,4000,0,0.21165657,0.2909564,-9.641274,4000
717803222,-0.0019423126,0.00018443193,0.002026349,4000,0,0.21869035,0.29177183,-9.6532545,4000
717807222,-0.001088175,-0.001825868,0.0015846477,4000,0,0.22699782,0.28108364,-9.640049,4000
717811237,-0.0017071135,-0.0024550436,0.0009241274,4015,0,0.21323898,0.27796504,-9.626592,4015
717815222,-0.0014141606,-0.0016190639,0.001888978,3985,0,0.21258841,0.28531834,-9.636982,3985
717819222,0.0003403117,-0.00068125187,0.0038881442,4000,0,0.20889822,0.28070346,-9.622802,4000
717823222,0.002110333,-0.0037394257,0.001520213,4000,0,0.2117312,0.28202432,-9.642229,4000
717827222,-0.0013244202,-0.00037738917,0.0034050185,4000,0,0.20915045,0.284493,-9.652207,4000
717831273,-0.0007112447,3.2728727e-05,0.004502453,4051,0,0.21184243,0.28721482,-9.666034,4051
717835222,3.6050023e-05,-0.00057192345,0.0034288706,3949,0,0.21115892,0.2860894,-9.658219,3949
717839222,-0.0015275005,-0.0014224882,0.0025451493,4000,0,0.20512442,0.26679215,-9.647862,4000
717843222,-0.00147181,-0.0007535345,0.00041259,4000,0,0.2016259,0.2809523,-9.638235,4000
717847225,-0.0017568839,-0.0017380567,0.002845898,4003,0,0.20236194,0.29693002,-9.652138,4003
717851225,-0.0027880343,-0.00161267,0.0015491567,4000,0,0.20839088,0.30189332,-9.663394,4000
717855222,-0.00061184046,-0.00062246935,-0.00040878766,3997,0,0.21023649,0.283274,-9.6603,3997
717859222,-0.00075544027,-0.0013964687,0.00095834705,4000,0,0.20217207,0.28868777,-9.642355,4000
717863222,-0.0010974301,-0.0011962937,0.0021257966,4000,0,0.19646282,0.29827335,-9.646122,4000
717867222,-0.002391144,-0.0024791507,0.0025986205,4000,0,0.19118495,0.30374387,-9.665492,4000
717871222,-0.0022806136,-0.00024698378,0.0026458292,4000,0,0.19738403,0.2852448,-9.664851,4000
717875222,-0.0019983808,6.3862535e-06,-0.00010694978,4000,0,0.212718,0.27634382,-9.644263,4000
717879222,-0.0008952777,-0.0017390458,0.002215165,4000,0,0.20118031,0.28030896,-9.623968,4000
717883222,0.0006116145,0.00072057894,0.0018778548,4000,0,0.20831905,0.2777108,-9.638527,4000
717887230,-0.00073633663,0.0014923782,0.0007945603,4008,0,0.21612665,0.27492046,-9.645238,4008
717891222,0.00018757161,0.0014684928,0.0018801544,3992,0,0.21329123,0.28653142,-9.626907,3992
717895222,0.000926042,8.2484665e-05,0.0020876632,4000,0,0.2052842,0.27806714,-9.633414,4000
717899261,-0.002173675,-0.00024624102,0.0025455265,4039,0,0.21370415,0.27553698,-9.623718,4039
717903222,-0.0018402293,-0.00056728354,0.002429183,3961,0,0.20655033,0.28236195,-9.606213,3961
717907222,-6.0071332e-05,-0.0005607789,0.0028965792,4000,0,0.19938797,0.28573447,-9.606314,4000
717911222,-0.00035260897,-0.0015170138,0.0021401425,4000,0,0.19987367,0.28655025,-9.628162,4000
717915247,0.0013683086,-0.0018266862,0.0013306079,4025,0,0.19944789,0.27218822,-9.65123,4025
717919227,-0.00016932664,-0.001961373,0.0032016656,3980,0,0.20163268,0.28196225,-9.640075,3980
717924021,-2.9914207e-05,-0.0015631432,0.0028713048,4794,0,0.21046506,0.28767347,-9.643053,4794
717928827,-0.0005772148,-0.0011303447,0.003487848,4806,0,0.21922243,0.2955744,-9.641518,4806
717932826,-0.00065569096,0.0013715359,0.001428201,3999,0,0.21471941,0.28748313,-9.627309,3999
717936822,-0.0012924555,0.002119367,0.0015440105,3996,0,0.21402998,0.29814872,-9.636674,3996
717940821,0.0005219508,0.0004227488,0.00080528005,3999,0,0.21030103,0.29219028,-9.622705,3999
717944822,0.00060480676,-0.0003443818,0.002167737,4001,0,0.19981636,0.2874021,-9.621954,4001
717948853,-0.00025082764,0.00019005107,0.0019544763,4031,0,0.20068792,0.2748666,-9.642555,4031
717952863,0.0003328025,0.0009300487,0.001135334,4010,0,0.20454416,0.265797,-9.640179,4010
717956821,-6.3132014e-05,-0.00045873303,0.0030204013,3958,0,0.20329244,0.28179914,-9.652077,3958
717960822,-0.0012812689,0.00030661066,0.0011921636,4001,0,0.20973888,0.27953514,-9.659918,4001
717964822,-0.0029181945,-0.0012047814,0.0026149454,4000,0,0.2194619,0.28144827,-9.664873,4000
717968854,-5.0133374e-05,0.0020972232,0.0026246703,4032,0,0.2119672,0.30346778,-9.6741495,4032
717972866,-0.00024728032,0.0011247125,0.001980246,4012,0,0.20359486,0.28554252,-9.666495,4012
717976822,-0.00044183317,-0.0005604142,0.0014068992,3956,0,0.19518867,0.2807935,-9.654089,3956
717980821,-0.0021225906,0.0024436798,0.0006706099,3999,0,0.20557272,0.2792465,-9.647137,3999
717984821,0.00059010985,0.0002941812,0.002612126,4000,0,0.21015649,0.27192667,-9.637286,4000
717988821,-0.000893205,0.00038623431,0.0022628575,4000,0,0.213164,0.27659035,-9.661691,4000
717992847,-0.0019343433,-0.00065088016,0.0014709544,4026,0,0.21843983,0.28901425,-9.662834,4026
717996821,-0.0006578623,-0.0019372605,0.0018113855,3974,0,0.22301194,0.2866132,-9.630431,3974
718000828,0.0011547769,-0.00024026439,0.0015549696,4007,0,0.2070642,0.29172456,-9.624111,4007
718004821,-0.0009967039,0.0019909425,0.002500028,3993,0,0.21629089,0.29521397,-9.633271,3993
718008821,-0.0015381023,-0.0020539835,0.0027587453,4000,0,0.22588976,0.28132322,-9.653437,4000
718012821,-5.7272366e-05,-0.001850722,0.003094586,4000,0,0.20933113,0.28200626,-9.641331,4000
718016821,-0.002085446,-0.000154187,0.0032931333,4000,0,0.2096745,0.29290456,-9.63784,4000
718020828,-0.00021630096,-0.0010645741,0.0007686766,4007,0,0.2047479,0.29847366,-9.629764,4007
718024821,-0.0024636204,-0.0016102712,0.0013415967,3993,0,0.21208495,0.29205596,-9.615907,3993
718028822,-0.0018470109,-0.0021623836,0.0021984756,4001,0,0.21545036,0.29200512,-9.615328,4001
718032847,-0.0017207467,-0.0004396911,0.0014819085,4025,0,0.21428533,0.29751915,-9.628131,4025
718036821,-0.00044773018,-0.00012311693,0.0014184869,3974,0,0.21574666,0.30944484,-9.630347,3974
718040828,-0.0024274546,-9.9679375e-05,-1.0008392e-05,4007,0,0.2108776,0.29023495,-9.647818,4007
718044821,-0.00074205623,-0.0015985391,0.000636869,3993,0,0.20677838,0.28035578,-9.656153,3993
718048822,-0.00039859253,-0.0024312085,-0.00043370065,4001,0,0.21421193,0.29732054,-9.645722,4001
718052852,0.0006280924,-0.0013930701,0.001204637,4030,0,0.21872814,0.30489758,-9.613183,4030
718056821,-0.0029747235,-0.002138834,0.0011077106,3969,0,0.21023923,0.3086131,-9.638843,3969
718060828,-0.0024569808,-0.0025647448,0.0010093728,4007,0,0.21212971,0.28192508,-9.661191,4007
718064821,-0.0015530831,-0.0011091566,0.0033961693,3993,0,0.20679486,0.28479895,-9.636566,3993
718068822,-0.0013452499,-0.00068514544,0.0034059563,4001,0,0.21030606,0.28696328,-9.645736,4001
718072822,-0.00091826334,-0.00026257234,0.0035278422,4000,0,0.21764351,0.2829352,-9.669147,4000
718076821,-0.0022763899,0.0010323984,0.0024525253,3999,0,0.22649415,0.30289415,-9.637754,3999
718080831,0.00109589,-0.0031317163,0.003632385,4010,0,0.21221471,0.29201627,-9.6401615,4010
718084821,0.0014846531,-0.0024524368,0.0009942492,3990,0,0.21893427,0.28582966,-9.641979,3990
718088821,-0.00033570506,-0.0017192366,0.0015905068,4000,0,0.21693183,0.28810114,-9.659999,4000
718092828,0.00068303244,-0.0015342264,0.0033329169,4007,0,0.21799834,0.2870925,-9.662473,4007
718104822,-0.0012900764,-0.00034658218,0.0018062422,3958,0,0.19595954,0.29181632,-9.628633,3958
718108822,0.00042762762,-0.0004361317,0.00089629,4000,0,0.20849167,0.28808045,-9.632543,4000
718112828,-0.0021556471,-0.00055383786,0.0018985331,4006,0,0.22316027,0.28911734,-9.638516,4006
718116847,0.0003551285,-0.0027119282,0.0037364224,4019,0,0.2140248,0.28810462,-9.637797,4019
718120820,0.0007771525,-0.001016432,0.003978485,3973,0,0.21652073,0.27192914,-9.662808,3973
718124822,-0.00040587713,-0.001343534,0.004478752,4002,0,0.20749182,0.28621203,-9.666049,4002
718128822,-0.0008951699,0.00018013487,0.0025788147,4000,0,0.2188456,0.29135132,-9.65902,4000
718132828,-0.001429738,7.405644e-05,0.0026703365,4006,0,0.21677133,0.28695425,-9.652483,4006
718136863,-0.0012944372,9.3933246e-05,0.0012920107,4035,0,0.20637523,0.3066992,-9.637676,4035
718140852,0.0012703922,-0.002164801,0.0019505959,3989,0,0.20994934,0.2957998,-9.645562,3989
718144821,0.00046877674,-0.0018490882,0.0032257275,3969,0,0.20760158,0.2888316,-9.652147,3969
718148821,-0.0002762071,0.001971078,0.003368112,4000,0,0.20028429,0.28303373,-9.6453085,4000
718152827,-0.0006830749,0.00091896934,0.002598411,4006,0,0.19849461,0.29404736,-9.65082,4006
718156821,-0.0014956006,-0.0011660248,0.0009494984,3994,0,0.19367577,0.29101554,-9.669143,3994
718160822,4.8188736e-05,-0.0022716753,0.0029837461,4001,0,0.20073178,0.30035362,-9.686377,4001
718164822,-0.0006707725,-0.0015179262,0.0025597124,4000,0,0.21114631,0.30026618,-9.6791115,4000
718168821,-0.0023212973,-0.00030454717,-0.00023059436,3999,0,0.20660438,0.29974923,-9.6487465,3999
718172828,-0.00031164888,-0.0018105448,0.0005300332,4007,0,0.21538548,0.29711756,-9.636151,4007
718176822,-0.00025630556,0.0007149473,0.0022851003,3994,0,0.21656926,0.31422815,-9.6615715,3994
718180821,-0.0012016096,-0.00034503674,0.0021344137,3999,0,0.20656334,0.3153154,-9.667921,3999
718184827,0.00046218644,0.00016604082,0.0035670148,4006,0,0.21146157,0.31821683,-9.672528,4006
718189621,1.4242844e-05,-0.0009744816,0.004748743,4794,0,0.20995206,0.3017656,-9.655481,4794
718193628,-0.0018571973,-0.0013148591,0.0027431976,4007,0,0.21378787,0.28674397,-9.668723,4007
718197640,-0.0017052975,-0.0008458172,0.0009417578,4012,0,0.20649141,0.29226536,-9.6845255,4012
718201627,0.00013342816,0.00012942008,-0.0005941243,3987,0,0.20896897,0.27902701,-9.6678915,3987
718205622,-0.0011840687,-0.0021428368,0.0012540456,3995,0,0.2265448,0.28598902,-9.680809,3995
718209632,-0.0033481698,0.000709219,0.0027415033,4010,0,0.22296146,0.2930006,-9.67168,4010
718213628,-0.0016066986,0.00094283593,0.001295846,3996,0,0.20854546,0.29690775,-9.649665,3996
718217678,-6.9121643e-06,-0.0002182531,0.0012090671,4050,0,0.209065,0.29447308,-9.649284,4050
718221635,0.00059683574,-0.0007922545,0.002507018,3957,0,0.21556477,0.28476992,-9.663504,3957
718225622,0.0007955972,-0.0027080548,0.0032067455,3987,0,0.22379057,0.29431513,-9.665039,3987
718229622,-0.0015179018,0.0004084539,0.002045997,4000,0,0.2273229,0.28640398,-9.649443,4000
718233622,-0.00061538577,0.0007597375,-0.0002793762,4000,0,0.21806267,0.29413748,-9.62572,4000
718237654,-0.0010762309,0.00018556087,0.002034903,4032,0,0.20490491,0.29572505,-9.63268,4032
718241622,-0.0003465934,-0.0015964453,0.0011783867,3968,0,0.20705886,0.29686403,-9.648319,3968
718245622,-0.0008776962,0.00019478027,0.0018350048,4000,0,0.21310553,0.28659132,-9.659713,4000
718249622,-0.0022566942,0.0006263604,0.0014804694,4000,0,0.21356156,0.29438996,-9.640151,4000
718253622,-0.00037667938,-0.0016342928,0.0028872986,4000,0,0.23005933,0.2954331,-9.647265,4000
718257659,3.7984653e-05,-0.0011159274,0.0033246519,4037,0,0.21539274,0.28903368,-9.632144,4037
718261629,-0.0021386642,-9.908945e-06,0.0011463268,3970,0,0.20250075,0.28145498,-9.639118,3970
718265622,-0.0010565135,0.0009581577,0.0003534967,3993,0,0.19323629,0.29022908,-9.651064,3993
718269622,-0.0014070254,-0.00012587741,0.0017104234,4000,0,0.20103814,0.28621525,-9.636713,4000
718273622,0.0006168407,0.00020304412,0.0012306588,4000,0,0.20483625,0.284985,-9.614322,4000
718277641,0.0001907214,-0.0004426768,0.0014219382,4019,0,0.19976968,0.29096854,-9.604304,4019
718281622,-0.00037027267,-0.0007825668,0.0030047111,3981,0,0.2066405,0.29667258,-9.607917,3981
718285628,5.5636032e-05,0.00038317384,0.0030289777,4006,0,0.21200353,0.29315153,-9.652551,4006
718289622,-0.00022811336,-0.0015076058,0.0016070057,3994,0,0.19014347,0.28742072,-9.623552,3994
718293622,-0.001937965,-0.00012164414,0.0015863631,4000,0,0.19644299,0.29064023,-9.645278,4000
718297640,0.00025404268,5.766344e-05,0.003667023,4018,0,0.21147181,0.29453537,-9.650552,4018
718301650,-0.0019719962,0.001990494,0.002786441,4010,0,0.22302322,0.29456055,-9.651738,4010
718306429,-0.0021243133,0.0005040997,0.0010777643,4779,0,0.21264203,0.2903394,-9.634994,4779
718310422,1.862623e-05,-9.298225e-05,0.00036077717,3993,0,0.2067089,0.27709827,-9.63388,3993
718314422,-0.0025769235,-0.0011895428,0.001664885,4000,0,0.22545606,0.2760381,-9.65436,4000
718318447,-0.003443386,0.0015601157,0.002325443,4025,0,0.22680563,0.29157597,-9.671654,4025
718322422,-0.0024887633,-0.00077153585,0.002323886,3975,0,0.19826286,0.28709525,-9.662476,3975
718326429,-0.0029023616,-0.00013089195,0.0018912244,4007,0,0.19772445,0.28421572,-9.658818,4007
718330422,-0.0002515255,-0.0013182339,0.0026795373,3993,0,0.20174374,0.286773,-9.645651,3993
718334422,-0.0010139839,-0.00067987636,0.003093656,4000,0,0.19974141,0.29331943,-9.663242,4000
718338448,-0.002510803,-0.0002535936,0.003493177,4026,0,0.19503026,0.2806521,-9.645047,4026
718342422,-0.001613727,8.241723e-05,0.0017019017,3974,0,0.20858885,0.28459463,-9.650314,3974
718346428,-0.00044109684,-0.00075501995,0.001296332,4006,0,0.2033344,0.29804757,-9.632626,4006
718350422,-0.0020186198,0.0012808617,0.00043718275,3994,0,0.19045374,0.29251003,-9.615504,3994
718355228,-0.0013276895,0.0008572016,0.0012834755,4806,0,0.19624782,0.30099577,-9.633267,4806
718359222,-0.0031240645,-0.0015150413,0.0020717112,3994,0,0.21926615,0.28569382,-9.659528,3994
718363265,-0.001376117,-0.0011580256,0.00083409867,4043,0,0.21212651,0.2862802,-9.66372,4043
718367222,0.00030816608,-0.00012444195,0.0013280577,3957,0,0.20465262,0.30041385,-9.688169,3957
718371222,-0.00010304177,-0.00021359358,0.0005795358,4000,0,0.21469377,0.30402943,-9.647609,4000
718375222,-0.0020253228,-0.001707587,0.0008189193,4000,0,0.21095029,0.29753238,-9.629624,4000
718379222,-0.0033705053,-0.001136665,5.0265386e-05,4000,0,0.21787119,0.2961069,-9.659811,4000
718383237,-0.00023049406,-0.0003296579,0.0015241611,4015,0,0.21315031,0.29999837,-9.662764,4015
718387222,-0.00079404685,-0.0004554853,0.0026749177,3985,0,0.21523575,0.3002037,-9.647051,3985
718391222,-0.0022084536,-0.0003980942,0.0046661547,4000,0,0.20940347,0.29871064,-9.644538,4000
718395222,-0.0027015517,0.0007139269,0.0024387012,4000,0,0.20601116,0.30252674,-9.643927,4000
718399222,0.0008078844,-0.00074678625,0.0019799354,4000,0,0.21158515,0.2889269,-9.654094,4000
718403245,-0.00022685032,-0.0025672838,0.0011652105,4023,0,0.2190869,0.275961,-9.649306,4023
718407222,-0.0014699273,-0.0024318022,-0.00014325856,3977,0,0.22231765,0.28969547,-9.64375,3977
718411222,-0.0018329213,0.0008367468,0.0017142748,4000,0,0.20402989,0.29059902,-9.642594,4000
718415222,-0.0014779995,-0.0011648796,0.00020032616,4000,0,0.21545684,0.287042,-9.657743,4000
718419247,-0.0022599096,-0.0026724979,0.0024907782,4025,0,0.21861716,0.2935413,-9.648966,4025
718423222,-0.0019555658,-0.0009765142,0.002426244,3975,0,0.21964256,0.27993676,-9.631957,3975
718427222,0.00028277058,-0.0015086174,0.0022592782,4000,0,0.22419393,0.2785108,-9.659633,4000
718432022,-0.0013329509,-0.0017254293,0.0016064565,4800,0,0.21747296,0.28085384,-9.635837,4800
718436047,-0.0022682708,-0.0016224677,0.002092328,4025,0,0.21750222,0.28157786,-9.643538,4025
718440028,-0.0021414512,-0.0014053558,0.0015562997,3981,0,0.2017993,0.2898386,-9.625715,3981
718444063,-0.002600604,-1.2649042e-05,0.0021114235,4035,0,0.20106031,0.30525523,-9.633605,4035
718448021,-0.0015063314,-0.0020627736,0.001995889,3958,0,0.21305785,0.30617723,-9.6370535,3958
718452022,-0.00042815143,0.00020613358,0.0007792057,4001,0,0.20474146,0.2875626,-9.630397,4001
718456049,-0.00013082444,0.0014764069,0.0014402823,4027,0,0.18646453,0.29876554,-9.647241,4027
718460022,-0.0022488614,-0.0003308138,0.0011529363,3973,0,0.1924172,0.2985926,-9.637203,3973
718464032,-0.00193148,-0.00086707255,0.0013670285,4010,0,0.1968749,0.29965988,-9.64323,4010
718468022,-0.000140422,-0.00077120966,0.0022614812,3990,0,0.20162188,0.3048472,-9.640208,3990
718472852,-0.0005839075,-0.0009623229,0.0038425846,4830,0,0.22398482,0.30004787,-9.6730175,4830
718476822,-0.0032255852,0.0009357343,0.0018832352,3970,0,0.22403522,0.3058745,-9.674834,3970
718480821,-0.0023984916,0.0007010333,0.003072238,3999,0,0.21649414,0.3037973,-9.660881,3999
718484822,0.00013364658,-0.0005917469,0.004085796,4001,0,0.23187244,0.3025157,-9.64194,4001
718488822,-0.00043902767,-0.000967598,0.0012931726,4000,0,0.22735524,0.28996935,-9.632687,4000
718492822,-0.003175952,-0.002022479,0.00015163377,4000,0,0.21695875,0.30332908,-9.637011,4000
718496822,-0.002569892,0.00031307683,0.0013657468,4000,0,0.20706217,0.29927894,-9.647801,4000
718500828,-0.0033136525,-0.0011937717,0.001557283,4006,0,0.21951582,0.2885221,-9.630605,4006
718504826,-0.0018455395,-0.0024877116,0.0023974022,3998,0,0.22551201,0.28513005,-9.657544,3998
718508822,-0.0024071094,-0.0015368123,0.0033721793,3996,0,0.2103662,0.2933545,-9.665862,3996
718512821,-0.0009881405,-0.0011938334,0.00191433,3999,0,0.1963064,0.29282576,-9.660952,3999
718516822,0.0003988295,0.0005115926,0.00186952,4001,0,0.21226373,0.28892538,-9.685353,4001
718520828,-0.00064241653,-0.0017185132,0.0009582767,4006,0,0.22743557,0.28587064,-9.700721,4006
718524859,-0.002995524,-0.0010734698,0.0010200511,4031,0,0.22603546,0.28408062,-9.678891,4031
718528821,-0.0001384837,-2.4281906e-05,0.0022755747,3962,0,0.21238331,0.28516376,-9.689696,3962
718532822,0.00030054594,0.00020622139,0.001534349,4001,0,0.20680572,0.28934783,-9.680271,4001
718536852,-0.0020332385,0.0010574027,0.0011785085,4030,0,0.2120127,0.27919456,-9.675403,4030
718540830,0.00021719764,-0.00021720315,0.00068081607,3978,0,0.21570316,0.27018332,-9.6461115,3978
718544866,-0.0003226094,-0.0007529122,0.00077790243,4036,0,0.21635552,0.27731135,-9.669713,4036
718548822,-0.0012423332,-0.0006671411,0.0034096136,3956,0,0.21689191,0.3002763,-9.64127,3956
718552822,-0.00069761457,-0.001207846,0.0033058575,4000,0,0.21521632,0.29449275,-9.647224,4000
718556839,-0.0008784096,-0.0019355973,0.0016995283,4017,0,0.2114342,0.29372758,-9.629241,4017
718561628,-0.0030202176,0.001288499,0.0016959745,4789,0,0.2244763,0.2939203,-9.660805,4789
718565622,-0.0032352724,0.00040105486,0.0022050159,3994,0,0.2282045,0.28340977,-9.667562,3994
718569622,-0.0020798224,-0.0015327637,0.0031614343,4000,0,0.21479964,0.286584,-9.629718,4000
718573648,-0.0014897216,0.0009475015,0.00078367296,4026,0,0.21333924,0.29513565,-9.627225,4026
718577640,-0.0017150902,-0.00054864434,0.0013649858,3992,0,0.21391447,0.29695296,-9.652285,3992
718581628,-0.00014300042,0.00030121178,0.0017362088,3988,0,0.2189424,0.29478422,-9.66314,3988
718585634,-0.0042012893,-0.0012075284,0.0028000516,4006,0,0.21804136,0.28439903,-9.644397,4006
718589622,-0.0012130147,-0.0020541444,0.0027429434,3988,0,0.21802641,0.28393468,-9.642953,3988
718593622,-0.0019110125,-0.0007097107,0.0046588304,4000,0,0.21065128,0.28824407,-9.640188,4000
718597640,-0.0007833369,-0.0033211203,0.0022019946,4018,0,0.22528163,0.29702002,-9.625996,4018
718601628,-0.00052502326,-0.0013765441,0.00032926927,3988,0,0.22025967,0.30081925,-9.656913,3988
718605647,-0.00091294426,-0.0013243587,0.0030885437,4019,0,0.22509527,0.30124322,-9.679652,4019
718609622,-0.0012287139,-0.00024640394,0.0034163487,3975,0,0.23006134,0.29905865,-9.666146,3975
718613622,0.00036202872,-0.001216021,0.0034394776,4000,0,0.21741657,0.29482636,-9.639054,4000
718617640,0.0013736362,-0.000959925,0.001012406,4018,0,0.22746995,0.30143565,-9.634962,4018
718621622,-0.0024798752,-0.0011974846,0.0016703776,3982,0,0.23377031,0.2995187,-9.661915,3982
718625635,0.00016206855,0.00029288747,0.0023939575,4013,0,0.22514799,0.29047367,-9.660298,4013
718629622,-0.0007834906,-0.0010919472,0.002346034,3987,0,0.21453667,0.29231897,-9.659575,3987
718633637,-0.00023866947,-0.0013004348,0.0018214117,4015,0,0.20797078,0.28337726,-9.666504,4015
718637681,-0.0011992638,-0.0018206933,0.00061048684,4044,0,0.22120522,0.28703395,-9.658843,4044
718641622,-0.0025332922,0.00033594487,0.00019873107,3941,0,0.21931334,0.27907526,-9.639244,3941
718645630,8.634226e-05,0.0011562387,0.0015523894,4008,0,0.21978681,0.29196888,-9.638549,4008
718649622,-0.0026977086,0.00039820545,0.002220662,3992,0,0.22026898,0.29740098,-9.679354,3992
718653622,-0.0030996813,0.00041221335,0.0012549863,4000,0,0.22269426,0.3031149,-9.678723,4000
718657653,-0.0025246006,-8.485654e-05,-0.0005509126,4031,0,0.21196477,0.2931573,-9.651543,4031
718661622,0.00012541794,-0.001590096,2.0042111e-05,3969,0,0.21274188,0.29147354,-9.664962,3969
718665622,0.00028094402,-0.0018380918,0.002359611,4000,0,0.204879,0.28797975,-9.65703,4000
718669622,-0.00095419335,-0.0013860528,0.0007411824,4000,0,0.21280642,0.27832523,-9.647977,4000
718673638,-0.0022940084,-0.0016273118,0.0025131905,4016,0,0.2230456,0.29604736,-9.65274,4016
718677684,-0.0010276997,-0.0012149267,0.0035152053,4046,0,0.21310401,0.28925535,-9.61972,4046
718681622,-0.00076200155,-0.0028034507,0.0017684038,3938,0,0.21449894,0.2886127,-9.63603,3938
718685622,-0.0011624172,-0.0007425075,0.00042882393,4000,0,0.22481184,0.297965,-9.626939,4000
718689622,-0.0027881982,-0.00033040103,0.0013408375,4000,0,0.22111255,0.29553482,-9.652208,4000
718693628,-0.001007815,-0.00057582615,0.002882026,4006,0,0.21047968,0.30314183,-9.650368,4006
718697641,-0.0017162286,-0.0009784542,0.0011553299,4013,0,0.20740871,0.29806894,-9.664401,4013
718701622,-0.000109557666,-0.0019134681,0.0006371819,3981,0,0.20546822,0.2908904,-9.661766,3981
718705622,-0.0004775298,-0.0012229305,0.0034189732,4000,0,0.21586558,0.30503535,-9.654123,4000
718709622,-0.0030175992,-0.00056134653,0.0023036764,4000,0,0.20762788,0.30360162,-9.651475,4000
718713628,-0.0010838038,-0.0017156991,0.0015921718,4006,0,0.22143434,0.31387636,-9.666672,4006
718717640,7.239415e-06,-0.0007368237,0.0005655674,4012,0,0.20865701,0.30413246,-9.655707,4012
718721647,-0.00090688944,0.00017440485,0.002577888,4007,0,0.20829035,0.31134608,-9.657515,4007
718725622,-0.0012805153,-0.002570747,0.0012441895,3975,0,0.21104126,0.31129965,-9.656036,3975
718729622,-0.0019280947,-0.003729243,0.001421113,4000,0,0.21050604,0.3008032,-9.65053,4000
718733644,-0.002732632,-0.0019595844,0.003780641,4022,0,0.21925794,0.28569743,-9.634866,4022
718737640,-0.0018690575,0.00037374283,0.00372641,3996,0,0.21452153,0.285318,-9.637401,3996
718741652,-0.00015633882,-0.00065882166,0.0025759595,4012,0,0.22003731,0.28932434,-9.649501,4012
718745622,-0.0017986513,0.00096359313,0.00011856339,3970,0,0.21130383,0.29367313,-9.625324,3970
718749622,-0.0021385273,-0.0021318956,0.0012139758,4000,0,0.2161556,0.28598443,-9.650506,4000
718753646,-0.002038091,-1.7380407e-05,0.0013794935,4024,0,0.2133391,0.2869068,-9.651134,4024
718757640,-0.0007069382,0.00027769935,0.0035414894,3994,0,0.20935583,0.28242755,-9.663094,3994
718761622,0.00053639524,0.0011739258,0.00040281794,3982,0,0.2185302,0.29700962,-9.625686,3982
718765622,0.0016627515,-0.0016257345,0.0025040288,4000,0,0.19837047,0.30935165,-9.624961,4000
718769622,0.0005257132,-0.0009649762,0.00088988524,4000,0,0.20297962,0.30800405,-9.658163,4000
718773628,0.00074035214,-0.0028896555,0.0011826241,4006,0,0.2175207,0.28715035,-9.6625,4006
718777644,-0.0022723863,-0.0021463195,0.0020834978,4016,0,0.22177024,0.2890124,-9.659476,4016
718781622,-0.00045522975,-0.0023719217,0.0022277217,3978,0,0.2351526,0.30040747,-9.658022,3978
718785628,-0.0005606922,-0.00045088615,0.0019362371,4006,0,0.22229536,0.2914239,-9.663694,4006
718789622,0.0004931331,-0.0018444831,0.0027915502,3994,0,0.21350166,0.28032917,-9.65648,3994
718793635,5.0580158e-05,-0.000788157,0.0029052,4013,0,0.2211037,0.2893407,-9.653745,4013
718797640,-0.001300439,-1.5952097e-05,0.0015010082,4005,0,0.2155279,0.28282017,-9.664084,4005
718801631,-0.002998204,-0.0014028811,0.0011192788,3991,0,0.20138699,0.26773703,-9.673084,3991
718805641,-0.0006514176,0.002631466,0.0016668533,4010,0,0.20332666,0.2797567,-9.6732645,4010
718809622,0.0015620672,-0.0016255836,0.0022883422,3981,0,0.20177713,0.2907033,-9.6479435,3981
718813622,-0.0013096302,-0.0005574251,0.0021298698,4000,0,0.20549375,0.2852148,-9.6627655,4000
718817641,-0.00091740687,0.00017205195,0.0033234193,4019,0,0.19800535,0.28902894,-9.691807,4019
718821622,-0.00069767545,0.0004868011,0.0033337653,3981,0,0.190213,0.2876532,-9.666466,3981
718825649,0.00039142455,0.00062275445,0.0020912464,4027,0,0.20608985,0.29259014,-9.647876,4027
718829622,-0.00069224177,0.0005895753,0.0029132604,3973,0,0.2079383,0.27976245,-9.622808,3973
718833622,-0.0021591135,0.00018903115,0.0020166729,4000,0,0.19745457,0.2759137,-9.647423,4000
718837640,-0.0024797097,-0.0022480339,0.0019702225,4018,0,0.20854807,0.27505222,-9.650503,4018
718841622,-0.0026134653,0.0007012774,0.0034024434,3982,0,0.20521747,0.29361606,-9.651232,3982
718845625,-0.0007898276,7.968978e-05,0.0027891102,4003,0,0.21087393,0.29514575,-9.628313,4003
718849622,-0.0012753351,0.00031753012,0.0006598916,3997,0,0.20829102,0.2890958,-9.638345,3997
718853622,-0.00011101732,0.0013786511,0.00091339136,4000,0,0.19947033,0.31183937,-9.631093,4000
718857640,4.872538e-05,0.0006001633,0.0030352015,4018,0,0.20906231,0.3004456,-9.63245,4018
718861622,-0.0017653286,0.0025117688,0.0030257374,3982,0,0.20680694,0.2971904,-9.637307,3982
718865634,-0.001855898,0.002199345,0.0025918637,4012,0,0.21709986,0.27698755,-9.62507,4012
718869623,-0.0010168502,-0.0014293685,0.0032952442,3989,0,0.22332929,0.28699952,-9.62525,3989
718873646,-0.0008146645,-0.001220518,0.0036202047,4023,0,0.21840057,0.29295966,-9.641422,4023
718877646,-0.0023775278,-0.0027958245,0.0022852398,4000,0,0.20036648,0.2936197,-9.650876,4000
718881647,-0.00087712466,-0.0033206656,0.0020926862,4001,0,0.1959505,0.30662432,-9.662633,4001
718885622,-0.0005143972,-0.0005921734,0.004495575,3975,0,0.20527399,0.30121794,-9.652461,3975
718889634,-0.0018507269,-0.00013946909,0.0024450608,4012,0,0.21300212,0.29843745,-9.65524,4012
718893622,-0.0034139955,-0.0008657635,0.001221141,3988,0,0.20672247,0.29584092,-9.673037,3988
718897646,-0.0017505583,0.0005991599,0.0025684778,4024,0,0.20501164,0.28561935,-9.683615,4024
718901651,-0.0006868984,-0.0012112833,0.0035225733,4005,0,0.21423087,0.2920391,-9.646013,4005
718905621,-0.0013298385,0.0013519602,0.0026935642,3970,0,0.219058,0.2912812,-9.623931,3970
718909641,-0.0018536891,0.00018260581,0.0025588542,4020,0,0.22983317,0.29187632,-9.658775,4020
718913622,-0.0010625382,-0.0019235142,0.000835261,3981,0,0.21599533,0.29898155,-9.659894,3981
718917640,-0.0014274139,-0.0010967252,0.0026593783,4018,0,0.20846066,0.29018065,-9.645486,4018
718921632,-0.0020069273,4.1524654e-05,0.004468344,3992,0,0.20817848,0.28695136,-9.654639,3992
718925622,-0.0022037777,0.00036840345,0.00404276,3990,0,0.2147439,0.28924304,-9.648749,3990
718929638,-0.0018635384,-0.00014324934,0.0031900895,4016,0,0.20458274,0.28206524,-9.64473,4016
718933622,-0.001339789,0.0008036906,0.0033193568,3984,0,0.19886872,0.27648294,-9.625506,3984
718937640,-0.0017260383,-0.0018249039,0.0017815972,4018,0,0.22038312,0.27154407,-9.6427,4018
718941640,-0.002587298,-0.003427244,0.0019479841,4000,0,0.22094604,0.27388188,-9.666421,4000
718945622,-0.003240689,-0.0014213843,0.00292162,3982,0,0.21672985,0.2816645,-9.650132,3982
718949622,-0.0019929651,-0.0026957586,0.0034574675,4000,0,0.21171845,0.28307474,-9.617552,4000
718953622,-6.2330175e-05,-0.0038768344,0.0033832912,4000,0,0.20079343,0.29318598,-9.626143,4000
718957640,-0.0006935442,-0.000995653,0.0027723494,4018,0,0.19810475,0.2952347,-9.635679,4018
718961622,-0.00090328546,-0.0013165134,0.0029789284,3982,0,0.21598905,0.2919727,-9.639124,3982
718965622,-0.0010752305,-0.0007548905,0.0011751294,4000,0,0.21129106,0.29490596,-9.643926,4000
718969629,-0.00014075573,-0.0005684717,0.0021554765,4007,0,0.20713621,0.28512996,-9.630822,4007
718973647,-0.00014529024,0.0012482245,0.0022830993,4018,0,0.20829964,0.28103378,-9.640971,4018
718977640,0.00073379703,0.00041214284,0.0014545547,3993,0,0.1963406,0.29731852,-9.641288,3993
718981622,-2.5053492e-05,0.0013568756,0.0018842858,3982,0,0.2151626,0.28682026,-9.644993,3982
718985622,-0.0011762577,-0.0006290377,0.0011652495,4000,0,0.21031065,0.2964425,-9.622624,4000
718989628,-0.0025254202,-0.0019761033,0.0039970637,4006,0,0.21151824,0.3028703,-9.634317,4006
718994421,-0.0016285935,0.0010053958,0.0028762922,4793,0,0.23142119,0.2842576,-9.6500635,4793
718998422,-0.00014451926,-0.0015285983,0.00267573,4001,0,0.2181203,0.28027284,-9.648318,4001
719002466,-0.0016364489,0.0002922555,0.0026702124,4044,0,0.20859875,0.27148643,-9.633402,4044
719006426,0.0005125164,0.00029794616,0.0014390731,3960,0,0.2101179,0.28811872,-9.634155,3960
719010448,-0.00012165457,-0.00065534265,0.0016241624,4022,0,0.21494472,0.2885914,-9.635416,4022
719014423,-0.0005552583,0.0002012751,0.0014244624,3975,0,0.1909453,0.29290396,-9.638245,3975
719018422,0.0011250951,-3.3681183e-05,0.0026204397,3999,0,0.20096885,0.284641,-9.655176,3999
719022447,0.0015456191,0.00059286837,0.003065245,4025,0,0.20586722,0.28038004,-9.657546,4025
719026422,0.0013656857,-0.0006536399,0.0015555485,3975,0,0.20670855,0.27614525,-9.631978,3975
719030447,0.0007151805,-0.000556029,0.0021809076,4025,0,0.20039223,0.28090173,-9.631147,4025
719034426,-0.0013125242,-0.0018307484,0.0022155563,3979,0,0.2018493,0.28561378,-9.629579,3979
719038422,-0.0002458179,-0.0015058044,0.00203283,3996,0,0.21729141,0.27334446,-9.634586,3996
719042422,-2.054361e-05,-0.00226065,0.0019162431,4000,0,0.21703254,0.2762774,-9.643166,4000
719046422,-0.0006409519,-0.00032766868,0.0006672264,4000,0,0.22157153,0.2983506,-9.653152,4000
719050428,-8.562453e-06,-0.00075725955,0.0014183443,4006,0,0.21354683,0.30906624,-9.657831,4006
719054422,-0.0005245182,0.00032236933,0.00035440372,3994,0,0.20729665,0.27846673,-9.6575985,3994
719058422,-0.0006649494,0.0009418245,0.0014281727,4000,0,0.20264131,0.26947764,-9.660668,4000
719062426,0.0003317393,1.7287186e-05,0.00036949478,4004,0,0.20061506,0.27990714,-9.661088,4004
719066421,-0.0009855146,-0.0020477725,0.0018930767,3995,0,0.20551996,0.28854305,-9.662271,3995
719070422,-0.0015328004,-0.0019498973,0.0025330659,4001,0,0.20303866,0.2893413,-9.680831,4001
719074448,-0.0014935748,1.01812075e-05,0.00086321036,4026,0,0.20452857,0.2766405,-9.663357,4026
719078422,-0.000854129,0.0009580939,0.0007760036,3974,0,0.21149124,0.2778963,-9.650364,3974
719082422,0.0010517415,-0.002140725,0.0013079434,4000,0,0.20104598,0.29084948,-9.657555,4000
719087221,0.00016338221,-0.0012837922,0.0020828063,4799,0,0.2038228,0.28341755,-9.649597,4799
719092028,0.00036732494,-0.00055984926,0.00085166295,4807,0,0.20058103,0.29240143,-9.665867,4807
719096022,-0.0010774058,-0.0010773254,0.0014879133,3994,0,0.20948833,0.285921,-9.648425,3994
719100022,-0.0012998905,-0.00044892266,0.0009619597,4000,0,0.20886117,0.28770056,-9.6426525,4000
719104049,-0.00044372023,0.00040864974,0.0016391434,4027,0,0.21467285,0.29493013,-9.644824,4027
719108047,-5.8361056e-06,-0.0009464576,0.0053627905,3998,0,0.2137463,0.2848529,-9.646916,3998
719112027,-0.0016612406,-0.0018490527,0.0031501404,3980,0,0.20952876,0.2692438,-9.651022,3980
719116021,-0.0012267397,-0.0012230113,0.0033006393,3994,0,0.20939562,0.2895802,-9.665887,3994
719120021,-0.0020345696,-0.00053830247,0.0014844744,4000,0,0.2048019,0.2897888,-9.652011,4000
719124033,-0.0029299422,-0.00248849,0.0031272357,4012,0,0.19868541,0.28466815,-9.659135,4012
719128049,-0.0033248698,0.0011543595,0.0018986647,4016,0,0.20257321,0.28570694,-9.660459,4016
719132021,-0.002387263,0.0017842485,0.0024729895,3972,0,0.2021399,0.2958646,-9.643145,3972
719136021,-1.4577537e-05,-0.0005422074,0.0012035519,4000,0,0.2135681,0.28912526,-9.639664,4000
719140021,0.0015031673,0.0019090358,0.00032498068,4000,0,0.21206261,0.28616768,-9.633529,4000
719144042,0.00022438234,-0.00020804128,0.00036447853,4021,0,0.20889117,0.28062218,-9.644234,4021
719148022,-0.00049212866,-0.00078457483,0.0034225155,3980,0,0.20826218,0.29274878,-9.657813,3980
719152021,-0.0018719442,-0.00025450112,0.003094296,3999,0,0.21672042,0.29833254,-9.652835,3999
719156021,-0.0015125665,-0.0023576508,0.0016717206,4000,0,0.21020946,0.29686734,-9.617806,4000
719160022,-0.0015340473,-0.004614026,0.002914516,4001,0,0.21449663,0.29683542,-9.616172,4001
719164075,-0.0018314678,-0.0016094013,0.0016791648,4053,0,0.20085074,0.28658155,-9.629626,4053
719168022,-0.0033928924,-0.0013238776,0.0036790825,3947,0,0.18994544,0.2996755,-9.636729,3947
719172021,-0.001978766,-0.0023821606,0.0030353176,3999,0,0.19750513,0.3040147,-9.648854,3999
719176021,4.793119e-05,-0.002059926,0.002898515,4000,0,0.19918905,0.2897777,-9.642464,4000
719180022,-0.0023420902,-0.002574791,0.0014313828,4001,0,0.20639028,0.2842086,-9.6405525,4001
719184030,-0.0023384115,0.0013823824,0.00064726116,4008,0,0.20622224,0.29519406,-9.633092,4008
719188021,-0.0011906363,0.0011520993,0.0016267818,3991,0,0.19126743,0.28180924,-9.628439,3991
719192051,-0.0012677988,0.0012843075,0.00024784892,4030,0,0.19980405,0.28634924,-9.6453495,4030
719196021,-0.0023097282,0.0004746997,0.0037312133,3970,0,0.20452404,0.28648263,-9.681368,3970
719200021,-0.0017718031,-0.00045682822,0.0031851945,4000,0,0.20621283,0.28716668,-9.6691885,4000
719204063,0.0010133323,-0.00067832944,0.003359384,4042,0,0.21164614,0.29800594,-9.659014,4042
719208022,0.0006909379,-0.0010881026,0.0021524916,3959,0,0.20876701,0.28331867,-9.640812,3959
719212052,-0.0020493225,8.846644e-05,0.0016945014,4030,0,0.1992584,0.28869343,-9.641008,4030
719216022,-0.00036243754,-0.00089736935,0.0029010274,3970,0,0.20818046,0.28613195,-9.634109,3970
719220021,-0.0017472202,0.00017220086,0.0026575176,3999,0,0.21227682,0.28645334,-9.628612,3999
719224021,-0.0026911667,0.0004017062,0.0020080768,4000,0,0.23002265,0.29397306,-9.644453,4000
719228022,-0.0009124537,-0.0010007725,0.0029791817,4001,0,0.23132066,0.29100117,-9.636863,4001
719232046,0.0013165175,-0.0023947945,0.0038641044,4024,0,0.2230156,0.28793794,-9.653734,4024
719236028,-0.00014402754,-0.0022508705,0.0018052263,3982,0,0.21615358,0.2827025,-9.627296,3982
719240021,-0.00040568554,-0.0004131831,-0.00028491358,3993,0,0.21938956,0.27773112,-9.641598,3993
719244021,-0.0014122302,0.0010379901,0.0019376087,4000,0,0.21547744,0.28036094,-9.655938,4000
719248021,-0.0007795983,0.0010667812,0.0016581694,4000,0,0.20267314,0.28248924,-9.644504,4000
719252026,-0.0028786554,-0.00075033377,0.0009205706,4005,0,0.22380444,0.29637015,-9.645505,4005
719256028,-0.0019045639,0.0013879236,0.00023029986,4002,0,0.21736401,0.2903677,-9.657679,4002
719260021,-0.0007742,0.0009460459,0.0020675692,3993,0,0.20802628,0.2873624,-9.64838,3993
719264021,-0.0021467195,-0.0014101358,0.0016589846,4000,0,0.20417313,0.28534284,-9.667029,4000
719268021,-0.0018820079,0.0007859662,0.0033108683,4000,0,0.20944284,0.28874096,-9.650913,4000
719272034,0.00026216265,6.005259e-05,0.0031354525,4013,0,0.21431617,0.29645053,-9.650985,4013
719276053,-0.0010104312,-0.0019530316,0.0026494006,4019,0,0.21171492,0.29711148,-9.661967,4019
719280025,-0.0017269802,-0.001838045,0.0025162236,3972,0,0.21578784,0.297383,-9.650799,3972
719284022,-0.0019721475,0.0002737897,0.0028802585,3997,0,0.22235046,0.30288863,-9.665413,3997
719288021,-0.0012994768,-0.0015059097,0.0019153192,3999,0,0.20088996,0.2926806,-9.646709,3999
719292040,-0.0028595366,-0.0013794424,5.8269674e-05,4019,0,0.20846732,0.29129001,-9.624565,4019
719296055,0.00017891344,-0.0010960506,0.0023632064,4015,0,0.20955257,0.29557464,-9.630583,4015
719300022,0.00016511361,0.00051134126,0.0023910948,3967,0,0.21052073,0.2971399,-9.632948,3967
719304021,-0.0013751967,-0.00039037346,0.004900387,3999,0,0.21846436,0.29761136,-9.663203,3999
719308021,-0.001853082,-0.000991926,0.0024308076,4000,0,0.20976597,0.29941627,-9.660096,4000
719312026,-0.0007593821,0.0010486988,0.0013187206,4005,0,0.22232653,0.30047435,-9.663506,4005
719316021,-0.0012036527,0.00040443472,0.0021444692,3995,0,0.23086785,0.2858685,-9.641306,3995
719320022,0.00030797438,0.0013861586,0.0010425162,4001,0,0.22875819,0.28831363,-9.648379,4001
719324021,-0.00090255967,-3.7779293e-05,0.0028944763,3999,0,0.22209674,0.28141508,-9.633915,3999
719328028,-0.0024089436,0.0015410989,0.0036291,4007,0,0.21824795,0.29617313,-9.635671,4007
719332032,-0.0027433399,0.0019564838,0.0043747015,4004,0,0.22450477,0.29176885,-9.655077,4004
719336022,-0.0018467102,-0.001520353,0.0022103912,3990,0,0.21993232,0.28777367,-9.643829,3990
719340021,-0.00014833473,-0.0004507111,0.002272963,3999,0,0.21256535,0.29191208,-9.635375,3999
719344021,-0.00013579625,-0.00023564728,0.0019510126,4000,0,0.2220289,0.282799,-9.631043,4000
719348028,0.00075463654,-0.0007609457,0.001218019,4007,0,0.21250932,0.28767443,-9.634417,4007
719352021,-0.0012653278,0.00011185663,0.00022600027,3993,0,0.20324807,0.27831528,-9.648666,3993
719356021,-0.0004619858,-0.00044595983,0.002151487,4000,0,0.19840264,0.2748168,-9.667372,4000
719360047,-0.0005456154,-0.00107576,0.0012888608,4026,0,0.20103027,0.28133053,-9.657738,4026
719364021,0.00041845135,-0.00041950057,0.0011151477,3974,0,0.20667304,0.28183082,-9.62987,3974
719368028,0.00017847065,-0.0012969327,0.0024764596,4007,0,0.22235642,0.27885428,-9.625869,4007
719372022,-0.00077944755,0.0003974046,0.002265714,3994,0,0.20773341,0.2981037,-9.635419,3994
719376022,-0.0017322315,0.0012549652,0.0020445236,4000,0,0.2169367,0.28584474,-9.640593,4000
719380024,-0.0011646856,-0.0015865699,0.00073368254,4002,0,0.22338656,0.2878118,-9.645647,4002
719384025,-0.00089913624,-0.0005670689,0.0027804112,4001,0,0.2117381,0.27345383,-9.642375,4001
719388028,-0.0031263279,-0.0003471707,0.0023043007,4003,0,0.20805724,0.28071848,-9.649468,4003
719392021,-0.002276676,0.00018378196,0.002439795,3993,0,0.20154777,0.2767026,-9.637821,3993
719396022,-0.001551263,0.00079344335,0.003318762,4001,0,0.20999017,0.27410108,-9.652741,4001
719400037,-0.00012264597,-0.00095856993,0.0010980314,4015,0,0.21342121,0.28075755,-9.652235,4015
719404021,-0.00091843656,0.0010197866,0.003558893,3984,0,0.20893691,0.28066084,-9.646132,3984
719408032,-0.00024197919,0.001575531,0.001976968,4011,0,0.21893488,0.28283623,-9.662489,4011
719412021,0.000497985,0.00061210553,0.0023015297,3989,0,0.21304417,0.29468477,-9.657673,3989
719416022,0.0007292147,-0.0007501641,0.00142489,4001,0,0.21653499,0.29395318,-9.642398,4001
719420041,-0.0011672054,-0.00071355724,0.005111878,4019,0,0.21743003,0.29720533,-9.63946,4019
719424021,-0.0017311516,-0.0022540803,0.0018737357,3980,0,0.2230184,0.2907818,-9.652346,3980
719428022,-0.0033316487,-0.0017323395,0.0021706775,4001,0,0.20893694,0.28527656,-9.665027,4001
719432021,-0.0014243715,-0.0019495967,0.0022119107,3999,0,0.21219914,0.28757071,-9.663035,3999
719436022,-0.0006308188,-0.0015848085,0.00054404594,4001,0,0.21862705,0.28916535,-9.670858,4001
719440053,-0.0010042178,-0.002590217,0.0030602324,4031,0,0.2045626,0.27905253,-9.664272,4031
719444047,0.00018179155,-0.0006600966,0.0023733745,3994,0,0.22057672,0.27884507,-9.648147,3994
719448021,0.0002828523,-0.0015204864,0.0024744812,3974,0,0.21561272,0.2810691,-9.643078,3974
719452021,0.00040447534,-0.00065497245,0.0016382005,4000,0,0.2257247,0.27208453,-9.64539,4000
719456022,-0.00075663766,-0.0022401784,0.0014714826,4001,0,0.23280163,0.27658486,-9.659355,4001
719460033,-0.00035861906,-0.001622369,0.0022423374,4011,0,0.22836651,0.29068306,-9.67639,4011
719464051,-0.0021587224,0.0018979175,0.0018397649,4018,0,0.23105173,0.29818988,-9.66813,4018
719468021,-0.00044906948,0.0019871774,0.0025139288,3970,0,0.21784413,0.2895562,-9.639911,3970
719472021,0.00016058312,0.001451957,0.003053622,4000,0,0.21785311,0.2828818,-9.636823,4000
719476022,-0.00075282896,0.0009476308,0.0012187278,4001,0,0.2217438,0.29248217,-9.640907,4001
719480040,0.0005035769,-4.006484e-05,0.0019656518,4018,0,0.21192622,0.28836876,-9.647723,4018
719484021,0.00080782734,-0.002260318,0.0025804224,3981,0,0.21329923,0.28272974,-9.628428,3981
719488022,0.0010950661,-0.002077385,0.0039721522,4001,0,0.22487849,0.29658464,-9.629796,4001
719492021,0.00083801284,0.0005147338,0.0019912282,3999,0,0.21556482,0.29397267,-9.642424,3999
719496022,-0.0016119312,-0.0008817722,0.0013654601,4001,0,0.20648426,0.28422326,-9.658902,4001
719500028,-0.0029694499,0.00085784926,0.00042261466,4006,0,0.20440532,0.2816959,-9.678515,4006
719504022,-0.0018086979,-0.0019201653,0.0007138068,3994,0,0.21378732,0.28007448,-9.667872,3994
719508021,-0.0014875957,-0.0022357027,0.0006087258,3999,0,0.21544598,0.2841793,-9.657317,3999
719512021,-0.0007740027,-0.00055622804,0.002037338,4000,0,0.20659585,0.28435472,-9.668457,4000
719516022,-0.0007308865,-0.00051670184,7.2659527e-06,4001,0,0.19917397,0.28514493,-9.660077,4001
719520022,-0.0029787652,-0.001189437,0.0013416393,4000,0,0.19349146,0.27806783,-9.6626625,4000
719524021,-0.0032071217,-0.0012814626,0.0013242977,3999,0,0.19411448,0.28426367,-9.66779,3999
719528034,-0.0014511342,0.0003754029,0.0036353776,4013,0,0.20014903,0.28577647,-9.639124,4013
719532028,-0.00029969105,-0.0019836763,0.0043646866,3994,0,0.20747587,0.28015965,-9.644765,3994
719536022,-0.00013778328,-1.7399427e-05,0.0018687801,3994,0,0.21671678,0.27691406,-9.648847,3994
719540022,-0.00052781496,-0.0012761998,0.0005355536,4000,0,0.2279555,0.27091444,-9.660536,4000
719544022,0.0012359961,-0.00086720934,0.0019667158,4000,0,0.24139479,0.28240928,-9.639314,4000
719548062,-1.3196609e-05,-0.0017072593,0.0015106441,4040,0,0.22813348,0.28085676,-9.626622,4040
719552028,-0.0012203816,-0.00066861365,0.0024533605,3966,0,0.20908955,0.29148644,-9.637536,3966
719556021,-0.0009406127,-0.00091521826,0.0045835967,3993,0,0.20698012,0.28352562,-9.646038,3993
719560021,-0.0012233722,-0.0017440073,0.0030744043,4000,0,0.23067424,0.30360588,-9.653289,4000
719564021,-0.0029975101,-0.00055189646,0.0014712083,4000,0,0.21908462,0.2882131,-9.663243,4000
719568028,-0.0013649375,-0.00041427114,-0.00021341346,4007,0,0.20372763,0.2810509,-9.668097,4007
719572028,-0.0002236262,0.00030750857,0.0012094405,4000,0,0.21006611,0.28825283,-9.673535,4000
719576022,-0.00033046748,9.437754e-05,0.001306576,3994,0,0.22056437,0.30027136,-9.650332,3994
719580021,-0.00014241692,7.976576e-05,0.0019643584,3999,0,0.2129196,0.28851908,-9.629737,3999
719584021,0.00089421443,0.00091913564,0.0036916924,4000,0,0.2068842,0.28689167,-9.619845,4000
719588051,-0.0014216575,0.0011522466,0.0018328383,4030,0,0.22217096,0.2890652,-9.637572,4030
719592028,-0.0020370658,0.0023248745,0.0017402678,3977,0,0.2176492,0.2894432,-9.628644,3977
719596021,-0.0019558922,0.0017788642,0.0022608289,3993,0,0.2166881,0.28642142,-9.648721,3993
719600021,-0.0014844271,0.0013905426,0.0004738242,4000,0,0.2175128,0.2873332,-9.643636,4000
719604021,-0.0041291416,-0.00083491206,-7.27798e-05,4000,0,0.21636169,0.28905436,-9.634352,4000
719608036,-0.0023640068,0.0006240491,0.0016981658,4015,0,0.21429217,0.28165376,-9.648802,4015
719612047,-0.0012894026,0.0005235238,0.0009841155,4011,0,0.21525857,0.29662552,-9.630523,4011
719616022,-0.00010589648,-0.00065237225,0.0010943317,3975,0,0.21640404,0.29719034,-9.636227,3975
719620021,-0.00035052415,-0.00022851554,0.0020526315,3999,0,0.21801572,0.28787652,-9.644873,3999
719624028,0.00050455035,-0.0031988646,0.0019062537,4007,0,0.2092971,0.27202705,-9.640991,4007
719628039,-0.0008942434,-0.0011863068,0.0022330836,4011,0,0.20326842,0.27313602,-9.650675,4011
719632036,-0.0040547443,-0.00034427026,0.0012215073,3997,0,0.20479082,0.27725074,-9.615,3997
719636021,-0.0036204136,-0.0029835578,0.0008667687,3985,0,0.20576376,0.27282292,-9.633037,3985
719640021,-0.0028819228,-9.282076e-06,0.00092937116,4000,0,0.21433961,0.29068753,-9.65008,4000
719644027,-0.0017350713,-0.0017203209,0.0020996893,4006,0,0.20844191,0.2920736,-9.645538,4006
719648021,-0.0031401156,-0.004092738,0.0030951323,3994,0,0.20370333,0.29179594,-9.628492,3994
