timestamp,roll,pitch,yaw,thrust
717093808,-2.5688705,2.5977635,0.0016264514,0.0
717097872,-2.5689101,2.5977695,0.0016236594,0.0
717101821,-2.568913,2.597785,0.001624453,0.0
717105901,-2.5689425,2.5977979,0.0016231406,0.0
717109900,-2.5689685,2.5978062,0.0016215811,0.0
717113814,-2.5689394,2.597844,0.0016284601,0.0
717117862,-2.5689201,2.597821,0.0016276242,0.0
717121820,-2.5689075,2.5978148,0.0016284792,0.0
717125849,-2.56889,2.5978432,0.0016326386,0.0
717129892,-2.5688949,2.5978267,0.0016304564,0.0
717133818,-2.5689092,2.5978546,0.001632683,0.0
717137859,-2.5689065,2.597857,0.001633432,0.0
717141806,-2.568923,2.597817,0.0016266202,0.0
717145847,-2.5689275,2.5977955,0.0016248383,0.0
717149869,-2.5689425,2.5977855,0.0016220165,0.0
717153825,-2.568941,2.5978072,0.0016249324,0.0
717157859,-2.568972,2.597812,0.0016219105,0.0
717161813,-2.5689886,2.5978324,0.001623219,0.0
717165849,-2.569009,2.5978305,0.0016211532,0.0
717169890,-2.5690305,2.5978518,0.0016205293,0.0
717173805,-2.5690014,2.5978353,0.0016218376,0.0
717177850,-2.5689905,2.5977652,0.0016150009,0.0
717181779,-2.5690012,2.5977728,0.0016148363,0.0
717185870,-2.5689893,2.597752,0.0016131297,0.0
717189879,-2.5689995,2.5977418,0.0016115664,0.0
717193859,-2.5689967,2.5976677,0.0016030977,0.0
717197871,-2.5690124,2.5976903,0.0016045291,0.0
717201806,-2.5690238,2.5977178,0.0016067072,0.0
717205853,-2.5690012,2.5977414,0.0016120074,0.0
717209815,-2.5690017,2.5977628,0.0016138577,0.0
717213862,-2.569037,2.5978112,0.0016164075,0.0
717217861,-2.5689902,2.5978148,0.0016205388,0.0
717221803,-2.568946,2.5978727,0.0016308483,0.0
717226650,-2.5688944,2.597845,0.0016329332,0.0
717230672,-2.568852,2.5978382,0.0016363384,0.0
717235411,-2.5688682,2.5978253,0.001633504,0.0
717239422,-2.5689385,2.597844,0.0016283789,0.0
717243413,-2.5689614,2.5978692,0.0016285605,0.0
717247623,-2.5689952,2.5979102,0.0016307118,0.0
717251438,-2.568997,2.5979073,0.0016299589,0.0
717255408,-2.5689847,2.5979078,0.0016312827,0.0
717259432,-2.5689807,2.5979168,0.0016330277,0.0
717263415,-2.5689793,2.5979576,0.0016373042,0.0
717267470,-2.5689738,2.597942,0.0016359361,0.0
717271459,-2.5689666,2.5979486,0.0016372618,0.0
717275407,-2.5689564,2.5980022,0.0016438363,0.0
717279456,-2.5689075,2.5979586,0.0016435351,0.0
717283405,-2.5688589,2.5978904,0.0016409967,0.0
717287450,-2.568831,2.5979145,0.0016461721,0.0
717291620,-2.5687883,2.5979223,0.0016513458,0.0
717295417,-2.56875,2.5979385,0.0016567514,0.0
717299458,-2.5687482,2.5979152,0.0016543018,0.0
717303406,-2.5687442,2.5978787,0.0016510274,0.0
717307444,-2.5687566,2.5978997,0.0016518444,0.0
717311493,-2.5687828,2.5978923,0.001648691,0.0
717315509,-2.5687811,2.597866,0.0016457934,0.0
717319472,-2.5688298,2.597859,0.0016409055,0.0
717323417,-2.5688212,2.5978484,0.001639569,0.0
717327417,-2.5687876,2.5978522,0.0016442625,0.0
717331474,-2.5687952,2.5978873,0.0016473398,0.0
717335411,-2.568794,2.597933,0.0016520859,0.0
717339535,-2.568804,2.5979223,0.0016502697,0.0
717343406,-2.5688155,2.5979085,0.0016472364,0.0
717347451,-2.5688121,2.5979202,0.0016492434,0.0
717351489,-2.56887,2.597931,0.0016443059,0.0
717355410,-2.56892,2.5979238,0.001639488,0.0
717359465,-2.5689383,2.597877,0.001632109,0.0
717363496,-2.568955,2.5978665,0.0016289838,0.0
717367415,-2.5690303,2.5978265,0.001617051,0.0
717371484,-2.5690045,2.597853,0.001623355,0.0
717375415,-2.5690007,2.5978522,0.0016230652,0.0
717379450,-2.5689855,2.5978577,0.0016256316,0.0
717383411,-2.5689871,2.5978458,0.0016242672,0.0
717387664,-2.5689747,2.597905,0.0016326453,0.0
717391528,-2.5689602,2.5978858,0.0016313372,0.0
717395470,-2.5690057,2.5978813,0.0016263445,0.0
717399433,-2.5689905,2.5979152,0.0016318102,0.0
717404220,-2.5689847,2.5979161,0.0016323612,0.0
717409010,-2.5689394,2.597863,0.0016300514,0.0
717413043,-2.5688984,2.5978396,0.0016325256,0.0
717417006,-2.5688443,2.5978189,0.001634815,0.0
717421042,-2.568801,2.5978367,0.0016404369,0.0
717425042,-2.568774,2.5978944,0.0016495917,0.0
717429009,-2.5687284,2.5978768,0.0016516045,0.0
717433035,-2.5687022,2.5978916,0.0016562159,0.0
717437005,-2.5687342,2.597946,0.0016592267,0.0
717441042,-2.5687602,2.597961,0.0016581297,0.0
717445017,-2.568732,2.5979989,0.001664919,0.0
717449059,-2.56872,2.5979939,0.0016655845,0.0
717453054,-2.5687497,2.5979948,0.0016630806,0.0
717457007,-2.5687616,2.5979283,0.0016551608,0.0
717461041,-2.5687652,2.597934,0.0016543067,0.0
717465030,-2.5687723,2.597948,0.0016552312,0.0
717469051,-2.568742,2.5980165,0.0016662597,0.0
717473041,-2.5687118,2.5980225,0.0016701262,0.0
717477016,-2.5686595,2.5980382,0.0016758898,0.0
717481055,-2.5686815,2.5980365,0.0016741367,0.0
717485002,-2.5687068,2.598012,0.001668393,0.0
717489044,-2.5686872,2.59803,0.0016726436,0.0
717493058,-2.568676,2.5980587,0.0016763957,0.0
717497005,-2.568663,2.5980206,0.0016743626,0.0
717501052,-2.568702,2.5980654,0.001676086,0.0
717505012,-2.568687,2.5979946,0.001668246,0.0
717509061,-2.5686574,2.5979502,0.0016670991,0.0
717513078,-2.5686817,2.5979545,0.0016644737,0.0
717517017,-2.5687056,2.5978703,0.0016541919,0.0
717521050,-2.568729,2.597853,0.0016496032,0.0
717525008,-2.5687773,2.5978768,0.0016473666,0.0
717529020,-2.568789,2.5978978,0.0016485385,0.0
717533029,-2.568741,2.5979588,0.0016601223,0.0
717537002,-2.5687003,2.5979855,0.0016667946,0.0
717541052,-2.5686707,2.5979927,0.0016698313,0.0
717545006,-2.5686276,2.5979893,0.0016739126,0.0
717549048,-2.568629,2.597962,0.0016706565,0.0
717553071,-2.568667,2.5979772,0.0016691256,0.0
717557003,-2.5686727,2.598003,0.0016707055,0.0
717561059,-2.5686886,2.5980043,0.001669347,0.0
717565012,-2.5686948,2.5980158,0.0016700993,0.0
717569044,-2.5686638,2.598061,0.0016786641,0.0
717573053,-2.5686536,2.5980597,0.0016802178,0.0
717577005,-2.5686958,2.5980787,0.0016769965,0.0
717581837,-2.5686972,2.5980568,0.0016743679,0.0
717585812,-2.568702,2.598066,0.0016751647,0.0
717589839,-2.5687132,2.5980098,0.0016676522,0.0
717593779,-2.5687308,2.597983,0.0016633504,0.0
717597812,-2.5687582,2.5979939,0.0016619756,0.0
717601814,-2.5687876,2.598005,0.0016605067,0.0
717605814,-2.5687869,2.5979702,0.0016570201,0.0
717609860,-2.5687618,2.5979323,0.0016547285,0.0
717613804,-2.568756,2.5978913,0.0016507193,0.0
717617797,-2.568766,2.5978665,0.0016475938,0.0
717621850,-2.5687768,2.5978544,0.001645434,0.0
717625810,-2.568789,2.5978377,0.0016415205,0.0
717629828,-2.568807,2.5978086,0.0016370876,0.0
717633834,-2.5688343,2.597777,0.0016310753,0.0
717637819,-2.568866,2.597815,0.0016324339,0.0
717641821,-2.56884,2.5978084,0.0016345178,0.0
717645839,-2.5688019,2.5978057,0.0016372192,0.0
717649845,-2.568825,2.5977926,0.0016335621,0.0
717653819,-2.5688403,2.5978367,0.0016364728,0.0
717657802,-2.5688496,2.597854,0.0016383381,0.0
717661830,-2.5688019,2.5977995,0.0016368299,0.0
717665824,-2.5688,2.597816,0.0016384819,0.0
717669822,-2.5688,2.5978491,0.0016419261,0.0
717673821,-2.568853,2.5978506,0.0016375906,0.0
717677810,-2.568859,2.597856,0.0016375204,0.0
717681837,-2.568859,2.5978475,0.0016363102,0.0
717685833,-2.5688941,2.5978513,0.0016339084,0.0
717689843,-2.5688972,2.5978355,0.0016314313,0.0
717693856,-2.56888,2.597826,0.0016321717,0.0
717697856,-2.5688372,2.5978374,0.0016379184,0.0
717701853,-2.5688114,2.5978196,0.0016388848,0.0
717705831,-2.5687947,2.5978131,0.0016391485,0.0
717709842,-2.568769,2.597786,0.0016384871,0.0
717713833,-2.5687294,2.5977364,0.0016366134,0.0
717717850,-2.5687346,2.5977104,0.0016337399,0.0
717721854,-2.5687494,2.5977206,0.0016333503,0.0
717725838,-2.5687187,2.5977626,0.0016404364,0.0
717729843,-2.5687234,2.5977187,0.0016354382,0.0
717733832,-2.568736,2.5977345,0.0016359754,0.0
717737854,-2.5687847,2.5977814,0.0016356797,0.0
717741891,-2.5688386,2.5977912,0.001632958,0.0
717746625,-2.5688384,2.5977416,0.0016270723,0.0
717750677,-2.5688567,2.5977616,0.0016270515,0.0
717754711,-2.5688765,2.5977437,0.0016231469,0.0
717758621,-2.5689266,2.5977237,0.0016169961,0.0
717762665,-2.568913,2.5977194,0.0016182942,0.0
717766627,-2.5689237,2.5976915,0.0016133892,0.0
717770658,-2.5689387,2.5976942,0.0016126854,0.0
717774660,-2.568966,2.5976813,0.0016082127,0.0
717778614,-2.5690014,2.5976872,0.0016055075,0.0
717783437,-2.5690067,2.5977182,0.0016083244,0.0
717787405,-2.5689719,2.597748,0.0016144782,0.0
717791482,-2.5689569,2.5977743,0.0016186377,0.0
717795412,-2.5689435,2.5977886,0.0016223787,0.0
717799496,-2.5689151,2.597722,0.0016174709,0.0
717803446,-2.5689104,2.597726,0.0016190702,0.0
717807415,-2.5688856,2.5977075,0.0016180695,0.0
717811480,-2.568884,2.5977383,0.0016222728,0.0
717815409,-2.5688663,2.597784,0.0016290187,0.0
717819419,-2.5688558,2.597809,0.0016323942,0.0
717823456,-2.5688894,2.5978117,0.0016298041,0.0
717827416,-2.5689666,2.59789,0.0016314854,0.0
717831468,-2.5689578,2.5978835,0.0016309761,0.0
717835441,-2.5689638,2.5978653,0.0016290327,0.0
717839377,-2.5689878,2.5978644,0.0016261804,0.0
717843456,-2.568974,2.5978832,0.0016297274,0.0
717847499,-2.5689602,2.5978878,0.0016312981,0.0
717851478,-2.5689418,2.5979133,0.0016358264,0.0
717855458,-2.5688972,2.5979369,0.0016425042,0.0
717859382,-2.5689034,2.5979388,0.0016425534,0.0
717863441,-2.568908,2.5979588,0.0016442193,0.0
717867404,-2.5689042,2.597973,0.0016458471,0.0
717871535,-2.5688713,2.5980165,0.0016540167,0.0
717875457,-2.5688376,2.5980062,0.0016555339,0.0
717879429,-2.56881,2.5979924,0.0016560825,0.0
717883449,-2.5688121,2.5980196,0.0016596427,0.0
717887412,-2.5688493,2.5979886,0.0016532706,0.0
717891446,-2.5688515,2.5979393,0.0016472893,0.0
717895567,-2.5688772,2.5978904,0.0016393409,0.0
717899475,-2.568922,2.5978746,0.0016338334,0.0
717903439,-2.568892,2.5978653,0.0016352704,0.0
717907409,-2.5688703,2.5978632,0.0016369494,0.0
717911455,-2.5688918,2.5978618,0.0016349561,0.0
717915438,-2.5689077,2.5978847,0.0016359104,0.0
717919638,-2.5689645,2.5979154,0.0016337986,0.0
717924247,-2.5689864,2.5979476,0.0016354854,0.0
717929056,-2.569011,2.5979779,0.0016368765,0.0
717933006,-2.569021,2.5979927,0.0016371731,0.0
717937033,-2.5690265,2.5979455,0.0016312642,0.0
717941004,-2.5690165,2.5978796,0.0016260615,0.0
717945046,-2.5690513,2.5978563,0.0016196286,0.0
717949043,-2.5690892,2.5978506,0.0016156523,0.0
717953105,-2.5691066,2.5978322,0.0016111732,0.0
717957002,-2.5691352,2.5977957,0.0016050851,0.0
717961001,-2.5691574,2.5977921,0.0016017075,0.0
717965030,-2.5691483,2.5977702,0.0016002865,0.0
717969043,-2.5691009,2.5977824,0.0016067112,0.0
717973092,-2.5691214,2.597717,0.0015979685,0.0
717977004,-2.5691366,2.5976758,0.0015913307,0.0
717981017,-2.5691488,2.597675,0.0015903501,0.0
717985053,-2.5691166,2.597602,0.0015852167,0.0
717989018,-2.569154,2.5975807,0.001579167,0.0
717993074,-2.5691545,2.5975566,0.001576765,0.0
717997001,-2.56913,2.5975575,0.0015787326,0.0
718001015,-2.5691376,2.5975895,0.0015817576,0.0
718005027,-2.5691884,2.5975826,0.0015760142,0.0
718009019,-2.5691848,2.5975199,0.0015697492,0.0
718013079,-2.569173,2.5975533,0.0015746467,0.0
718017008,-2.5691967,2.5975833,0.0015751172,0.0
718021012,-2.5691698,2.5975704,0.0015776828,0.0
718025043,-2.5691864,2.597583,0.0015768175,0.0
718029008,-2.5691502,2.5976076,0.0015827279,0.0
718033066,-2.5691307,2.5976436,0.0015882355,0.0
718037044,-2.569113,2.5976393,0.0015898325,0.0
718041011,-2.5691252,2.5976284,0.0015878433,0.0
718045038,-2.5690892,2.5976171,0.0015894842,0.0
718049015,-2.5690956,2.5976424,0.0015920124,0.0
718053076,-2.56911,2.597688,0.0015958479,0.0
718057030,-2.5691497,2.5977087,0.0015936439,0.0
718061025,-2.5691028,2.597744,0.0016019242,0.0
718065055,-2.5690687,2.5977912,0.0016108488,0.0
718069007,-2.5690572,2.5978024,0.001613289,0.0
718073043,-2.56905,2.5978034,0.0016132917,0.0
718077041,-2.5690522,2.597794,0.0016117652,0.0
718081014,-2.569021,2.597752,0.0016112109,0.0
718085036,-2.5690756,2.597814,0.0016120783,0.0
718089001,-2.5691373,2.5978608,0.0016116084,0.0
718093054,-2.5691533,2.5978882,0.0016126062,0.0
718105007,-2.5691233,2.5979393,0.0016217955,0.0
718109004,-2.569116,2.597933,0.0016210685,0.0
718113047,-2.5691507,2.5979319,0.0016186342,0.0
718117046,-2.5691223,2.59793,0.0016205006,0.0
718121057,-2.5691586,2.597981,0.0016228626,0.0
718125007,-2.5692036,2.5979896,0.0016189616,0.0
718129010,-2.5692213,2.5980067,0.001619523,0.0
718133071,-2.5692239,2.5979877,0.0016177578,0.0
718137058,-2.5692132,2.597971,0.0016166567,0.0
718141062,-2.5692048,2.5979548,0.0016153723,0.0
718145015,-2.569262,2.5979936,0.0016148495,0.0
718149015,-2.5693,2.598023,0.0016143079,0.0
718153039,-2.5693164,2.5979614,0.0016057804,0.0
718157015,-2.5693238,2.597925,0.0016013824,0.0
718161056,-2.5693114,2.5979388,0.0016035121,0.0
718165003,-2.5693393,2.5979793,0.0016057099,0.0
718169013,-2.569349,2.5980012,0.0016067784,0.0
718173062,-2.569316,2.5979953,0.0016092857,0.0
718177011,-2.569333,2.5980258,0.0016109068,0.0
718181090,-2.5693507,2.597995,0.0016057063,0.0
718185007,-2.5693457,2.5979888,0.0016052529,0.0
718189808,-2.5693824,2.5979702,0.0016001415,0.0
718193866,-2.5694108,2.5979822,0.0015987759,0.0
718197876,-2.5693927,2.5979984,0.0016022164,0.0
718201855,-2.5693758,2.5980043,0.0016046123,0.0
718205887,-2.5694027,2.5979896,0.0016012768,0.0
718209820,-2.5693996,2.5980268,0.0016051009,0.0
718213853,-2.5693424,2.5979939,0.0016071422,0.0
718217879,-2.5693264,2.5979571,0.0016047232,0.0
718221863,-2.569351,2.5979493,0.001601766,0.0
718225856,-2.569391,2.5979545,0.0015971191,0.0
718229814,-2.5694366,2.5980055,0.0015995165,0.0
718233849,-2.569422,2.5979812,0.001597878,0.0
718237857,-2.5694284,2.597951,0.0015936072,0.0
718241914,-2.569425,2.5979319,0.0015920502,0.0
718245848,-2.5694406,2.5979567,0.0015935743,0.0
718249809,-2.5694423,2.597938,0.0015911077,0.0
718253851,-2.5694096,2.597908,0.0015916815,0.0
718257850,-2.5694256,2.597933,0.001592803,0.0
718261903,-2.569451,2.597946,0.0015912884,0.0
718265841,-2.569422,2.5979319,0.0015918218,0.0
718269778,-2.569418,2.5978959,0.0015889744,0.0
718273851,-2.5694063,2.597885,0.001588692,0.0
718277831,-2.5694442,2.5978677,0.0015835576,0.0
718281888,-2.5694716,2.5978646,0.0015811448,0.0
718285894,-2.5694861,2.5978699,0.0015789735,0.0
718289805,-2.569512,2.5978456,0.0015748445,0.0
718293845,-2.56953,2.5978692,0.0015747556,0.0
718297831,-2.569506,2.5978575,0.0015772714,0.0
718301874,-2.5695364,2.5978427,0.0015718441,0.0
718306626,-2.5695093,2.597778,0.0015674413,0.0
718310617,-2.5694706,2.5977492,0.001567509,0.0
718314657,-2.5694942,2.5977392,0.001564638,0.0
718318645,-2.5694556,2.597753,0.0015702276,0.0
718322696,-2.569394,2.5976992,0.0015701238,0.0
718326632,-2.5693579,2.5977023,0.0015740502,0.0
718330634,-2.5693097,2.59769,0.0015762602,0.0
718334649,-2.569329,2.5977077,0.0015765767,0.0
718338644,-2.5693288,2.5977097,0.0015769855,0.0
718342682,-2.5692918,2.5976992,0.0015799141,0.0
718346621,-2.5692751,2.5976827,0.001578853,0.0
718350621,-2.5692878,2.597689,0.0015786102,0.0
718355454,-2.5692594,2.597644,0.0015761188,0.0
718359419,-2.5692427,2.5976043,0.0015736718,0.0
718363452,-2.5691924,2.5976255,0.0015810145,0.0
718367378,-2.5691826,2.5976405,0.0015836034,0.0
718371406,-2.5692134,2.5976295,0.0015802509,0.0
718375467,-2.5692334,2.5976229,0.0015759781,0.0
718379451,-2.5692084,2.5976496,0.0015821048,0.0
718383424,-2.56915,2.5976627,0.0015890879,0.0
718387404,-2.5691671,2.597657,0.0015871206,0.0
718391406,-2.5691721,2.5976539,0.0015861079,0.0
718395441,-2.569144,2.5976467,0.0015877691,0.0
718399450,-2.5691009,2.5976143,0.0015878499,0.0
718403469,-2.569145,2.597619,0.0015853446,0.0
718407682,-2.5691633,2.5976682,0.0015873008,0.0
718411415,-2.5691524,2.5977137,0.0015943088,0.0
718415460,-2.5691297,2.5976794,0.0015914646,0.0
718419433,-2.569117,2.5976944,0.001596114,0.0
718423501,-2.5690868,2.5977437,0.0016036485,0.0
718427406,-2.5690641,2.597752,0.0016068321,0.0
718432212,-2.5690956,2.5977752,0.0016060411,0.0
718436300,-2.5690832,2.5978107,0.0016114538,0.0
718440259,-2.569052,2.5978377,0.0016172362,0.0
718444257,-2.5690243,2.5978587,0.0016232478,0.0
718448214,-2.568983,2.5978465,0.0016243316,0.0
718452212,-2.5689704,2.5978832,0.0016293656,0.0
718456268,-2.568982,2.5978675,0.0016276111,0.0
718460244,-2.5689995,2.5978208,0.0016210896,0.0
718464222,-2.568968,2.597818,0.0016228086,0.0
718468213,-2.568944,2.5978265,0.0016270345,0.0
718473041,-2.5689638,2.597834,0.0016251085,0.0
718477093,-2.5689723,2.597848,0.0016258259,0.0
718481004,-2.5689163,2.5978124,0.0016270622,0.0
718485011,-2.5688813,2.5977817,0.0016270776,0.0
718489045,-2.5689096,2.597784,0.0016254822,0.0
718493007,-2.5689216,2.5977964,0.0016254842,0.0
718497087,-2.5688674,2.5978336,0.0016335455,0.0
718501018,-2.568827,2.5978136,0.0016358226,0.0
718505009,-2.568769,2.5978298,0.0016426583,0.0
718509035,-2.5687492,2.597877,0.0016501914,0.0
718513015,-2.5687165,2.5979006,0.0016565011,0.0
718517078,-2.568715,2.597918,0.0016576019,0.0
718521010,-2.568747,2.5978951,0.0016522405,0.0
718525043,-2.5687544,2.5979261,0.0016543627,0.0
718529004,-2.5687037,2.59794,0.0016609308,0.0
718533004,-2.5687237,2.59793,0.0016582502,0.0
718537071,-2.5687525,2.5979142,0.0016541147,0.0
718541062,-2.5687234,2.597877,0.001652449,0.0
718545052,-2.5687504,2.5978723,0.0016494856,0.0
718549004,-2.5687647,2.5978804,0.0016488527,0.0
718553003,-2.5687582,2.5978837,0.0016494517,0.0
718557064,-2.5687656,2.5979006,0.0016511737,0.0
718561818,-2.5687678,2.597936,0.0016544329,0.0
718565840,-2.5687022,2.5978856,0.0016554687,0.0
718569854,-2.5686467,2.5978634,0.00165759,0.0
718573829,-2.5686204,2.5978863,0.0016630405,0.0
718577884,-2.5686052,2.5978527,0.0016608972,0.0
718581810,-2.5685863,2.597854,0.0016628576,0.0
718585844,-2.568606,2.5978363,0.001660145,0.0
718589849,-2.5685272,2.5978513,0.0016684163,0.0
718593811,-2.5685232,2.5978885,0.0016727075,0.0
718597895,-2.5685015,2.5978918,0.0016756549,0.0
718601809,-2.5685077,2.597961,0.0016817227,0.0
718605863,-2.568518,2.597984,0.0016834943,0.0
718609805,-2.5685194,2.5980036,0.0016858885,0.0
718613780,-2.5685134,2.597997,0.0016855991,0.0
718617911,-2.5685472,2.598015,0.001684772,0.0
718621781,-2.5686028,2.5980291,0.0016803602,0.0
718625849,-2.5685687,2.598048,0.0016859929,0.0
718629783,-2.568598,2.598033,0.0016811213,0.0
718633799,-2.5686052,2.5980504,0.0016830849,0.0
718637898,-2.5686243,2.5980735,0.0016832924,0.0
718641825,-2.5686219,2.5981104,0.0016883975,0.0
718645825,-2.5685844,2.598095,0.0016895117,0.0
718649782,-2.5686104,2.59806,0.0016825113,0.0
718653788,-2.5685692,2.5980399,0.0016845952,0.0
718657849,-2.5685184,2.59802,0.0016878793,0.0
718661804,-2.5684798,2.598015,0.00169092,0.0
718665837,-2.5685077,2.598046,0.0016915629,0.0
718669781,-2.5685413,2.5980825,0.0016916485,0.0
718673796,-2.5685441,2.5981083,0.0016943751,0.0
718677908,-2.5685143,2.5981374,0.0017011709,0.0
718681805,-2.568517,2.598157,0.0017024023,0.0
718685848,-2.5685256,2.5982156,0.0017074405,0.0
718689785,-2.568523,2.598226,0.0017099364,0.0
718693787,-2.56848,2.5982242,0.0017136803,0.0
718697858,-2.568482,2.5982282,0.0017143892,0.0
718701819,-2.568465,2.5982428,0.001717584,0.0
718705876,-2.5684888,2.5982816,0.0017190906,0.0
718709785,-2.5685046,2.598302,0.0017195949,0.0
718713787,-2.5684574,2.598305,0.0017248129,0.0
718717843,-2.5684571,2.5983377,0.0017280567,0.0
718721805,-2.568482,2.5983484,0.0017266719,0.0
718725894,-2.568486,2.5983348,0.0017248398,0.0
718729789,-2.568482,2.5983877,0.0017313983,0.0
718733804,-2.5684643,2.5984683,0.0017419349,0.0
718737848,-2.5684254,2.598504,0.0017489673,0.0
718741808,-2.568406,2.5984843,0.0017500451,0.0
718745874,-2.5684285,2.598492,0.0017477478,0.0
718749796,-2.5684087,2.598461,0.0017461213,0.0
718753809,-2.5683837,2.598503,0.0017527194,0.0
718757796,-2.568359,2.598494,0.0017546114,0.0
718761782,-2.5683684,2.5984774,0.0017524665,0.0
718765893,-2.5684037,2.5984418,0.0017441914,0.0
718769783,-2.5684714,2.5984735,0.00174105,0.0
718773789,-2.56851,2.5984886,0.0017397667,0.0
718777804,-2.5685554,2.5985513,0.0017421144,0.0
718781779,-2.568528,2.5985928,0.0017493535,0.0
718785888,-2.5685444,2.5986414,0.001752098,0.0
718789785,-2.568557,2.5986435,0.0017517856,0.0
718793796,-2.5685968,2.598678,0.0017525513,0.0
718797830,-2.5686245,2.598688,0.0017498281,0.0
718801786,-2.5686185,2.5986788,0.0017503216,0.0
718805866,-2.5685723,2.5987034,0.0017571419,0.0
718809822,-2.5685794,2.59863,0.0017486041,0.0
718813864,-2.5686438,2.5986605,0.0017457576,0.0
718817840,-2.5686388,2.5986645,0.0017470516,0.0
718821786,-2.568643,2.5986497,0.0017444544,0.0
718825898,-2.5686517,2.598628,0.0017408065,0.0
718829829,-2.5686862,2.5986042,0.0017350842,0.0
718833846,-2.5686967,2.598582,0.0017322579,0.0
718837822,-2.5686712,2.5985699,0.0017336723,0.0
718841817,-2.5686405,2.5986168,0.0017410335,0.0
718845884,-2.5686042,2.5985906,0.001741963,0.0
718849853,-2.5686126,2.5985808,0.0017395689,0.0
718853845,-2.568607,2.598568,0.0017391881,0.0
718857832,-2.5686302,2.5985281,0.0017325766,0.0
718861814,-2.5686588,2.5985065,0.0017276581,0.0
718865874,-2.568641,2.5984375,0.0017221181,0.0
718869862,-2.5686212,2.598376,0.0017165836,0.0
718873925,-2.5686264,2.5984018,0.0017200012,0.0
718877844,-2.5686355,2.5984232,0.001720342,0.0
718881844,-2.5686069,2.5984817,0.0017296107,0.0
718885872,-2.568616,2.5985544,0.0017370884,0.0
718889823,-2.5686324,2.5985591,0.001735802,0.0
718893869,-2.568614,2.598554,0.0017370826,0.0
718897843,-2.5685582,2.5985665,0.0017432836,0.0
718901841,-2.568543,2.5985434,0.001742135,0.0
718905882,-2.5685546,2.5985632,0.0017435435,0.0
718909847,-2.5685492,2.5985227,0.001739834,0.0
718913881,-2.568531,2.5985093,0.0017397873,0.0
718917841,-2.5685327,2.5985484,0.0017440437,0.0
718921819,-2.5685263,2.5985658,0.0017465531,0.0
718925842,-2.5685058,2.5985541,0.0017469755,0.0
718929829,-2.5684795,2.5985346,0.0017474834,0.0
718933866,-2.5684621,2.5985289,0.0017484773,0.0
718937822,-2.5684571,2.5985007,0.001745403,0.0
718941827,-2.5684426,2.5985358,0.0017512115,0.0
718945841,-2.5684094,2.5986085,0.0017620998,0.0
718949828,-2.5683596,2.5986328,0.0017696177,0.0
718953904,-2.5683413,2.5986876,0.0017770536,0.0
718957873,-2.5683708,2.5987718,0.0017839452,0.0
718961855,-2.5683818,2.598787,0.0017847687,0.0
718965845,-2.568388,2.5988095,0.0017857602,0.0
718969816,-2.568389,2.5988197,0.0017865608,0.0
718973862,-2.5684118,2.5988245,0.0017851349,0.0
718977887,-2.5684342,2.598786,0.0017792234,0.0
718981850,-2.5684776,2.5987682,0.0017726469,0.0
718985859,-2.568502,2.5987277,0.0017662536,0.0
718989817,-2.5685005,2.5987344,0.0017673936,0.0
718994663,-2.5684683,2.5987706,0.0017744624,0.0
718998605,-2.568447,2.5987303,0.0017720684,0.0
719002660,-2.5684729,2.5987582,0.0017728098,0.0
719006613,-2.56846,2.598741,0.0017716056,0.0
719010636,-2.5684986,2.5987256,0.0017669357,0.0
719014781,-2.5685225,2.5987334,0.0017652069,0.0
719018609,-2.5685356,2.5987194,0.0017625041,0.0
719022641,-2.5685894,2.5987117,0.0017566578,0.0
719026619,-2.5686543,2.5986888,0.0017484074,0.0
719030630,-2.568714,2.5986967,0.0017425683,0.0
719034679,-2.5687602,2.5987039,0.0017401451,0.0
719038609,-2.5687578,2.5987403,0.0017438321,0.0
719042652,-2.5687811,2.59877,0.0017442196,0.0
719046611,-2.5688107,2.5988183,0.0017468991,0.0
719050619,-2.568822,2.5988202,0.0017457542,0.0
719054691,-2.5688503,2.598832,0.0017444947,0.0
719058607,-2.5688636,2.5988183,0.0017432923,0.0
719062643,-2.5688736,2.5987887,0.0017383154,0.0
719066619,-2.5689082,2.598782,0.0017340984,0.0
719070609,-2.5689135,2.5988245,0.0017377742,0.0
719074684,-2.5689056,2.5988634,0.0017429553,0.0
719078640,-2.568896,2.5988557,0.0017441069,0.0
719082651,-2.5689013,2.5988262,0.001739775,0.0
719087407,-2.5689552,2.598872,0.0017384352,0.0
719092191,-2.568991,2.5989008,0.0017389895,0.0
719096207,-2.5690303,2.5989103,0.0017358938,0.0
719100183,-2.5690339,2.5989277,0.0017383925,0.0
719104208,-2.5690305,2.5989313,0.0017384319,0.0
719108256,-2.5690477,2.5989141,0.0017344796,0.0
719112233,-2.5690784,2.5989265,0.0017340132,0.0
719116224,-2.5690682,2.5989609,0.0017386215,0.0
719120180,-2.5690677,2.5989811,0.001739919,0.0
719124199,-2.569046,2.5989857,0.0017431295,0.0
719128240,-2.5690048,2.5990343,0.0017526083,0.0
719132236,-2.56895,2.598997,0.0017532827,0.0
719136219,-2.5689185,2.598945,0.0017515023,0.0
719140183,-2.568945,2.59895,0.0017479475,0.0
719144204,-2.5690064,2.598898,0.0017382936,0.0
719148189,-2.5690374,2.5988963,0.0017339323,0.0
719152406,-2.569054,2.5989053,0.0017335772,0.0
719156243,-2.5690367,2.5989013,0.0017344602,0.0
719160202,-2.5690284,2.5989494,0.0017406255,0.0
719164265,-2.569023,2.5990505,0.0017526628,0.0
719168189,-2.5690053,2.5990806,0.0017572677,0.0
719172232,-2.5689526,2.5991,0.001764098,0.0
719176392,-2.5689342,2.5991476,0.0017714936,0.0
719180185,-2.5689645,2.5991876,0.0017730047,0.0
719184194,-2.5689363,2.5992403,0.0017815387,0.0
719188190,-2.5689034,2.5991976,0.0017795785,0.0
719192216,-2.5688996,2.599161,0.0017765583,0.0
719196258,-2.568893,2.5991213,0.0017737163,0.0
719200184,-2.568864,2.5990992,0.0017724755,0.0
719204227,-2.5688488,2.5990992,0.0017740014,0.0
719208186,-2.5689015,2.5991058,0.0017709186,0.0
719212210,-2.568946,2.5991237,0.0017675816,0.0
719216244,-2.568921,2.5991116,0.00176868,0.0
719220407,-2.5689375,2.5991251,0.0017681756,0.0
719224224,-2.5689194,2.5991123,0.0017693598,0.0
719228184,-2.568878,2.5990942,0.001770957,0.0
719232207,-2.568881,2.5991106,0.0017720071,0.0
719236271,-2.5689402,2.5991604,0.0017723747,0.0
719240205,-2.5689623,2.5992076,0.0017746834,0.0
719244238,-2.5689752,2.5992112,0.001774557,0.0
719248208,-2.5689638,2.599178,0.0017714682,0.0
719252188,-2.5689678,2.599145,0.0017674481,0.0
719256277,-2.564028,2.6040397,0.0018342698,0.0
719260181,-2.5640028,2.603998,0.0018324559,0.0
719264244,-2.5640073,2.6039674,0.0018280521,0.0
719268211,-2.5639806,2.6039922,0.0018338602,0.0
719272221,-2.5639596,2.603963,0.0018328403,0.0
719276286,-2.5639908,2.6039524,0.0018285981,0.0
719280217,-2.520534,2.6466262,0.0023711605,0.0
719284249,-2.520518,2.6466608,0.002376646,0.0
719288205,-2.5204945,2.6466439,0.0023769813,0.0
719292410,-2.520488,2.646671,0.002380534,0.0
719296294,-2.5204432,2.6466966,0.0023881919,0.0
719300232,-2.5204725,2.6467142,0.0023866275,0.0
719304250,-2.0436997,3.0394065,0.0077822306,0.0
719308205,-2.0436914,3.0394042,0.007783297,0.0
719312210,-2.0436714,3.039418,0.0077868756,0.0
719316411,-2.0436761,3.0393841,0.0077833333,0.0
719320248,-2.0436702,3.0393646,0.0077820825,0.0
719324234,-2.043699,3.0393221,0.007775357,0.0
719328220,-0.48480234,3.0283368,0.016614674,0.0
719332220,-0.4847681,3.0282857,0.016617345,0.0
719336213,-0.48472476,3.0282245,0.016618859,0.0
719340440,-0.48470452,3.0282524,0.01662237,0.0
719344306,-0.48472592,3.0282536,0.016620345,0.0
719348216,-0.48474592,3.0282497,0.016618228,0.0
719352247,0.49916226,1.7395219,0.013477612,0.0
719356205,0.49917087,1.73951,0.013478904,0.0
719360230,0.4991576,1.7395107,0.0134780565,0.0
719364282,0.49914753,1.739529,0.013477159,0.0
719368215,0.4991126,1.7395294,0.013475234,0.0
719372234,0.49908298,1.7395519,0.013473773,0.0
719376208,0.8252454,0.29640773,0.005560187,0.0
719380215,0.8252654,0.2963643,0.005561522,0.0
719384320,0.82527137,0.29639575,0.0055611967,0.0
719388429,0.8252692,0.29639888,0.0055608186,0.0
719392263,0.8253249,0.29639646,0.005561506,0.0
719396215,0.8253586,0.2963804,0.0055611073,0.0
719400230,1.0103205,-0.3743415,0.0020841816,0.0
719404270,1.0102999,-0.37432697,0.002084277,0.0
719408226,1.0102977,-0.37436578,0.0020851279,0.0
719412440,1.0102788,-0.37441802,0.0020865046,0.0
719416222,1.0102406,-0.37444538,0.0020876946,0.0
719420235,0.7903114,-0.33910492,0.0010659144,0.0
719424288,0.790312,-0.33909458,0.0010667312,0.0
719428211,0.79032886,-0.33904216,0.0010655168,0.0
719432250,0.7903874,-0.33900344,0.0010643217,0.0
719436215,0.79039615,-0.33895907,0.0010643539,0.0
719440250,0.7903857,-0.3389228,0.0010630745,0.0
719444277,0.8725438,-0.19421554,0.0025110426,0.0
719448276,0.8725112,-0.19420505,0.0025107719,0.0
719452264,0.87247574,-0.19417262,0.0025101022,0.0
719456212,0.8724379,-0.19416171,0.0025101844,0.0
719460410,0.8724297,-0.1941097,0.002509056,0.0
719464300,0.872411,-0.19407418,0.0025086673,0.0
719468260,0.8724396,-0.19413006,0.0025106713,0.0
719472241,0.8608938,-0.14776479,0.0027589798,0.0
719476223,0.8608612,-0.14781003,0.0027596934,0.0
719480238,0.8608536,-0.1478406,0.0027599821,0.0
719484245,0.860813,-0.1478463,0.0027599717,0.0
719488264,0.8607637,-0.14779532,0.002758993,0.0
719492258,0.8607062,-0.14774996,0.0027593798,0.0
719496215,0.37859064,-0.15925567,-7.542398e-05,0.0
719500261,0.3786052,-0.15923929,-7.567199e-05,0.0
719504213,0.37865594,-0.1592674,-7.539684e-05,0.0
719508445,0.37867606,-0.15922368,-7.544419e-05,0.0
719512289,0.3786874,-0.15917185,-7.560279e-05,0.0
719516214,0.37867978,-0.15916456,-7.5565586e-05,0.0
719520246,0.09949901,-0.17233369,-0.0017604199,0.0
719524216,0.09954928,-0.17230952,-0.0017605182,0.0
719528208,0.09960536,-0.172283,-0.0017606309,0.0
719532305,0.0996144,-0.17230153,-0.0017604855,0.0
719536212,0.09959253,-0.17225954,-0.0017601596,0.0
719540251,0.099568374,-0.17226648,-0.0017607308,0.0
719544209,0.13108988,-0.17495155,-0.0015975833,0.0
719548248,0.13103005,-0.17493664,-0.0015976997,0.0
719552281,0.13100295,-0.17489901,-0.0015981018,0.0
719556218,0.13100632,-0.1748899,-0.0015972551,0.0
719560248,0.1310009,-0.17487605,-0.0015966664,0.0
719564220,0.13100407,-0.17483939,-0.0015966946,0.0
719568220,0.19737971,-0.17326236,-0.0012069043,0.0
719572296,0.197389,-0.17325751,-0.0012068807,0.0
719576204,0.19736746,-0.1732727,-0.0012075664,0.0
719580257,0.19734852,-0.17328247,-0.0012068799,0.0
719584216,0.1973241,-0.17329249,-0.0012069226,0.0
719588240,0.19727176,-0.17332564,-0.0012070088,0.0
719592291,0.21561463,-0.17225124,-0.0010953041,0.0
719596204,0.21563962,-0.1723193,-0.001095146,0.0
719600231,0.21566243,-0.17237382,-0.0010963477,0.0
719604441,0.21567425,-0.17241712,-0.00109663,0.0
719608223,0.21575469,-0.1724024,-0.0010966746,0.0
719612292,0.21578893,-0.17242688,-0.0010978625,0.0
719616249,0.20958327,-0.17234585,-0.0011325564,0.0
719620247,0.20955905,-0.17233698,-0.001132674,0.0
719624211,0.20954041,-0.17233983,-0.0011327219,0.0
719628229,0.20949638,-0.17226657,-0.0011315331,0.0
719632225,0.20948862,-0.17224595,-0.0011314603,0.0
719636251,0.20367825,-0.17242655,-0.001166991,0.0
719640246,0.20374183,-0.17235865,-0.0011669901,0.0
719644210,0.20378676,-0.17236786,-0.001167077,0.0
719648249,0.20380104,-0.17233363,-0.0011663461,0.0
719652397,0.20385113,-0.1722389,-0.0011657024,0.0
719656260,0.2038271,-0.17228983,-0.0011665175,0.0
719660232,0.20284973,-0.1723784,-0.0011727865,0.0
719664215,0.20278946,-0.17232513,-0.0011717426,0.0
719668232,0.20271234,-0.17227222,-0.0011704535,0.0
719672204,0.2026767,-0.17227185,-0.0011707805,0.0
719676246,0.20268022,-0.17224905,-0.0011707027,0.0
719680287,0.20266412,-0.17223458,-0.0011700984,0.0
719684215,0.20262611,-0.1722342,-0.001169604,0.0
719688246,0.20343599,-0.17222844,-0.0011656213,0.0
719692208,0.2034725,-0.1722305,-0.0011661748,0.0
719696263,0.20348442,-0.17216897,-0.0011660001,0.0
719700288,0.20347434,-0.17213234,-0.0011654709,0.0
719704220,0.20354062,-0.17213266,-0.0011654154,0.0
719708239,0.20405707,-0.17212577,-0.0011623967,0.0
719712207,0.20410736,-0.17211467,-0.0011632522,0.0
719716206,0.204133,-0.17209606,-0.0011629409,0.0
719720302,0.20411988,-0.17210187,-0.0011631048,0.0
719724229,0.2040735,-0.17206055,-0.0011624513,0.0
719728256,0.20398863,-0.17209078,-0.0011624685,0.0
719732210,0.20401128,-0.17207484,-0.001162389,0.0
719736226,0.20400955,-0.17211123,-0.0011620261,0.0
719740297,0.20398304,-0.17205651,-0.001162376,0.0
719744216,0.20398359,-0.17198007,-0.0011616462,0.0
719748249,0.20394295,-0.1719168,-0.0011606085,0.0
719752214,0.20397703,-0.17194209,-0.0011612119,0.0
719756221,0.20389712,-0.17199185,-0.0011624618,0.0
719760300,0.20395659,-0.17200127,-0.0011623226,0.0
719764405,0.20398246,-0.17199667,-0.001162834,0.0
719768223,0.2039668,-0.17194746,-0.0011621952,0.0
719772213,0.20394844,-0.17196842,-0.0011615413,0.0
719776253,0.20389386,-0.17192468,-0.001162164,0.0
719780249,0.20390376,-0.17190346,-0.0011620359,0.0
719784257,0.20391308,-0.17189884,-0.0011615866,0.0
719788444,0.20388344,-0.17188728,-0.0011616768,0.0
719792208,0.20381506,-0.17186473,-0.0011613431,0.0
719796259,0.20376363,-0.17189987,-0.0011605335,0.0
719800235,0.20377101,-0.17194116,-0.0011615206,0.0
719804246,0.20377514,-0.17191333,-0.0011613242,0.0
719808249,0.20376801,-0.17192064,-0.0011610702,0.0
719812397,0.20378332,-0.17194475,-0.0011610986,0.0
719816248,0.20381749,-0.17196055,-0.0011623357,0.0
719820224,0.20381366,-0.17200413,-0.0011620051,0.0
719824252,0.20379859,-0.17197584,-0.0011619527,0.0
719828257,0.20380904,-0.17199838,-0.0011613957,0.0
719832207,0.20386928,-0.17190419,-0.0011617471,0.0
719836253,0.2039016,-0.17191288,-0.0011614391,0.0
719840211,0.20390342,-0.17191288,-0.0011616435,0.0
719844270,0.20388359,-0.17189105,-0.0011608998,0.0
719848306,0.20388298,-0.17188558,-0.0011613645,0.0
719852220,0.20384102,-0.1719058,-0.0011609199,0.0
719856250,0.20382415,-0.17188138,-0.0011608633,0.0
719860434,0.2037909,-0.17184032,-0.0011603957,0.0
719864268,0.20378101,-0.171823,-0.0011606213,0.0
719868306,0.20377305,-0.17183454,-0.0011604746,0.0
719872205,0.20376661,-0.17188421,-0.0011605794,0.0
719876247,0.20375583,-0.1719175,-0.0011604399,0.0
719880207,0.20373939,-0.17188233,-0.0011604255,0.0
719884228,0.20373963,-0.17186856,-0.0011604276,0.0
719888288,0.2037538,-0.17186542,-0.0011604035,0.0
719892216,0.20375419,-0.1718735,-0.0011604275,0.0
719896232,0.20373435,-0.17188473,-0.0011602992,0.0
719900205,0.20374326,-0.17190415,-0.0011609705,0.0
719904215,0.20374644,-0.1719401,-0.0011612943,0.0
719908492,0.20372787,-0.17191583,-0.0011603623,0.0
719912207,0.20372249,-0.1718751,-0.0011603013,0.0
719916253,0.20371483,-0.17185621,-0.0011601629,0.0
719920209,0.20371832,-0.17185716,-0.0011607797,0.0
719925027,0.20366392,-0.17186931,-0.001159844,0.0
719929057,0.20361316,-0.17186202,-0.0011593318,0.0
719933006,0.20362405,-0.17181645,-0.0011596767,0.0
719937045,0.20360473,-0.17178075,-0.0011585603,0.0
719941031,0.20360798,-0.17175394,-0.0011593768,0.0
719945062,0.20365825,-0.17176619,-0.0011598287,0.0
719949090,0.20366445,-0.17178948,-0.0011599425,0.0
719953005,0.20365651,-0.17179877,-0.0011591611,0.0
719957032,0.20365167,-0.17181164,-0.0011599679,0.0
719961004,0.20368852,-0.17180479,-0.0011596583,0.0
719965110,0.20370606,-0.17184803,-0.0011603691,0.0
719969033,0.20376356,-0.17183535,-0.0011607743,0.0
719972981,0.20384043,-0.1718294,-0.0011610375,0.0
719977031,0.20382501,-0.17181681,-0.0011604751,0.0
719981005,0.20381537,-0.17186762,-0.0011610374,0.0
719985056,0.20376968,-0.17186347,-0.0011601236,0.0
719989018,0.20379119,-0.17191198,-0.0011607069,0.0
719992984,0.20378906,-0.171958,-0.0011614539,0.0
719997018,0.20382106,-0.1720095,-0.0011613088,0.0
720000984,0.2037893,-0.17203839,-0.0011620019,0.0
720005871,0.2037498,-0.17200366,-0.0011613505,0.0
720009835,0.20378,-0.1720293,-0.0011610131,0.0
720013804,0.2037285,-0.17209692,-0.0011619598,0.0
720017872,0.20370765,-0.17209876,-0.001161341,0.0
720021804,0.20372303,-0.17206366,-0.0011612554,0.0
720025908,0.20370789,-0.1720596,-0.0011613449,0.0
720029846,0.20367624,-0.17201622,-0.0011620381,0.0
720033802,0.20366411,-0.17198464,-0.0011609927,0.0
720037866,0.20366336,-0.17192775,-0.0011602069,0.0
720041801,0.20369336,-0.17190084,-0.0011602219,0.0
720045912,0.20371719,-0.17190485,-0.0011607833,0.0
720049930,0.20369455,-0.17192851,-0.0011602754,0.0
720053808,0.20366907,-0.17191589,-0.0011602079,0.0
720057879,0.20364895,-0.17188746,-0.0011603632,0.0
720061826,0.20365144,-0.17189215,-0.0011598116,0.0
720065883,0.20365101,-0.17193769,-0.001160399,0.0
720069842,0.20364574,-0.17192137,-0.0011596243,0.0
720073820,0.20363152,-0.1719254,-0.0011604212,0.0
720077856,0.20357329,-0.1718773,-0.0011596276,0.0
720081807,0.20351234,-0.17188977,-0.0011593177,0.0
720085889,0.20348437,-0.17193303,-0.0011591967,0.0
720089839,0.20344873,-0.17192549,-0.00115909,0.0
720093804,0.20346478,-0.17194298,-0.0011593399,0.0
720097874,0.20347887,-0.1719187,-0.0011591626,0.0
720101819,0.2034402,-0.17187247,-0.0011588356,0.0
720105883,0.20345655,-0.17187962,-0.0011598236,0.0
720109847,0.2034597,-0.17194062,-0.0011599106,0.0
720113802,0.20346577,-0.17197426,-0.0011590018,0.0
720117860,0.2035053,-0.17196132,-0.0011595815,0.0
720121806,0.20349182,-0.17198563,-0.00115974,0.0
720125860,0.20354979,-0.17198484,-0.0011595831,0.0
720129849,0.20356426,-0.1719693,-0.0011597176,0.0
720133811,0.20355915,-0.17202075,-0.0011602568,0.0
720137875,0.20359015,-0.17204398,-0.0011601791,0.0
720141804,0.20361313,-0.17203064,-0.001160835,0.0
720145896,0.20361397,-0.17201161,-0.0011602849,0.0
720149831,0.20363428,-0.1720515,-0.0011608258,0.0
720153846,0.20356587,-0.17199792,-0.00116065,0.0
720157868,0.20352829,-0.17201035,-0.0011601696,0.0
720161814,0.20355996,-0.17197473,-0.0011601032,0.0
720165895,0.20357472,-0.17199841,-0.0011595514,0.0
720169839,0.20357582,-0.17204073,-0.0011608319,0.0
720173878,0.20356624,-0.1720935,-0.0011606268,0.0
720177862,0.20358396,-0.17208542,-0.001161183,0.0
720181821,0.20357129,-0.17209935,-0.0011607618,0.0
720185900,0.20357805,-0.17209747,-0.0011612347,0.0
720189802,0.20364021,-0.17209291,-0.0011612532,0.0
720193889,0.20364156,-0.17204666,-0.0011608086,0.0
720197820,0.20360103,-0.17203566,-0.0011607383,0.0
720201802,0.20354164,-0.17199807,-0.0011601873,0.0
720205886,0.20349863,-0.17203724,-0.0011601553,0.0
720209804,0.20350267,-0.17207731,-0.0011600758,0.0
720213849,0.19948408,-0.17203252,-0.0011831928,0.0
720217851,0.1994801,-0.17203866,-0.0011832074,0.0
720221802,0.1994874,-0.17205836,-0.0011831231,0.0
720225860,0.19944775,-0.17206973,-0.0011837992,0.0
720229830,0.19939676,-0.17209548,-0.0011832832,0.0
720233873,0.19934866,-0.17214881,-0.001183486,0.0
720237856,0.18369372,-0.17215322,-0.0012713509,0.0
720241816,0.1836632,-0.1721347,-0.0012705426,0.0
720245875,0.1836487,-0.17216845,-0.0012707949,0.0
720249808,0.18363409,-0.17214161,-0.0012700101,0.0
720253886,0.18361406,-0.17208174,-0.0012700211,0.0
720257860,0.15451033,-0.17205785,-0.0014356544,0.0
720261801,0.15453199,-0.17207763,-0.0014360656,0.0
720265867,0.15450367,-0.17210357,-0.0014368608,0.0
720269813,0.15444511,-0.17210726,-0.0014354715,0.0
720273843,0.15440336,-0.17206673,-0.0014352419,0.0
720277867,0.15440075,-0.1720255,-0.0014349659,0.0
720281809,0.12057748,-0.17198905,-0.0016278455,0.0
720285881,0.120605096,-0.17205027,-0.0016291352,0.0
720289815,0.12059417,-0.17201138,-0.0016283109,0.0
720293858,0.120574646,-0.17199573,-0.0016278428,0.0
720297875,0.12052787,-0.17197894,-0.0016272101,0.0
720301866,0.089583375,-0.17198272,-0.0018032889,0.0
720305843,0.08959191,-0.17200515,-0.0018038347,0.0
720309803,0.08954802,-0.17201702,-0.0018034788,0.0
720313842,0.08950109,-0.17203747,-0.0018038678,0.0
720317865,0.08947104,-0.1720353,-0.0018031958,0.0
720321853,0.089438096,-0.17202367,-0.0018030368,0.0
720325884,0.046401914,-0.17201959,-0.0020489208,0.0022399386
720329801,0.04639395,-0.17206134,-0.002049336,0.0022399386
720333853,0.046405718,-0.17205589,-0.0020490855,0.0022399386
720337840,0.04643694,-0.17205562,-0.0020496265,0.0022399386
720341881,0.04641293,-0.17212215,-0.0020500873,0.0022399386
720345875,-0.009660072,-0.17213681,-0.0023703976,0.009787473
720349812,-0.009682096,-0.17214024,-0.0023699931,0.009787473
720353854,-0.009723027,-0.17216048,-0.0023694425,0.009787473
720357857,-0.009785416,-0.17214644,-0.0023692418,0.009787473
720361874,-0.009828679,-0.17217149,-0.0023696295,0.009787473
720365832,-0.034172613,-0.17218935,-0.0025093092,0.023835335
720369803,-0.034130365,-0.17216134,-0.0025096901,0.023835335
720373851,-0.03413441,-0.17210999,-0.0025081865,0.023835335
720377829,-0.034135778,-0.17212597,-0.0025076051,0.023835335
720381874,-0.034139983,-0.17212358,-0.002508596,0.023835335
720385880,-0.034147345,-0.17212412,-0.002508529,0.023835335
720389813,-0.034198828,-0.17213218,-0.0025087583,0.023835335
720393848,-0.0040829363,-0.17215517,-0.0023366062,0.040988106
720397836,-0.00412297,-0.17211634,-0.0023358807,0.040988106
720401871,-0.0041297656,-0.17212993,-0.0023356567,0.040988106
720405873,-0.004098171,-0.17212346,-0.0023359742,0.040988106
720409821,-0.0041328673,-0.17212391,-0.0023362397,0.040988106
720413852,-0.00414048,-0.1721547,-0.002336529,0.040988106
720417821,0.04794365,-0.17213038,-0.002039323,0.054033253
720421870,0.04791237,-0.17209646,-0.0020386227,0.054033253
720425867,0.047883857,-0.17208542,-0.002038278,0.054033253
720429822,0.047894277,-0.17211233,-0.002037615,0.054033253
720433864,0.0478523,-0.17208914,-0.002037423,0.054033253
720437842,0.08734123,-0.17211138,-0.0018119595,0.063210346
720441850,0.08736593,-0.17211397,-0.0018116374,0.063210346
720445872,0.08735753,-0.17213279,-0.0018125029,0.063210346
720449826,0.08734364,-0.17218137,-0.0018129739,0.063210346
720453843,0.08729653,-0.17218043,-0.0018130734,0.063210346
720457833,0.087271854,-0.17209062,-0.0018126575,0.063210346
720461837,0.10774251,-0.17210226,-0.0016945936,0.0722602
720465870,0.10774259,-0.17211795,-0.0016954453,0.0722602
720469883,0.10772058,-0.17215556,-0.0016949363,0.0722602
720473859,0.107726514,-0.17219612,-0.0016951864,0.0722602
720477843,0.10771863,-0.17223305,-0.0016962432,0.0722602
720481854,0.11761538,-0.17227274,-0.0016400062,0.07953164
720485864,0.11757985,-0.17227854,-0.0016397099,0.07953164
720489863,0.11754161,-0.17228909,-0.0016389814,0.07953164
720493823,0.11752546,-0.17231365,-0.0016404442,0.07953164
720498607,0.11746254,-0.17236264,-0.0016406887,0.07953164
720503462,0.11748679,-0.17238045,-0.0016405855,0.07953164
720507382,0.12314856,-0.1723653,-0.0016076282,0.08368199
720511392,0.123100795,-0.17236252,-0.0016076667,0.08368199
720515444,0.12308375,-0.17232363,-0.001606301,0.08368199
720519438,0.12308364,-0.1723315,-0.0016063249,0.08368199
720523444,0.12303933,-0.17231753,-0.0016069876,0.08368199
720527378,0.12520862,-0.17231265,-0.0015943481,0.08553398
720531385,0.1252034,-0.17234555,-0.0015937951,0.08553398
720535405,0.12522933,-0.17236964,-0.0015940333,0.08553398
720539387,0.12527159,-0.17238829,-0.001595219,0.08553398
720543432,0.12526955,-0.1723793,-0.0015945764,0.08553398
720547387,0.12526001,-0.17237027,-0.0015953253,0.08553398
720551413,0.12692101,-0.17239568,-0.0015853522,0.08640116
720555442,0.12692238,-0.17235667,-0.0015849575,0.08640116
720559378,0.12688199,-0.17235391,-0.001584601,0.08640116
720563454,0.12687501,-0.1723538,-0.001584584,0.08640116
720567394,0.12685144,-0.17231743,-0.001583797,0.08640116
720571389,0.12681969,-0.17233056,-0.0015837785,0.08640116
720575406,0.13100111,-0.17227034,-0.0015583333,0.08735448
720579380,0.13101348,-0.17230779,-0.0015597895,0.08735448
720583558,0.1310234,-0.1723159,-0.0015598272,0.08735448
720587380,0.1310583,-0.17231226,-0.0015595899,0.08735448
720591382,0.13105708,-0.17231214,-0.0015591341,0.08735448
720595477,0.13829543,-0.17233334,-0.0015179439,0.0882836
720599409,0.13830318,-0.17232929,-0.0015185698,0.0882836
720603478,0.1383214,-0.17232524,-0.0015182968,0.0882836
720607651,0.13833211,-0.17234376,-0.0015190011,0.0882836
720611420,0.13832809,-0.17232138,-0.0015187847,0.0882836
720615462,0.13834997,-0.17232119,-0.0015176429,0.0882836
720619407,0.14823134,-0.17232943,-0.001461902,0.089435786
720623476,0.14820337,-0.17233449,-0.0014612828,0.089435786
720627459,0.14812835,-0.17232847,-0.0014615705,0.089435786
720631622,0.14813441,-0.17232288,-0.0014606635,0.089435786
720635445,0.1481154,-0.17228375,-0.0014609796,0.089435786
720639409,0.14811882,-0.17226453,-0.0014603675,0.089435786
720643457,0.15435031,-0.17229104,-0.0014247389,0.09142178
720647441,0.15434602,-0.17228243,-0.0014259941,0.09142178
720651511,0.15426381,-0.17226934,-0.0014249162,0.09142178
720655531,0.15429339,-0.17222172,-0.0014241897,0.09142178
720659421,0.15436518,-0.1722255,-0.0014248058,0.09142178
720663455,0.15474847,-0.17218974,-0.0014218692,0.09491664
720667441,0.15472734,-0.1721742,-0.0014220678,0.09491664
720671480,0.15473665,-0.17217228,-0.0014215506,0.09491664
720675433,0.15476574,-0.17222017,-0.0014178423,0.09491664
720679526,0.15478063,-0.1722872,-0.0014342659,0.09491664
720683447,0.15478215,-0.17229351,-0.0014532648,0.09491664
720687449,0.15475044,-0.17222534,-0.0014546071,0.09491664
720691484,0.14961383,-0.17218812,-0.001470911,0.100547954
720695414,0.1496071,-0.17223854,-0.0014849209,0.100547954
720699410,0.14962777,-0.1722756,-0.0015014611,0.100547954
720703545,0.1497123,-0.1722264,-0.0015018267,0.100547954
720707419,0.14974974,-0.17216901,-0.0014986756,0.100547954
720711508,0.14973505,-0.17215805,-0.0014851879,0.100547954
720715422,0.1396883,-0.17216922,-0.0015421045,0.10717105
720719409,0.1396652,-0.17218652,-0.0015547798,0.10717105
720723460,0.1396393,-0.17219552,-0.0015444544,0.10717105
720727504,0.13965511,-0.17217396,-0.0015400411,0.10717105
720731510,0.13968731,-0.1721856,-0.0015371321,0.10717105
720735438,0.13967824,-0.17219467,-0.0015546335,0.10717105
720739413,0.132953,-0.1722317,-0.0016044534,0.11448894
720743465,0.13294119,-0.17226015,-0.0015847597,0.11448894
720747422,0.1329155,-0.17225792,-0.0015731431,0.11448894
720751580,0.1328788,-0.17221701,-0.0015494014,0.11448894
720755461,0.13284242,-0.17227031,-0.0015726228,0.11448894
720759468,0.132856,-0.17222969,-0.0016116333,0.11448894
720763449,0.13231638,-0.1722391,-0.00165012,0.12261601
720767436,0.13225675,-0.17225426,-0.0016916159,0.12261601
720771472,0.13230583,-0.17224388,-0.0017358147,0.12261601
720775451,0.13230011,-0.17226122,-0.001789597,0.12261601
720779421,0.13235746,-0.17226759,-0.001824147,0.12261601
720783458,0.13349597,-0.17234044,-0.0018410159,0.12891498
720787414,0.13340195,-0.17240757,-0.001885505,0.12891498
720791447,0.13338527,-0.17243616,-0.0019280518,0.12891498
720795461,0.13335183,-0.17247821,-0.0019310041,0.12891498
720799470,0.13322711,-0.17252058,-0.0019345491,0.12891498
720803420,0.13323264,-0.17249855,-0.0019149513,0.12891498
720807441,0.12978631,-0.17247471,-0.0018943696,0.13263781
720811455,0.12960015,-0.17252082,-0.0018256202,0.13263781
720815448,0.12956905,-0.17245853,-0.0017485135,0.13263781
720819455,0.12967558,-0.1725615,-0.0016414872,0.13263781
720823411,0.12955403,-0.17236191,-0.0014790805,0.13263781
720827418,0.12953743,-0.17251074,-0.0013025658,0.13263781
720831442,0.11798758,-0.17251767,-0.0011542259,0.13526887
720835459,0.11797414,-0.17243697,-0.0009008466,0.13526887
720839488,0.11798596,-0.17251088,-0.00068103644,0.13526887
720843411,0.1179616,-0.17252436,-0.0004718494,0.13526887
720847605,0.11780538,-0.17238182,-0.00026561503,0.13526887
720851459,0.11790161,-0.17241365,-9.6139614e-05,0.13526887
720855432,0.10650738,-0.17236462,1.2788512e-05,0.13650766
720859499,0.10644898,-0.17248252,0.00011504657,0.13650766
720863408,0.10641756,-0.17230414,0.00020785481,0.13650766
720867412,0.10649727,-0.1722579,0.00031681432,0.13650766
720871513,0.10649542,-0.17228553,0.00040317248,0.13650766
720875468,0.10666074,-0.17218676,0.00041903104,0.13650766
720879500,0.09856206,-0.17230535,0.000355113,0.13719687
720883422,0.098456904,-0.17212607,0.0003060268,0.13719687
720887410,0.09855554,-0.17232837,0.00020419243,0.13719687
720891461,0.09859764,-0.17236677,9.7623866e-05,0.13719687
720895508,0.0985089,-0.17228521,-6.6780914e-05,0.13719687
720899505,0.09843978,-0.17239444,-0.00025382618,0.13719687
720903419,0.0857547,-0.17253338,-0.0005269158,0.13994667
720907461,0.085839525,-0.17245202,-0.0007217049,0.13994667
720911446,0.08571756,-0.17252012,-0.0009249947,0.13994667
720915412,0.08558492,-0.17255388,-0.00109517,0.13994667
720919595,0.085519865,-0.17254859,-0.0013035355,0.13994667
720923457,0.08541585,-0.17250864,-0.0014680381,0.13994667
720927417,0.070310265,-0.17247765,-0.0017234266,0.14480996
720931471,0.070072345,-0.1724764,-0.0018883705,0.14480996
720935416,0.06970346,-0.17260906,-0.0020953894,0.14480996
720939506,0.06998317,-0.1725623,-0.0022586589,0.14480996
720943514,0.070059374,-0.17255381,-0.0024302816,0.14480996
720947465,0.062483463,-0.17248285,-0.0026216917,0.15005073
720951412,0.06257568,-0.17278613,-0.0028052381,0.15005073
720955422,0.0626846,-0.17251678,-0.0028885438,0.15005073
720959473,0.06256128,-0.17249894,-0.0029688708,0.15005073
720963465,0.062430616,-0.1726184,-0.0030472302,0.15005073
720967675,0.060700584,-0.17245282,-0.0031045685,0.15551491
720971416,0.060674742,-0.17250985,-0.003192923,0.15551491
720975412,0.06076462,-0.17231232,-0.0031916245,0.15551491
720979440,0.060685672,-0.17241763,-0.0032079485,0.15551491
720983453,0.06063997,-0.17227596,-0.0032223242,0.15551491
720987508,0.06079323,-0.17244747,-0.0032104165,0.15551491
720991599,0.053731397,-0.17223793,-0.003208423,0.16148548
720995417,0.053632647,-0.17238922,-0.0031555376,0.16148548
720999464,0.053685833,-0.17263937,-0.0031243267,0.16148548
721003461,0.053863008,-0.17252167,-0.0030426611,0.16148548
721007517,0.053867217,-0.17267945,-0.0029903008,0.16148548
721011422,0.039523765,-0.17260996,-0.002967282,0.16635503
721015516,0.039526865,-0.17265156,-0.0028987122,0.16635503
721019447,0.03963715,-0.1725804,-0.0027884638,0.16635503
721023453,0.03968761,-0.17252141,-0.0026956662,0.16635503
721027489,0.039466478,-0.1724065,-0.0025600197,0.16635503
721031415,0.023779219,-0.17246976,-0.0025459193,0.16822976
721035456,0.023918172,-0.17236927,-0.0024082453,0.16822976
721039512,0.023635272,-0.17225578,-0.0022668005,0.16822976
721043453,0.0235365,-0.17231026,-0.0021012472,0.16822976
721047503,0.023717962,-0.1722108,-0.001958556,0.16822976
721051421,0.023602001,-0.17229758,-0.0018003645,0.16822976
721055409,0.0082202945,-0.1720994,-0.0017288242,0.16796899
721059449,0.008147345,-0.172112,-0.0015402755,0.16796899
721063510,0.008232817,-0.17200078,-0.0013952397,0.16796899
721067482,0.008186947,-0.1719322,-0.0012323919,0.16796899
721071422,0.008050192,-0.17181745,-0.0011002849,0.16796899
721075453,-0.0026486448,-0.17182964,-0.0010216933,0.16750552
721079409,-0.0027420567,-0.1717745,-0.00087479,0.16750552
721083417,-0.0027192326,-0.17194138,-0.00075950177,0.16750552
721087647,-0.0026888575,-0.17208295,-0.0006778024,0.16750552
721091462,-0.0029135775,-0.17203245,-0.00057452125,0.16750552
721095430,-0.0029724196,-0.17223154,-0.00050694065,0.16750552
721099422,-0.005845743,-0.17235333,-0.0004927335,0.16738531
721103423,-0.0058070803,-0.17250949,-0.0004586334,0.16738531
721107470,-0.006059616,-0.17261031,-0.0004399748,0.16738531
721111506,-0.006162909,-0.17257626,-0.00047949585,0.16738531
721115449,-0.0058558206,-0.17263755,-0.00050156924,0.16738531
721119414,-0.0058414233,-0.17258695,-0.0005089729,0.16738531
721123434,-0.0048752646,-0.17250869,-0.0005527207,0.16743165
721127482,-0.005005337,-0.17235139,-0.0006051078,0.16743165
721131482,-0.0047655758,-0.17216188,-0.00066793006,0.16743165
721135564,-0.004488443,-0.17214043,-0.00070208317,0.16743165
721139434,-0.0045136604,-0.17198901,-0.0007896561,0.16743165
721143464,-0.004531051,-0.17152351,-0.00084553595,0.16743165
721147439,-0.0035429946,-0.17162491,-0.0008897531,0.16747232
721151455,-0.0033310002,-0.17147733,-0.00087832334,0.16747232
721155499,-0.003349381,-0.1714163,-0.0009226389,0.16747232
721159607,-0.003482283,-0.17153013,-0.0009838439,0.16747232
721163414,-0.003406897,-0.17153256,-0.0010400655,0.16747232
721167467,-0.0033170427,-0.17179443,-0.0011287677,0.16747232
721171458,-0.00333164,-0.17197129,-0.001139645,0.16747826
721175495,-0.0034814356,-0.17212372,-0.0011285329,0.16747826
721179412,-0.0035782878,-0.17237294,-0.0011942815,0.16747826
721183550,-0.0036148871,-0.17237245,-0.0012227299,0.16747826
721187471,-0.0037440066,-0.17257403,-0.0012842229,0.16747826
721191454,-0.003923171,-0.1725212,-0.0013144055,0.16747826
721195519,-0.0041379714,-0.17231297,-0.0013557163,0.1674725
721199409,-0.004339973,-0.17241505,-0.001396838,0.1674725
721203415,-0.004125371,-0.17214145,-0.0014170943,0.1674725
721207504,-0.0044939183,-0.17210402,-0.0014546074,0.1674725
721211418,-0.0047102845,-0.17178577,-0.0015574442,0.1674725
721215491,-0.00449118,-0.171825,-0.0015872258,0.1674725
721219408,-0.0046681496,-0.17183207,-0.001617054,0.16746919
721223454,-0.0045279977,-0.17159887,-0.0016489072,0.16746919
721227411,-0.0044875145,-0.17172542,-0.0017077068,0.16746919
721231504,-0.0043743765,-0.17157878,-0.0017731015,0.16746919
721235499,-0.0039872844,-0.17158425,-0.0018255247,0.16746919
721239419,-0.009919603,-0.17152928,-0.0018869861,0.1674691
721243439,-0.0100596305,-0.171297,-0.0019018769,0.1674691
721247408,-0.009729363,-0.17132598,-0.0019279758,0.1674691
721251412,-0.009690117,-0.17129427,-0.0019098565,0.1674691
721255568,-0.00970152,-0.17127798,-0.0018757446,0.1674691
721259449,-0.009530539,-0.17115842,-0.0018655865,0.1674691
721263439,-0.036032148,-0.17125477,-0.002068732,0.16746973
721267423,-0.036066096,-0.17118579,-0.0020730314,0.16746973
721271409,-0.035748735,-0.17137095,-0.0021647324,0.16746973
721275478,-0.035991944,-0.17136034,-0.0022455368,0.16746973
721279601,-0.036188357,-0.17165636,-0.002342705,0.16746973
721283467,-0.035847783,-0.1717757,-0.0025307117,0.16746973
721287421,-0.03588502,-0.17199765,-0.0025972868,0.16746973
721291431,-0.08273051,-0.17211081,-0.0029316929,0.16746996
721295472,-0.08285412,-0.17224276,-0.0030091759,0.16746996
721299459,-0.08250006,-0.17230496,-0.0030130614,0.16746996
721303590,-0.08295257,-0.17230813,-0.0029474068,0.16746996
721307420,-0.08308942,-0.17223193,-0.0028208273,0.16746996
721311421,-0.083010435,-0.17243278,-0.0027018273,0.16746996
721315466,-0.1357173,-0.17189847,-0.0028763604,0.16746995
721319465,-0.13558845,-0.17181027,-0.0027045126,0.16746995
721323509,-0.13570249,-0.17181395,-0.0026349002,0.16746995
721327510,-0.13619304,-0.17111686,-0.0026538651,0.16746995
721331463,-0.13591793,-0.17097495,-0.0027331717,0.16746995
721335446,-0.13584396,-0.17103557,-0.002828496,0.16746995
721339454,-0.18222073,-0.17102559,-0.0031919847,0.16746989
721343499,-0.18177284,-0.17077689,-0.003272168,0.16746989
721347419,-0.1818894,-0.17093262,-0.0033196132,0.16746989
721351605,-0.18158768,-0.17124811,-0.003307468,0.16746989
721355462,-0.18121566,-0.17081235,-0.0031462633,0.16746989
721359448,-0.18121926,-0.17132357,-0.003051645,0.16746989
721363469,-0.20835248,-0.17137235,-0.0029923227,0.16722098
721367410,-0.20833442,-0.17138849,-0.0027801874,0.16722098
721371453,-0.20857948,-0.17202942,-0.0026508647,0.16722098
721375547,-0.20845716,-0.1719876,-0.002539665,0.16722098
721379435,-0.20846538,-0.17214417,-0.0024629314,0.16722098
721383508,-0.20861298,-0.17204474,-0.0024626718,0.16722098
721387409,-0.21296878,-0.17218441,-0.0026750916,0.16638237
721391435,-0.21321023,-0.17224427,-0.0027771047,0.16638237
721395412,-0.21300277,-0.17223138,-0.0028642863,0.16638237
721399539,-0.21258837,-0.17205742,-0.0030547453,0.16638237
721403486,-0.2127557,-0.17221294,-0.0030592796,0.16638237
721407419,-0.19919427,-0.17184646,-0.002895955,0.1651257
721411443,-0.1988274,-0.17179683,-0.0028538238,0.1651257
721415410,-0.19908956,-0.17174344,-0.002728727,0.1651257
721419429,-0.19986513,-0.17166118,-0.0025827398,0.1651257
721423591,-0.19919266,-0.17208226,-0.002634542,0.1651257
721427473,-0.19942187,-0.1718257,-0.0026834738,0.1651257
721431453,-0.15592512,-0.17205177,-0.002454919,0.16407889
721435417,-0.15532532,-0.17209439,-0.0026834817,0.16407889
721439415,-0.15551278,-0.17163356,-0.0028085231,0.16407889
721443478,-0.15558873,-0.17156684,-0.0029057316,0.16407889
721447452,-0.15535381,-0.17123076,-0.0030265206,0.16407889
721451448,-0.1550977,-0.1711801,-0.0031067356,0.16407889
721455412,-0.089861855,-0.17100956,-0.0026247925,0.16368926
721459410,-0.089648835,-0.17113292,-0.0025317909,0.16368926
721463486,-0.08946286,-0.17141798,-0.0024356353,0.16368926
721467444,-0.09040539,-0.1710779,-0.0022475685,0.16368926
721471456,-0.0901721,-0.17190385,-0.0022882752,0.16368926
721475416,-0.08950672,-0.17188811,-0.002309537,0.16368926
721479458,0.0059090345,-0.17229207,-0.0017657971,0.16350137
721483452,0.0064591225,-0.17243011,-0.0019633817,0.16350137
721487448,0.007344549,-0.17221749,-0.0020869446,0.16350137
721491461,0.0067382394,-0.17234164,-0.0021371779,0.16350137
721495512,0.0075624073,-0.17171478,-0.0022068247,0.16350137
721499415,0.007733224,-0.17204002,-0.0022433414,0.16350137
721503460,0.13641933,-0.17153817,-0.0013109582,0.16301048
721507465,0.13666427,-0.1712929,-0.001139414,0.16301048
721511514,0.13666297,-0.17159785,-0.0009911952,0.16301048
721515415,0.1360555,-0.17140248,-0.0006938405,0.16301048
721519558,0.13593169,-0.17153549,-0.00064811227,0.16301048
721523408,0.21494785,-0.17166784,-0.00023068438,0.16261698
721527441,0.21468858,-0.1713357,-0.00013140628,0.16261698
721531498,0.21529944,-0.17158191,-0.000386598,0.16261698
721535408,0.21521398,-0.17161702,-0.00052353286,0.16261698
721539442,0.21521035,-0.17110574,-0.00048633796,0.16261698
721543550,0.21567188,-0.17112254,-0.000669828,0.16261698
721547467,0.21968244,-0.17114565,-0.000510781,0.1625677
721551450,0.21982941,-0.17080522,-0.0003165299,0.1625677
721555377,0.21901315,-0.17088068,-6.723438e-05,0.1625677
721559433,0.21945015,-0.17099707,0.00029752945,0.1625677
721563383,0.21860725,-0.1712549,0.00069578807,0.1625677
721567507,0.21847606,-0.17166951,0.00087397,0.1625677
721571453,0.20431076,-0.17175442,0.001043895,0.16262655
721575390,0.20406449,-0.17228593,0.0011049078,0.16262655
721579429,0.20410542,-0.1723778,0.0010691421,0.16262655
721583377,0.20447476,-0.17249809,0.0009913174,0.16262655
721587407,0.20457472,-0.17219077,0.00088321534,0.16262655
721591591,0.20449817,-0.1720594,0.00081298756,0.16262655
721595377,0.1989774,-0.17182416,0.00076075236,0.16265795
721599406,0.1984785,-0.1713364,0.000833533,0.16265795
721603391,0.1984362,-0.17129059,0.0009894599,0.16265795
721607435,0.19834101,-0.17098634,0.0011579555,0.16265795
721611446,0.19762976,-0.17099598,0.0012450066,0.16265795
721615500,0.19868031,-0.1713993,0.0013097391,0.16265802
721619417,0.19917467,-0.17120154,0.0012902169,0.16265802
721623386,0.19885975,-0.17131735,0.0012149182,0.16265802
721627395,0.19972685,-0.1718147,0.0009652534,0.16265802
721631387,0.20011911,-0.1712879,0.0007810761,0.16265802
721635430,0.20040068,-0.17129622,0.0005958163,0.16265802
721639617,0.20193937,-0.1709004,0.0004361851,0.16265191
721643383,0.2015794,-0.17085446,0.0003699661,0.16265191
721647419,0.20134695,-0.17060949,0.00028634528,0.16265191
721651381,0.20094748,-0.17055154,0.00028872033,0.16265191
721655422,0.20051564,-0.17062321,0.0003466398,0.16265191
721659458,0.20053187,-0.17121828,0.000211483,0.16264963
721663473,0.20038341,-0.17131922,0.00015626532,0.16264963
721667388,0.20036945,-0.17153835,1.4778494e-06,0.16264963
721671380,0.20031226,-0.1721397,-0.00017489173,0.16264963
721675418,0.2011691,-0.17220636,-0.00022182747,0.16264963
721679410,0.20142235,-0.1723231,-0.00036510712,0.16264963
721683383,0.20075078,-0.17211324,-0.00042329336,0.16264999
721687658,0.2012042,-0.17206946,-0.00040800645,0.16264999
721691377,0.20074977,-0.17179283,-0.00021668116,0.16264999
721695412,0.20032036,-0.17142262,-7.211509e-05,0.16264999
721699478,0.19932057,-0.1712675,0.00010547325,0.16264999
721703384,0.19875681,-0.17136133,0.00019723253,0.16264999
721707406,0.19918698,-0.1714173,0.00013039203,0.16265057
721711475,0.19842324,-0.17120795,0.00017488362,0.16265057
721715436,0.19864498,-0.17214446,-5.4478674e-05,0.16265057
721719457,0.19947162,-0.1717693,-0.00014584367,0.16265057
721723380,0.1996211,-0.17172591,-0.00019691425,0.16265057
721727416,0.20011355,-0.17148903,-0.00034657645,0.16289958
721731380,0.20053196,-0.17112315,-0.00023465231,0.16289958
721735499,0.20054513,-0.171396,-0.00021838339,0.16289958
721739486,0.20056392,-0.1702684,-3.6540976e-05,0.16289958
721743395,0.20012423,-0.17084521,0.0002272449,0.16289958
721747428,0.19972922,-0.17115882,0.00029714158,0.16348925
721751387,0.19994849,-0.17068349,0.00046625588,0.16348925
721755392,0.19964474,-0.17128165,0.00040562017,0.16348925
721759586,0.199604,-0.1717398,0.00033229234,0.16348925
721763384,0.20054196,-0.17194507,0.00022155876,0.16348925
721767460,0.20024793,-0.17223838,6.444724e-05,0.16348925
721771414,0.20105533,-0.1720869,4.800169e-06,0.16390727
721775409,0.20126013,-0.17175494,-6.437886e-05,0.16390727
721779466,0.20045725,-0.17187864,-6.55455e-05,0.16390727
