timestamp,noutputs,output[0],output[1],output[2],output[3],output[4],output[5],output[6],output[7],output[8],output[9],output[10],output[11],output[12],output[13],output[14],output[15]
717079915,8,1000.0,1000.0,1000.0,1000.0,1000.0,1000.0,0.0,0.0,0.0,0.0,0.0,0.0,0.0,0.0,0.0,0.0
717123913,8,1000.0,1000.0,1000.0,1000.0,1000.0,1000.0,0.0,0.0,0.0,0.0,0.0,0.0,0.0,0.0,0.0,0.0
717188130,8,1000.0,1000.0,1000.0,1000.0,1000.0,1000.0,0.0,0.0,0.0,0.0,0.0,0.0,0.0,0.0,0.0,0.0
717232782,8,1000.0,1000.0,1000.0,1000.0,1000.0,1000.0,0.0,0.0,0.0,0.0,0.0,0.0,0.0,0.0,0.0,0.0
717293802,8,1000.0,1000.0,1000.0,1000.0,1000.0,1000.0,0.0,0.0,0.0,0.0,0.0,0.0,0.0,0.0,0.0,0.0
717341524,8,1000.0,1000.0,1000.0,1000.0,1000.0,1000.0,0.0,0.0,0.0,0.0,0.0,0.0,0.0,0.0,0.0,0.0
717389833,8,1000.0,1000.0,1000.0,1000.0,1000.0,1000.0,0.0,0.0,0.0,0.0,0.0,0.0,0.0,0.0,0.0,0.0
717451116,8,1000.0,1000.0,1000.0,1000.0,1000.0,1000.0,0.0,0.0,0.0,0.0,0.0,0.0,0.0,0.0,0.0,0.0
717495106,8,1000.0,1000.0,1000.0,1000.0,1000.0,1000.0,0.0,0.0,0.0,0.0,0.0,0.0,0.0,0.0,0.0,0.0
717563098,8,1000.0,1000.0,1000.0,1000.0,1000.0,1000.0,0.0,0.0,0.0,0.0,0.0,0.0,0.0,0.0,0.0,0.0
717608150,8,1000.0,1000.0,1000.0,1000.0,1000.0,1000.0,0.0,0.0,0.0,0.0,0.0,0.0,0.0,0.0,0.0,0.0
717651891,8,1000.0,1000.0,1000.0,1000.0,1000.0,1000.0,0.0,0.0,0.0,0.0,0.0,0.0,0.0,0.0,0.0,0.0
717719930,8,1000.0,1000.0,1000.0,1000.0,1000.0,1000.0,0.0,0.0,0.0,0.0,0.0,0.0,0.0,0.0,0.0,0.0
717760687,8,1000.0,1000.0,1000.0,1000.0,1000.0,1000.0,0.0,0.0,0.0,0.0,0.0,0.0,0.0,0.0,0.0,0.0
717825860,8,1000.0,1000.0,1000.0,1000.0,1000.0,1000.0,0.0,0.0,0.0,0.0,0.0,0.0,0.0,0.0,0.0,0.0
717873777,8,1000.0,1000.0,1000.0,1000.0,1000.0,1000.0,0.0,0.0,0.0,0.0,0.0,0.0,0.0,0.0,0.0,0.0
717921765,8,1000.0,1000.0,1000.0,1000.0,1000.0,1000.0,0.0,0.0,0.0,0.0,0.0,0.0,0.0,0.0,0.0,0.0
717967341,8,1000.0,1000.0,1000.0,1000.0,1000.0,1000.0,0.0,0.0,0.0,0.0,0.0,0.0,0.0,0.0,0.0,0.0
718011346,8,1000.0,1000.0,1000.0,1000.0,1000.0,1000.0,0.0,0.0,0.0,0.0,0.0,0.0,0.0,0.0,0.0,0.0
718079433,8,1000.0,1000.0,1000.0,1000.0,1000.0,1000.0,0.0,0.0,0.0,0.0,0.0,0.0,0.0,0.0,0.0,0.0
718123341,8,1000.0,1000.0,1000.0,1000.0,1000.0,1000.0,0.0,0.0,0.0,0.0,0.0,0.0,0.0,0.0,0.0,0.0
718167466,8,1000.0,1000.0,1000.0,1000.0,1000.0,1000.0,0.0,0.0,0.0,0.0,0.0,0.0,0.0,0.0,0.0,0.0
718236147,8,1000.0,1000.0,1000.0,1000.0,1000.0,1000.0,0.0,0.0,0.0,0.0,0.0,0.0,0.0,0.0,0.0,0.0
718279954,8,1000.0,1000.0,1000.0,1000.0,1000.0,1000.0,0.0,0.0,0.0,0.0,0.0,0.0,0.0,0.0,0.0,0.0
718324728,8,1000.0,1000.0,1000.0,1000.0,1000.0,1000.0,0.0,0.0,0.0,0.0,0.0,0.0,0.0,0.0,0.0,0.0
718389464,8,1000.0,1000.0,1000.0,1000.0,1000.0,1000.0,0.0,0.0,0.0,0.0,0.0,0.0,0.0,0.0,0.0,0.0
718434346,8,1000.0,1000.0,1000.0,1000.0,1000.0,1000.0,0.0,0.0,0.0,0.0,0.0,0.0,0.0,0.0,0.0,0.0
718499365,8,1000.0,1000.0,1000.0,1000.0,1000.0,1000.0,0.0,0.0,0.0,0.0,0.0,0.0,0.0,0.0,0.0,0.0
718543145,8,1000.0,1000.0,1000.0,1000.0,1000.0,1000.0,0.0,0.0,0.0,0.0,0.0,0.0,0.0,0.0,0.0,0.0
718607858,8,1000.0,1000.0,1000.0,1000.0,1000.0,1000.0,0.0,0.0,0.0,0.0,0.0,0.0,0.0,0.0,0.0,0.0
718651874,8,1000.0,1000.0,1000.0,1000.0,1000.0,1000.0,0.0,0.0,0.0,0.0,0.0,0.0,0.0,0.0,0.0,0.0
718700199,8,1000.0,1000.0,1000.0,1000.0,1000.0,1000.0,0.0,0.0,0.0,0.0,0.0,0.0,0.0,0.0,0.0,0.0
718768155,8,1000.0,1000.0,1000.0,1000.0,1000.0,1000.0,0.0,0.0,0.0,0.0,0.0,0.0,0.0,0.0,0.0,0.0
718811929,8,1000.0,1000.0,1000.0,1000.0,1000.0,1000.0,0.0,0.0,0.0,0.0,0.0,0.0,0.0,0.0,0.0,0.0
718871923,8,1000.0,1000.0,1000.0,1000.0,1000.0,1000.0,0.0,0.0,0.0,0.0,0.0,0.0,0.0,0.0,0.0,0.0
718916171,8,1000.0,1000.0,1000.0,1000.0,1000.0,1000.0,0.0,0.0,0.0,0.0,0.0,0.0,0.0,0.0,0.0,0.0
718959890,8,1000.0,1000.0,1000.0,1000.0,1000.0,1000.0,0.0,0.0,0.0,0.0,0.0,0.0,0.0,0.0,0.0,0.0
719020657,8,1000.0,1000.0,1000.0,1000.0,1000.0,1000.0,0.0,0.0,0.0,0.0,0.0,0.0,0.0,0.0,0.0,0.0
719064649,8,1000.0,1000.0,1000.0,1000.0,1000.0,1000.0,0.0,0.0,0.0,0.0,0.0,0.0,0.0,0.0,0.0,0.0
719130585,8,1000.0,1000.0,1000.0,1000.0,1000.0,1000.0,0.0,0.0,0.0,0.0,0.0,0.0,0.0,0.0,0.0,0.0
719178666,8,1000.0,1000.0,1000.0,1000.0,1000.0,1000.0,0.0,0.0,0.0,0.0,0.0,0.0,0.0,0.0,0.0,0.0
719222598,8,1000.0,1000.0,1000.0,1000.0,1000.0,1000.0,0.0,0.0,0.0,0.0,0.0,0.0,0.0,0.0,0.0,0.0
719270616,8,1000.0,1000.0,1000.0,1000.0,1000.0,1000.0,0.0,0.0,0.0,0.0,0.0,0.0,0.0,0.0,0.0,0.0
719318596,8,1000.0,1000.0,1000.0,1000.0,1000.0,1000.0,0.0,0.0,0.0,0.0,0.0,0.0,0.0,0.0,0.0,0.0
719390601,8,1000.0,1000.0,1000.0,1000.0,1000.0,1000.0,0.0,0.0,0.0,0.0,0.0,0.0,0.0,0.0,0.0,0.0
719438285,8,1000.0,1000.0,1000.0,1000.0,1000.0,1000.0,0.0,0.0,0.0,0.0,0.0,0.0,0.0,0.0,0.0,0.0
719486637,8,1000.0,1000.0,1000.0,1000.0,1000.0,1000.0,0.0,0.0,0.0,0.0,0.0,0.0,0.0,0.0,0.0,0.0
719534761,8,1000.0,1000.0,1000.0,1000.0,1000.0,1000.0,0.0,0.0,0.0,0.0,0.0,0.0,0.0,0.0,0.0,0.0
719582660,8,1000.0,1000.0,1000.0,1000.0,1000.0,1000.0,0.0,0.0,0.0,0.0,0.0,0.0,0.0,0.0,0.0,0.0
719654562,8,1000.0,1000.0,1000.0,1000.0,1000.0,1000.0,0.0,0.0,0.0,0.0,0.0,0.0,0.0,0.0,0.0,0.0
719698667,8,1000.0,1000.0,1000.0,1000.0,1000.0,1000.0,0.0,0.0,0.0,0.0,0.0,0.0,0.0,0.0,0.0,0.0
719746284,8,1000.0,1000.0,1000.0,1000.0,1000.0,1000.0,0.0,0.0,0.0,0.0,0.0,0.0,0.0,0.0,0.0,0.0
719814577,8,1000.0,1000.0,1000.0,1000.0,1000.0,1000.0,0.0,0.0,0.0,0.0,0.0,0.0,0.0,0.0,0.0,0.0
719862974,8,1000.0,1000.0,1000.0,1000.0,1000.0,1000.0,0.0,0.0,0.0,0.0,0.0,0.0,0.0,0.0,0.0,0.0
719910603,8,1000.0,1000.0,1000.0,1000.0,1000.0,1000.0,0.0,0.0,0.0,0.0,0.0,0.0,0.0,0.0,0.0,0.0
719955378,8,1000.0,1000.0,1000.0,1000.0,1000.0,1000.0,0.0,0.0,0.0,0.0,0.0,0.0,0.0,0.0,0.0,0.0
720003103,8,1000.0,1000.0,1000.0,1000.0,1000.0,1000.0,0.0,0.0,0.0,0.0,0.0,0.0,0.0,0.0,0.0,0.0
720071912,8,1000.0,1000.0,1000.0,1000.0,1000.0,1000.0,0.0,0.0,0.0,0.0,0.0,0.0,0.0,0.0,0.0,0.0
720116220,8,1000.0,1000.0,1000.0,1000.0,1000.0,1000.0,0.0,0.0,0.0,0.0,0.0,0.0,0.0,0.0,0.0,0.0
720159879,8,1000.0,1000.0,1000.0,1000.0,1000.0,1000.0,0.0,0.0,0.0,0.0,0.0,0.0,0.0,0.0,0.0,0.0
720228118,8,1000.0,1000.0,1000.0,1000.0,1000.0,1000.0,0.0,0.0,0.0,0.0,0.0,0.0,0.0,0.0,0.0,0.0
720271897,8,1000.0,1000.0,1000.0,1000.0,1000.0,1000.0,0.0,0.0,0.0,0.0,0.0,0.0,0.0,0.0,0.0,0.0
720336119,8,1001.0,1002.0,1000.0,1003.0,1000.0,1004.0,0.0,0.0,0.0,0.0,0.0,0.0,0.0,0.0,0.0,0.0
720383885,8,1029.0,1018.0,1000.0,1047.0,1004.0,1043.0,0.0,0.0,0.0,0.0,0.0,0.0,0.0,0.0,0.0,0.0
720431876,8,1047.0,1060.0,1035.0,1072.0,1027.0,1080.0,0.0,0.0,0.0,0.0,0.0,0.0,0.0,0.0,0.0,0.0
720471875,8,1056.0,1088.0,1057.0,1087.0,1040.0,1103.0,0.0,0.0,0.0,0.0,0.0,0.0,0.0,0.0,0.0,0.0
720541506,8,1066.0,1104.0,1072.0,1098.0,1053.0,1117.0,0.0,0.0,0.0,0.0,0.0,0.0,0.0,0.0,0.0,0.0
720585792,8,1067.0,1107.0,1075.0,1099.0,1054.0,1120.0,0.0,0.0,0.0,0.0,0.0,0.0,0.0,0.0,0.0,0.0
720633766,8,1067.0,1111.0,1077.0,1100.0,1056.0,1122.0,0.0,0.0,0.0,0.0,0.0,0.0,0.0,0.0,0.0,0.0
720681790,8,1072.0,1117.0,1084.0,1105.0,1059.0,1130.0,0.0,0.0,0.0,0.0,0.0,0.0,0.0,0.0,0.0,0.0
720729745,8,1086.0,1128.0,1095.0,1118.0,1073.0,1140.0,0.0,0.0,0.0,0.0,0.0,0.0,0.0,0.0,0.0,0.0
720797828,8,1110.0,1147.0,1116.0,1141.0,1096.0,1161.0,0.0,0.0,0.0,0.0,0.0,0.0,0.0,0.0,0.0,0.0
720845495,8,1114.0,1156.0,1117.0,1152.0,1107.0,1163.0,0.0,0.0,0.0,0.0,0.0,0.0,0.0,0.0,0.0,0.0
720893772,8,1124.0,1149.0,1124.0,1149.0,1104.0,1169.0,0.0,0.0,0.0,0.0,0.0,0.0,0.0,0.0,0.0,0.0
720937739,8,1139.0,1150.0,1129.0,1159.0,1113.0,1176.0,0.0,0.0,0.0,0.0,0.0,0.0,0.0,0.0,0.0,0.0
721001740,8,1153.0,1169.0,1141.0,1181.0,1132.0,1190.0,0.0,0.0,0.0,0.0,0.0,0.0,0.0,0.0,0.0,0.0
721045478,8,1163.0,1172.0,1144.0,1192.0,1147.0,1189.0,0.0,0.0,0.0,0.0,0.0,0.0,0.0,0.0,0.0,0.0
721089860,8,1166.0,1168.0,1141.0,1193.0,1145.0,1189.0,0.0,0.0,0.0,0.0,0.0,0.0,0.0,0.0,0.0,0.0
721161798,8,1170.0,1164.0,1144.0,1190.0,1143.0,1191.0,0.0,0.0,0.0,0.0,0.0,0.0,0.0,0.0,0.0,0.0
721209787,8,1168.0,1166.0,1147.0,1187.0,1146.0,1188.0,0.0,0.0,0.0,0.0,0.0,0.0,0.0,0.0,0.0,0.0
721257765,8,1169.0,1166.0,1144.0,1190.0,1145.0,1189.0,0.0,0.0,0.0,0.0,0.0,0.0,0.0,0.0,0.0,0.0
721305813,8,1179.0,1155.0,1139.0,1195.0,1151.0,1183.0,0.0,0.0,0.0,0.0,0.0,0.0,0.0,0.0,0.0,0.0
721353756,8,1190.0,1144.0,1130.0,1204.0,1158.0,1176.0,0.0,0.0,0.0,0.0,0.0,0.0,0.0,0.0,0.0,0.0
721425780,8,1195.0,1134.0,1127.0,1202.0,1153.0,1177.0,0.0,0.0,0.0,0.0,0.0,0.0,0.0,0.0,0.0,0.0
721473513,8,1175.0,1152.0,1133.0,1193.0,1141.0,1186.0,0.0,0.0,0.0,0.0,0.0,0.0,0.0,0.0,0.0,0.0
721513573,8,1143.0,1182.0,1142.0,1183.0,1135.0,1190.0,0.0,0.0,0.0,0.0,0.0,0.0,0.0,0.0,0.0,0.0
721561480,8,1129.0,1196.0,1143.0,1178.0,1129.0,1195.0,0.0,0.0,0.0,0.0,0.0,0.0,0.0,0.0,0.0,0.0
721629498,8,1130.0,1195.0,1163.0,1162.0,1119.0,1206.0,0.0,0.0,0.0,0.0,0.0,0.0,0.0,0.0,0.0,0.0
721673765,8,1125.0,1199.0,1158.0,1166.0,1117.0,1208.0,0.0,0.0,0.0,0.0,0.0,0.0,0.0,0.0,0.0,0.0
721717492,8,1126.0,1199.0,1159.0,1166.0,1114.0,1210.0,0.0,0.0,0.0,0.0,0.0,0.0,0.0,0.0,0.0,0.0
721785539,8,1134.0,1193.0,1160.0,1167.0,1137.0,1189.0,0.0,0.0,0.0,0.0,0.0,0.0,0.0,0.0,0.0,0.0
721833512,8,1138.0,1189.0,1163.0,1164.0,1138.0,1189.0,0.0,0.0,0.0,0.0,0.0,0.0,0.0,0.0,0.0,0.0
721881760,8,1137.0,1190.0,1163.0,1163.0,1136.0,1191.0,0.0,0.0,0.0,0.0,0.0,0.0,0.0,0.0,0.0,0.0
721929750,8,1135.0,1192.0,1162.0,1165.0,1136.0,1191.0,0.0,0.0,0.0,0.0,0.0,0.0,0.0,0.0,0.0,0.0
721977778,8,1128.0,1198.0,1162.0,1165.0,1125.0,1202.0,0.0,0.0,0.0,0.0,0.0,0.0,0.0,0.0,0.0,0.0
722025820,8,1128.0,1199.0,1157.0,1165.0,1134.0,1193.0,0.0,0.0,0.0,0.0,0.0,0.0,0.0,0.0,0.0,0.0
722097757,8,1134.0,1193.0,1159.0,1168.0,1117.0,1210.0,0.0,0.0,0.0,0.0,0.0,0.0,0.0,0.0,0.0,0.0
722145543,8,1138.0,1193.0,1158.0,1173.0,1124.0,1207.0,0.0,0.0,0.0,0.0,0.0,0.0,0.0,0.0,0.0,0.0
722193825,8,1144.0,1188.0,1161.0,1171.0,1138.0,1194.0,0.0,0.0,0.0,0.0,0.0,0.0,0.0,0.0,0.0,0.0
722241725,8,1126.0,1205.0,1166.0,1165.0,1115.0,1216.0,0.0,0.0,0.0,0.0,0.0,0.0,0.0,0.0,0.0,0.0
722289809,8,1127.0,1204.0,1167.0,1165.0,1120.0,1212.0,0.0,0.0,0.0,0.0,0.0,0.0,0.0,0.0,0.0,0.0
722337758,8,1133.0,1199.0,1166.0,1166.0,1130.0,1202.0,0.0,0.0,0.0,0.0,0.0,0.0,0.0,0.0,0.0,0.0
722409847,8,1136.0,1199.0,1151.0,1183.0,1135.0,1199.0,0.0,0.0,0.0,0.0,0.0,0.0,0.0,0.0,0.0,0.0
722457532,8,1134.0,1213.0,1164.0,1183.0,1131.0,1216.0,0.0,0.0,0.0,0.0,0.0,0.0,0.0,0.0,0.0,0.0
722501776,8,1186.0,1199.0,1170.0,1216.0,1167.0,1219.0,0.0,0.0,0.0,0.0,0.0,0.0,0.0,0.0,0.0,0.0
722545819,8,1194.0,1209.0,1178.0,1225.0,1168.0,1234.0,0.0,0.0,0.0,0.0,0.0,0.0,0.0,0.0,0.0,0.0
722617868,8,1182.0,1230.0,1198.0,1214.0,1167.0,1244.0,0.0,0.0,0.0,0.0,0.0,0.0,0.0,0.0,0.0,0.0
722665819,8,1198.0,1228.0,1195.0,1231.0,1178.0,1248.0,0.0,0.0,0.0,0.0,0.0,0.0,0.0,0.0,0.0,0.0
722713763,8,1231.0,1206.0,1191.0,1246.0,1206.0,1231.0,0.0,0.0,0.0,0.0,0.0,0.0,0.0,0.0,0.0,0.0
722761742,8,1238.0,1214.0,1191.0,1261.0,1198.0,1254.0,0.0,0.0,0.0,0.0,0.0,0.0,0.0,0.0,0.0,0.0
722805740,8,1247.0,1212.0,1191.0,1268.0,1204.0,1255.0,0.0,0.0,0.0,0.0,0.0,0.0,0.0,0.0,0.0,0.0
722873518,8,1243.0,1223.0,1210.0,1257.0,1223.0,1243.0,0.0,0.0,0.0,0.0,0.0,0.0,0.0,0.0,0.0,0.0
722921817,8,1240.0,1228.0,1211.0,1256.0,1212.0,1256.0,0.0,0.0,0.0,0.0,0.0,0.0,0.0,0.0,0.0,0.0
722985490,8,1257.0,1220.0,1212.0,1265.0,1220.0,1257.0,0.0,0.0,0.0,0.0,0.0,0.0,0.0,0.0,0.0,0.0
723025846,8,1231.0,1250.0,1208.0,1273.0,1220.0,1261.0,0.0,0.0,0.0,0.0,0.0,0.0,0.0,0.0,0.0,0.0
723073767,8,1266.0,1217.0,1211.0,1272.0,1213.0,1271.0,0.0,0.0,0.0,0.0,0.0,0.0,0.0,0.0,0.0,0.0
723117502,8,1263.0,1231.0,1209.0,1284.0,1235.0,1259.0,0.0,0.0,0.0,0.0,0.0,0.0,0.0,0.0,0.0,0.0
723181506,8,1254.0,1242.0,1212.0,1283.0,1220.0,1275.0,0.0,0.0,0.0,0.0,0.0,0.0,0.0,0.0,0.0,0.0
723229717,8,1269.0,1227.0,1208.0,1288.0,1227.0,1268.0,0.0,0.0,0.0,0.0,0.0,0.0,0.0,0.0,0.0,0.0
723277507,8,1274.0,1223.0,1210.0,1287.0,1221.0,1276.0,0.0,0.0,0.0,0.0,0.0,0.0,0.0,0.0,0.0,0.0
723341487,8,1264.0,1240.0,1217.0,1286.0,1224.0,1280.0,0.0,0.0,0.0,0.0,0.0,0.0,0.0,0.0,0.0,0.0
723385513,8,1254.0,1254.0,1228.0,1280.0,1221.0,1287.0,0.0,0.0,0.0,0.0,0.0,0.0,0.0,0.0,0.0,0.0
723433499,8,1274.0,1243.0,1213.0,1304.0,1236.0,1280.0,0.0,0.0,0.0,0.0,0.0,0.0,0.0,0.0,0.0,0.0
723501756,8,1289.0,1245.0,1249.0,1285.0,1247.0,1287.0,0.0,0.0,0.0,0.0,0.0,0.0,0.0,0.0,0.0,0.0
723545772,8,1293.0,1252.0,1240.0,1305.0,1248.0,1297.0,0.0,0.0,0.0,0.0,0.0,0.0,0.0,0.0,0.0,0.0
723589498,8,1291.0,1262.0,1249.0,1303.0,1245.0,1308.0,0.0,0.0,0.0,0.0,0.0,0.0,0.0,0.0,0.0,0.0
723657469,8,1290.0,1273.0,1273.0,1290.0,1259.0,1304.0,0.0,0.0,0.0,0.0,0.0,0.0,0.0,0.0,0.0,0.0
723701500,8,1304.0,1265.0,1256.0,1313.0,1272.0,1297.0,0.0,0.0,0.0,0.0,0.0,0.0,0.0,0.0,0.0,0.0
723765461,8,1310.0,1274.0,1255.0,1329.0,1279.0,1305.0,0.0,0.0,0.0,0.0,0.0,0.0,0.0,0.0,0.0,0.0
723809749,8,1311.0,1276.0,1254.0,1333.0,1267.0,1319.0,0.0,0.0,0.0,0.0,0.0,0.0,0.0,0.0,0.0,0.0
723857872,8,1330.0,1258.0,1265.0,1324.0,1250.0,1338.0,0.0,0.0,0.0,0.0,0.0,0.0,0.0,0.0,0.0,0.0
723905534,8,1339.0,1252.0,1231.0,1360.0,1290.0,1302.0,0.0,0.0,0.0,0.0,0.0,0.0,0.0,0.0,0.0,0.0
723953535,8,1299.0,1293.0,1273.0,1319.0,1269.0,1323.0,0.0,0.0,0.0,0.0,0.0,0.0,0.0,0.0,0.0,0.0
724001831,8,1344.0,1249.0,1228.0,1365.0,1298.0,1295.0,0.0,0.0,0.0,0.0,0.0,0.0,0.0,0.0,0.0,0.0
724073873,8,1363.0,1237.0,1230.0,1370.0,1260.0,1340.0,0.0,0.0,0.0,0.0,0.0,0.0,0.0,0.0,0.0,0.0
724121800,8,1348.0,1259.0,1262.0,1345.0,1279.0,1328.0,0.0,0.0,0.0,0.0,0.0,0.0,0.0,0.0,0.0,0.0
724169798,8,1337.0,1278.0,1267.0,1347.0,1304.0,1311.0,0.0,0.0,0.0,0.0,0.0,0.0,0.0,0.0,0.0,0.0
724217868,8,1368.0,1253.0,1268.0,1353.0,1327.0,1295.0,0.0,0.0,0.0,0.0,0.0,0.0,0.0,0.0,0.0,0.0
724265558,8,1375.0,1258.0,1258.0,1375.0,1294.0,1339.0,0.0,0.0,0.0,0.0,0.0,0.0,0.0,0.0,0.0,0.0
724313764,8,1367.0,1287.0,1258.0,1396.0,1282.0,1372.0,0.0,0.0,0.0,0.0,0.0,0.0,0.0,0.0,0.0,0.0
724385811,8,1346.0,1318.0,1289.0,1376.0,1326.0,1339.0,0.0,0.0,0.0,0.0,0.0,0.0,0.0,0.0,0.0,0.0
724434111,8,1362.0,1311.0,1312.0,1361.0,1295.0,1378.0,0.0,0.0,0.0,0.0,0.0,0.0,0.0,0.0,0.0,0.0
724481509,8,1354.0,1327.0,1283.0,1398.0,1285.0,1396.0,0.0,0.0,0.0,0.0,0.0,0.0,0.0,0.0,0.0,0.0
724529849,8,1379.0,1308.0,1273.0,1415.0,1322.0,1366.0,0.0,0.0,0.0,0.0,0.0,0.0,0.0,0.0,0.0,0.0
724577855,8,1356.0,1333.0,1357.0,1332.0,1348.0,1341.0,0.0,0.0,0.0,0.0,0.0,0.0,0.0,0.0,0.0,0.0
724625818,8,1440.0,1253.0,1328.0,1365.0,1362.0,1330.0,0.0,0.0,0.0,0.0,0.0,0.0,0.0,0.0,0.0,0.0
724693466,8,1327.0,1369.0,1313.0,1383.0,1272.0,1424.0,0.0,0.0,0.0,0.0,0.0,0.0,0.0,0.0,0.0,0.0
724733503,8,1372.0,1331.0,1234.0,1469.0,1255.0,1448.0,0.0,0.0,0.0,0.0,0.0,0.0,0.0,0.0,0.0,0.0
724801515,8,1402.0,1308.0,1269.0,1441.0,1291.0,1419.0,0.0,0.0,0.0,0.0,0.0,0.0,0.0,0.0,0.0,0.0
724841744,8,1361.0,1349.0,1277.0,1433.0,1269.0,1441.0,0.0,0.0,0.0,0.0,0.0,0.0,0.0,0.0,0.0,0.0
724889777,8,1369.0,1341.0,1319.0,1391.0,1259.0,1451.0,0.0,0.0,0.0,0.0,0.0,0.0,0.0,0.0,0.0,0.0
724961783,8,1409.0,1308.0,1351.0,1366.0,1309.0,1408.0,0.0,0.0,0.0,0.0,0.0,0.0,0.0,0.0,0.0,0.0
725009847,8,1427.0,1298.0,1344.0,1381.0,1404.0,1321.0,0.0,0.0,0.0,0.0,0.0,0.0,0.0,0.0,0.0,0.0
725057804,8,1395.0,1339.0,1270.0,1464.0,1303.0,1432.0,0.0,0.0,0.0,0.0,0.0,0.0,0.0,0.0,0.0,0.0
725105845,8,1484.0,1258.0,1283.0,1458.0,1313.0,1428.0,0.0,0.0,0.0,0.0,0.0,0.0,0.0,0.0,0.0,0.0
725153823,8,1409.0,1340.0,1293.0,1456.0,1304.0,1445.0,0.0,0.0,0.0,0.0,0.0,0.0,0.0,0.0,0.0,0.0
725201552,8,1382.0,1370.0,1380.0,1373.0,1363.0,1389.0,0.0,0.0,0.0,0.0,0.0,0.0,0.0,0.0,0.0,0.0
725269740,8,1461.0,1303.0,1358.0,1407.0,1422.0,1342.0,0.0,0.0,0.0,0.0,0.0,0.0,0.0,0.0,0.0,0.0
725313520,8,1465.0,1302.0,1268.0,1499.0,1345.0,1422.0,0.0,0.0,0.0,0.0,0.0,0.0,0.0,0.0,0.0,0.0
725361548,8,1411.0,1357.0,1329.0,1439.0,1383.0,1385.0,0.0,0.0,0.0,0.0,0.0,0.0,0.0,0.0,0.0,0.0
725405831,8,1460.0,1310.0,1260.0,1510.0,1303.0,1466.0,0.0,0.0,0.0,0.0,0.0,0.0,0.0,0.0,0.0,0.0
725469767,8,1388.0,1388.0,1318.0,1458.0,1340.0,1436.0,0.0,0.0,0.0,0.0,0.0,0.0,0.0,0.0,0.0,0.0
725513825,8,1430.0,1355.0,1378.0,1407.0,1379.0,1406.0,0.0,0.0,0.0,0.0,0.0,0.0,0.0,0.0,0.0,0.0
725586022,8,1408.0,1387.0,1321.0,1474.0,1326.0,1469.0,0.0,0.0,0.0,0.0,0.0,0.0,0.0,0.0,0.0,0.0
725633491,8,1467.0,1335.0,1321.0,1480.0,1326.0,1476.0,0.0,0.0,0.0,0.0,0.0,0.0,0.0,0.0,0.0,0.0
725681561,8,1515.0,1289.0,1326.0,1478.0,1316.0,1488.0,0.0,0.0,0.0,0.0,0.0,0.0,0.0,0.0,0.0,0.0
725730116,8,1381.0,1424.0,1383.0,1423.0,1398.0,1407.0,0.0,0.0,0.0,0.0,0.0,0.0,0.0,0.0,0.0,0.0
725777851,8,1510.0,1296.0,1259.0,1547.0,1347.0,1459.0,0.0,0.0,0.0,0.0,0.0,0.0,0.0,0.0,0.0,0.0
725825848,8,1416.0,1392.0,1325.0,1483.0,1345.0,1463.0,0.0,0.0,0.0,0.0,0.0,0.0,0.0,0.0,0.0,0.0
725891103,8,1447.0,1368.0,1337.0,1478.0,1370.0,1445.0,0.0,0.0,0.0,0.0,0.0,0.0,0.0,0.0,0.0,0.0
725935149,8,1415.0,1403.0,1354.0,1464.0,1258.0,1560.0,0.0,0.0,0.0,0.0,0.0,0.0,0.0,0.0,0.0,0.0
725979113,8,1507.0,1312.0,1364.0,1455.0,1361.0,1458.0,0.0,0.0,0.0,0.0,0.0,0.0,0.0,0.0,0.0,0.0
726047107,8,1581.0,1241.0,1311.0,1512.0,1381.0,1441.0,0.0,0.0,0.0,0.0,0.0,0.0,0.0,0.0,0.0,0.0
726091417,8,1510.0,1315.0,1324.0,1501.0,1367.0,1458.0,0.0,0.0,0.0,0.0,0.0,0.0,0.0,0.0,0.0,0.0
726155100,8,1575.0,1252.0,1326.0,1501.0,1416.0,1411.0,0.0,0.0,0.0,0.0,0.0,0.0,0.0,0.0,0.0,0.0
726199492,8,1415.0,1418.0,1317.0,1516.0,1323.0,1509.0,0.0,0.0,0.0,0.0,0.0,0.0,0.0,0.0,0.0,0.0
726243464,8,1426.0,1410.0,1333.0,1502.0,1246.0,1589.0,0.0,0.0,0.0,0.0,0.0,0.0,0.0,0.0,0.0,0.0
726311328,8,1450.0,1390.0,1315.0,1526.0,1440.0,1400.0,0.0,0.0,0.0,0.0,0.0,0.0,0.0,0.0,0.0,0.0
726355136,8,1476.0,1369.0,1324.0,1521.0,1369.0,1476.0,0.0,0.0,0.0,0.0,0.0,0.0,0.0,0.0,0.0,0.0
726419174,8,1421.0,1424.0,1372.0,1473.0,1425.0,1420.0,0.0,0.0,0.0,0.0,0.0,0.0,0.0,0.0,0.0,0.0
726463101,8,1430.0,1416.0,1325.0,1522.0,1334.0,1512.0,0.0,0.0,0.0,0.0,0.0,0.0,0.0,0.0,0.0,0.0
726503117,8,1445.0,1403.0,1373.0,1474.0,1217.0,1631.0,0.0,0.0,0.0,0.0,0.0,0.0,0.0,0.0,0.0,0.0
726571065,8,1487.0,1361.0,1405.0,1444.0,1306.0,1543.0,0.0,0.0,0.0,0.0,0.0,0.0,0.0,0.0,0.0,0.0
726615093,8,1460.0,1390.0,1370.0,1480.0,1313.0,1538.0,0.0,0.0,0.0,0.0,0.0,0.0,0.0,0.0,0.0,0.0
726659080,8,1459.0,1394.0,1391.0,1461.0,1336.0,1516.0,0.0,0.0,0.0,0.0,0.0,0.0,0.0,0.0,0.0,0.0
726719078,8,1440.0,1414.0,1357.0,1497.0,1250.0,1604.0,0.0,0.0,0.0,0.0,0.0,0.0,0.0,0.0,0.0,0.0
726763110,8,1543.0,1318.0,1439.0,1421.0,1335.0,1526.0,0.0,0.0,0.0,0.0,0.0,0.0,0.0,0.0,0.0,0.0
726835096,8,1595.0,1269.0,1356.0,1507.0,1402.0,1462.0,0.0,0.0,0.0,0.0,0.0,0.0,0.0,0.0,0.0,0.0
726883451,8,1551.0,1313.0,1336.0,1529.0,1444.0,1420.0,0.0,0.0,0.0,0.0,0.0,0.0,0.0,0.0,0.0,0.0
726927127,8,1437.0,1427.0,1338.0,1526.0,1426.0,1438.0,0.0,0.0,0.0,0.0,0.0,0.0,0.0,0.0,0.0,0.0
726987316,8,1424.0,1440.0,1472.0,1392.0,1222.0,1642.0,0.0,0.0,0.0,0.0,0.0,0.0,0.0,0.0,0.0,0.0
727031408,8,1499.0,1365.0,1414.0,1450.0,1329.0,1535.0,0.0,0.0,0.0,0.0,0.0,0.0,0.0,0.0,0.0,0.0
727079365,8,1454.0,1410.0,1403.0,1461.0,1165.0,1699.0,0.0,0.0,0.0,0.0,0.0,0.0,0.0,0.0,0.0,0.0
727147349,8,1555.0,1309.0,1402.0,1462.0,1264.0,1600.0,0.0,0.0,0.0,0.0,0.0,0.0,0.0,0.0,0.0,0.0
727191072,8,1449.0,1416.0,1409.0,1456.0,1406.0,1458.0,0.0,0.0,0.0,0.0,0.0,0.0,0.0,0.0,0.0,0.0
727235399,8,1435.0,1434.0,1431.0,1438.0,1458.0,1411.0,0.0,0.0,0.0,0.0,0.0,0.0,0.0,0.0,0.0,0.0
727279481,8,1522.0,1349.0,1486.0,1385.0,1432.0,1439.0,0.0,0.0,0.0,0.0,0.0,0.0,0.0,0.0,0.0,0.0
727343109,8,1584.0,1291.0,1341.0,1534.0,1515.0,1360.0,0.0,0.0,0.0,0.0,0.0,0.0,0.0,0.0,0.0,0.0
727383074,8,1623.0,1258.0,1424.0,1457.0,1449.0,1432.0,0.0,0.0,0.0,0.0,0.0,0.0,0.0,0.0,0.0,0.0
727451079,8,1519.0,1366.0,1434.0,1451.0,1321.0,1564.0,0.0,0.0,0.0,0.0,0.0,0.0,0.0,0.0,0.0,0.0
727499343,8,1607.0,1279.0,1376.0,1510.0,1346.0,1540.0,0.0,0.0,0.0,0.0,0.0,0.0,0.0,0.0,0.0,0.0
727563150,8,1402.0,1484.0,1524.0,1362.0,1273.0,1613.0,0.0,0.0,0.0,0.0,0.0,0.0,0.0,0.0,0.0,0.0
727611153,8,1464.0,1422.0,1483.0,1403.0,1114.0,1772.0,0.0,0.0,0.0,0.0,0.0,0.0,0.0,0.0,0.0,0.0
727659400,8,1464.0,1422.0,1558.0,1328.0,1174.0,1711.0,0.0,0.0,0.0,0.0,0.0,0.0,0.0,0.0,0.0,0.0
727699375,8,1431.0,1455.0,1392.0,1493.0,1406.0,1540.0,0.0,0.0,0.0,0.0,0.0,0.0,0.0,0.0,0.0,0.0
727767079,8,1599.0,1284.0,1371.0,1513.0,1376.0,1507.0,0.0,0.0,0.0,0.0,0.0,0.0,0.0,0.0,0.0,0.0
727807051,8,1589.0,1295.0,1430.0,1454.0,1390.0,1494.0,0.0,0.0,0.0,0.0,0.0,0.0,0.0,0.0,0.0,0.0
727867412,8,1465.0,1418.0,1511.0,1373.0,1190.0,1694.0,0.0,0.0,0.0,0.0,0.0,0.0,0.0,0.0,0.0,0.0
727911092,8,1516.0,1368.0,1473.0,1411.0,1359.0,1524.0,0.0,0.0,0.0,0.0,0.0,0.0,0.0,0.0,0.0,0.0
727975070,8,1654.0,1229.0,1410.0,1473.0,1466.0,1418.0,0.0,0.0,0.0,0.0,0.0,0.0,0.0,0.0,0.0,0.0
728015071,8,1607.0,1276.0,1454.0,1429.0,1130.0,1753.0,0.0,0.0,0.0,0.0,0.0,0.0,0.0,0.0,0.0,0.0
728079119,8,1483.0,1399.0,1527.0,1355.0,1224.0,1658.0,0.0,0.0,0.0,0.0,0.0,0.0,0.0,0.0,0.0,0.0
728119119,8,1551.0,1330.0,1380.0,1501.0,1315.0,1566.0,0.0,0.0,0.0,0.0,0.0,0.0,0.0,0.0,0.0,0.0
728163135,8,1617.0,1264.0,1337.0,1544.0,1323.0,1558.0,0.0,0.0,0.0,0.0,0.0,0.0,0.0,0.0,0.0,0.0
728231077,8,1561.0,1320.0,1375.0,1506.0,1367.0,1514.0,0.0,0.0,0.0,0.0,0.0,0.0,0.0,0.0,0.0,0.0
728271079,8,1510.0,1371.0,1365.0,1516.0,1316.0,1565.0,0.0,0.0,0.0,0.0,0.0,0.0,0.0,0.0,0.0,0.0
728339323,8,1547.0,1334.0,1360.0,1521.0,1400.0,1481.0,0.0,0.0,0.0,0.0,0.0,0.0,0.0,0.0,0.0,0.0
728383343,8,1451.0,1430.0,1391.0,1490.0,1229.0,1652.0,0.0,0.0,0.0,0.0,0.0,0.0,0.0,0.0,0.0,0.0
728427323,8,1524.0,1357.0,1373.0,1508.0,1406.0,1334.0,0.0,0.0,0.0,0.0,0.0,0.0,0.0,0.0,0.0,0.0
728495134,8,1545.0,1336.0,1407.0,1474.0,1457.0,1424.0,0.0,0.0,0.0,0.0,0.0,0.0,0.0,0.0,0.0,0.0
728539495,8,1587.0,1294.0,1381.0,1500.0,1240.0,1641.0,0.0,0.0,0.0,0.0,0.0,0.0,0.0,0.0,0.0,0.0
728603112,8,1564.0,1317.0,1297.0,1584.0,1517.0,1364.0,0.0,0.0,0.0,0.0,0.0,0.0,0.0,0.0,0.0,0.0
728651108,8,1410.0,1471.0,1366.0,1515.0,1472.0,1409.0,0.0,0.0,0.0,0.0,0.0,0.0,0.0,0.0,0.0,0.0
728699382,8,1428.0,1456.0,1375.0,1508.0,1524.0,1359.0,0.0,0.0,0.0,0.0,0.0,0.0,0.0,0.0,0.0,0.0
728739118,8,1478.0,1409.0,1423.0,1464.0,1359.0,1528.0,0.0,0.0,0.0,0.0,0.0,0.0,0.0,0.0,0.0,0.0
728807391,8,1468.0,1421.0,1434.0,1455.0,1489.0,1400.0,0.0,0.0,0.0,0.0,0.0,0.0,0.0,0.0,0.0,0.0
728855334,8,1431.0,1458.0,1381.0,1508.0,1509.0,1379.0,0.0,0.0,0.0,0.0,0.0,0.0,0.0,0.0,0.0,0.0
728899489,8,1430.0,1458.0,1456.0,1432.0,1370.0,1518.0,0.0,0.0,0.0,0.0,0.0,0.0,0.0,0.0,0.0,0.0
728959056,8,1494.0,1394.0,1418.0,1470.0,1248.0,1640.0,0.0,0.0,0.0,0.0,0.0,0.0,0.0,0.0,0.0,0.0
729003124,8,1456.0,1432.0,1413.0,1475.0,1081.0,1807.0,0.0,0.0,0.0,0.0,0.0,0.0,0.0,0.0,0.0,0.0
729047122,8,1529.0,1359.0,1462.0,1426.0,1473.0,1415.0,0.0,0.0,0.0,0.0,0.0,0.0,0.0,0.0,0.0,0.0
729115480,8,1603.0,1285.0,1382.0,1506.0,1377.0,1511.0,0.0,0.0,0.0,0.0,0.0,0.0,0.0,0.0,0.0,0.0
729159088,8,1590.0,1298.0,1551.0,1337.0,1297.0,1591.0,0.0,0.0,0.0,0.0,0.0,0.0,0.0,0.0,0.0,0.0
729223472,8,1623.0,1266.0,1626.0,1262.0,1056.0,1832.0,0.0,0.0,0.0,0.0,0.0,0.0,0.0,0.0,0.0,0.0
729271109,8,1548.0,1339.0,1552.0,1335.0,1349.0,1539.0,0.0,0.0,0.0,0.0,0.0,0.0,0.0,0.0,0.0,0.0
729319429,8,1508.0,1378.0,1500.0,1385.0,1324.0,1562.0,0.0,0.0,0.0,0.0,0.0,0.0,0.0,0.0,0.0,0.0
729383079,8,1446.0,1440.0,1437.0,1448.0,1217.0,1668.0,0.0,0.0,0.0,0.0,0.0,0.0,0.0,0.0,0.0,0.0
729427324,8,1613.0,1270.0,1463.0,1420.0,1412.0,1472.0,0.0,0.0,0.0,0.0,0.0,0.0,0.0,0.0,0.0,0.0
729475459,8,1637.0,1246.0,1412.0,1471.0,1338.0,1545.0,0.0,0.0,0.0,0.0,0.0,0.0,0.0,0.0,0.0,0.0
729519139,8,1576.0,1307.0,1416.0,1467.0,1283.0,1600.0,0.0,0.0,0.0,0.0,0.0,0.0,0.0,0.0,0.0,0.0
729583421,8,1718.0,1166.0,1370.0,1513.0,1350.0,1533.0,0.0,0.0,0.0,0.0,0.0,0.0,0.0,0.0,0.0,0.0
729631128,8,1504.0,1380.0,1513.0,1371.0,1283.0,1600.0,0.0,0.0,0.0,0.0,0.0,0.0,0.0,0.0,0.0,0.0
729695109,8,1437.0,1441.0,1622.0,1255.0,1132.0,1745.0,0.0,0.0,0.0,0.0,0.0,0.0,0.0,0.0,0.0,0.0
729739077,8,1661.0,1214.0,1437.0,1439.0,1353.0,1522.0,0.0,0.0,0.0,0.0,0.0,0.0,0.0,0.0,0.0,0.0
729783106,8,1564.0,1312.0,1598.0,1278.0,1285.0,1591.0,0.0,0.0,0.0,0.0,0.0,0.0,0.0,0.0,0.0,0.0
729851111,8,1606.0,1271.0,1401.0,1475.0,1258.0,1619.0,0.0,0.0,0.0,0.0,0.0,0.0,0.0,0.0,0.0,0.0
729895119,8,1446.0,1430.0,1491.0,1385.0,1206.0,1670.0,0.0,0.0,0.0,0.0,0.0,0.0,0.0,0.0,0.0,0.0
729939161,8,1557.0,1319.0,1489.0,1387.0,1282.0,1594.0,0.0,0.0,0.0,0.0,0.0,0.0,0.0,0.0,0.0,0.0
729987125,8,1392.0,1482.0,1546.0,1328.0,1233.0,1641.0,0.0,0.0,0.0,0.0,0.0,0.0,0.0,0.0,0.0,0.0
730055059,8,1436.0,1412.0,1379.0,1469.0,1183.0,1665.0,0.0,0.0,0.0,0.0,0.0,0.0,0.0,0.0,0.0,0.0
730095060,8,1601.0,1232.0,1324.0,1509.0,1338.0,1495.0,0.0,0.0,0.0,0.0,0.0,0.0,0.0,0.0,0.0,0.0
730159453,8,1485.0,1336.0,1451.0,1370.0,1359.0,1462.0,0.0,0.0,0.0,0.0,0.0,0.0,0.0,0.0,0.0,0.0
730203399,8,1441.0,1359.0,1445.0,1355.0,1341.0,1459.0,0.0,0.0,0.0,0.0,0.0,0.0,0.0,0.0,0.0,0.0
730265089,8,1466.0,1291.0,1347.0,1411.0,1260.0,1497.0,0.0,0.0,0.0,0.0,0.0,0.0,0.0,0.0,0.0,0.0
730312700,8,1376.0,1372.0,1364.0,1384.0,1222.0,1526.0,0.0,0.0,0.0,0.0,0.0,0.0,0.0,0.0,0.0,0.0
730360724,8,1410.0,1330.0,1465.0,1274.0,1255.0,1484.0,0.0,0.0,0.0,0.0,0.0,0.0,0.0,0.0,0.0,0.0
730400712,8,1404.0,1318.0,1309.0,1413.0,1264.0,1458.0,0.0,0.0,0.0,0.0,0.0,0.0,0.0,0.0,0.0,0.0
730464680,8,1393.0,1326.0,1438.0,1281.0,1242.0,1478.0,0.0,0.0,0.0,0.0,0.0,0.0,0.0,0.0,0.0,0.0
730508684,8,1379.0,1341.0,1293.0,1427.0,1191.0,1529.0,0.0,0.0,0.0,0.0,0.0,0.0,0.0,0.0,0.0,0.0
730572678,8,1344.0,1376.0,1493.0,1227.0,1298.0,1421.0,0.0,0.0,0.0,0.0,0.0,0.0,0.0,0.0,0.0,0.0
730620657,8,1406.0,1313.0,1280.0,1440.0,1192.0,1527.0,0.0,0.0,0.0,0.0,0.0,0.0,0.0,0.0,0.0,0.0
730664715,8,1410.0,1309.0,1389.0,1331.0,1185.0,1535.0,0.0,0.0,0.0,0.0,0.0,0.0,0.0,0.0,0.0,0.0
730712722,8,1392.0,1327.0,1240.0,1479.0,1190.0,1529.0,0.0,0.0,0.0,0.0,0.0,0.0,0.0,0.0,0.0,0.0
730780706,8,1441.0,1279.0,1280.0,1439.0,1178.0,1542.0,0.0,0.0,0.0,0.0,0.0,0.0,0.0,0.0,0.0,0.0
730824686,8,1382.0,1337.0,1307.0,1412.0,1249.0,1471.0,0.0,0.0,0.0,0.0,0.0,0.0,0.0,0.0,0.0,0.0
730872976,8,1404.0,1317.0,1283.0,1439.0,1148.0,1573.0,0.0,0.0,0.0,0.0,0.0,0.0,0.0,0.0,0.0,0.0
730936941,8,1371.0,1358.0,1347.0,1382.0,1246.0,1483.0,0.0,0.0,0.0,0.0,0.0,0.0,0.0,0.0,0.0,0.0
730980929,8,1413.0,1317.0,1430.0,1299.0,1165.0,1565.0,0.0,0.0,0.0,0.0,0.0,0.0,0.0,0.0,0.0,0.0
731024685,8,1436.0,1300.0,1288.0,1448.0,1194.0,1543.0,0.0,0.0,0.0,0.0,0.0,0.0,0.0,0.0,0.0,0.0
731096741,8,1450.0,1305.0,1332.0,1423.0,1210.0,1544.0,0.0,0.0,0.0,0.0,0.0,0.0,0.0,0.0,0.0,0.0
731144700,8,1432.0,1355.0,1339.0,1448.0,1238.0,1549.0,0.0,0.0,0.0,0.0,0.0,0.0,0.0,0.0,0.0,0.0
731192680,8,1448.0,1387.0,1301.0,1534.0,1292.0,1543.0,0.0,0.0,0.0,0.0,0.0,0.0,0.0,0.0,0.0,0.0
731240721,8,1470.0,1402.0,1385.0,1486.0,1250.0,1622.0,0.0,0.0,0.0,0.0,0.0,0.0,0.0,0.0,0.0,0.0
731284719,8,1544.0,1337.0,1405.0,1476.0,1395.0,1486.0,0.0,0.0,0.0,0.0,0.0,0.0,0.0,0.0,0.0,0.0
731352721,8,1420.0,1477.0,1466.0,1431.0,1189.0,1709.0,0.0,0.0,0.0,0.0,0.0,0.0,0.0,0.0,0.0,0.0
731396678,8,1480.0,1423.0,1440.0,1463.0,1422.0,1481.0,0.0,0.0,0.0,0.0,0.0,0.0,0.0,0.0,0.0,0.0
731440917,8,1477.0,1433.0,1449.0,1462.0,1398.0,1512.0,0.0,0.0,0.0,0.0,0.0,0.0,0.0,0.0,0.0,0.0
731512754,8,1538.0,1382.0,1412.0,1507.0,1098.0,1822.0,0.0,0.0,0.0,0.0,0.0,0.0,0.0,0.0,0.0,0.0
731556699,8,1472.0,1461.0,1508.0,1426.0,1386.0,1547.0,0.0,0.0,0.0,0.0,0.0,0.0,0.0,0.0,0.0,0.0
731600736,8,1513.0,1431.0,1389.0,1555.0,1252.0,1692.0,0.0,0.0,0.0,0.0,0.0,0.0,0.0,0.0,0.0,0.0
731664698,8,1447.0,1503.0,1436.0,1514.0,1451.0,1499.0,0.0,0.0,0.0,0.0,0.0,0.0,0.0,0.0,0.0,0.0
731708710,8,1387.0,1564.0,1251.0,1700.0,1489.0,1462.0,0.0,0.0,0.0,0.0,0.0,0.0,0.0,0.0,0.0,0.0
731777021,8,1509.0,1442.0,1423.0,1528.0,1373.0,1578.0,0.0,0.0,0.0,0.0,0.0,0.0,0.0,0.0,0.0,0.0
731824654,8,1427.0,1524.0,1450.0,1501.0,1288.0,1663.0,0.0,0.0,0.0,0.0,0.0,0.0,0.0,0.0,0.0,0.0
731868707,8,1449.0,1501.0,1505.0,1446.0,1445.0,1506.0,0.0,0.0,0.0,0.0,0.0,0.0,0.0,0.0,0.0,0.0
731932720,8,1549.0,1402.0,1441.0,1510.0,1241.0,1709.0,0.0,0.0,0.0,0.0,0.0,0.0,0.0,0.0,0.0,0.0
731976728,8,1401.0,1550.0,1504.0,1447.0,1308.0,1643.0,0.0,0.0,0.0,0.0,0.0,0.0,0.0,0.0,0.0,0.0
732040690,8,1539.0,1368.0,1402.0,1551.0,1267.0,1685.0,0.0,0.0,0.0,0.0,0.0,0.0,0.0,0.0,0.0,0.0
732084700,8,1582.0,1375.0,1521.0,1436.0,1406.0,1550.0,0.0,0.0,0.0,0.0,0.0,0.0,0.0,0.0,0.0,0.0
732128730,8,1449.0,1510.0,1569.0,1390.0,1511.0,1448.0,0.0,0.0,0.0,0.0,0.0,0.0,0.0,0.0,0.0,0.0
732196712,8,1421.0,1258.0,1415.0,1552.0,1452.0,1515.0,0.0,0.0,0.0,0.0,0.0,0.0,0.0,0.0,0.0,0.0
732240946,8,1506.0,1464.0,1493.0,1477.0,1598.0,1373.0,0.0,0.0,0.0,0.0,0.0,0.0,0.0,0.0,0.0,0.0
732284686,8,1560.0,1411.0,1520.0,1450.0,1395.0,1575.0,0.0,0.0,0.0,0.0,0.0,0.0,0.0,0.0,0.0,0.0
732332942,8,1382.0,1590.0,1517.0,1454.0,1669.0,1303.0,0.0,0.0,0.0,0.0,0.0,0.0,0.0,0.0,0.0,0.0
732396682,8,1515.0,1460.0,1449.0,1526.0,1483.0,1492.0,0.0,0.0,0.0,0.0,0.0,0.0,0.0,0.0,0.0,0.0
732436724,8,1620.0,1358.0,1399.0,1579.0,1370.0,1608.0,0.0,0.0,0.0,0.0,0.0,0.0,0.0,0.0,0.0,0.0
732500691,8,1390.0,1597.0,1542.0,1445.0,1431.0,1556.0,0.0,0.0,0.0,0.0,0.0,0.0,0.0,0.0,0.0,0.0
732544689,8,1424.0,1564.0,1544.0,1443.0,1569.0,1418.0,0.0,0.0,0.0,0.0,0.0,0.0,0.0,0.0,0.0,0.0
732608693,8,1532.0,1462.0,1428.0,1566.0,1605.0,1389.0,0.0,0.0,0.0,0.0,0.0,0.0,0.0,0.0,0.0,0.0
732656711,8,1458.0,1539.0,1491.0,1506.0,1422.0,1575.0,0.0,0.0,0.0,0.0,0.0,0.0,0.0,0.0,0.0,0.0
732700727,8,1582.0,1419.0,1474.0,1528.0,1282.0,1720.0,0.0,0.0,0.0,0.0,0.0,0.0,0.0,0.0,0.0,0.0
732749068,8,1584.0,1420.0,1589.0,1415.0,1487.0,1517.0,0.0,0.0,0.0,0.0,0.0,0.0,0.0,0.0,0.0,0.0
732816663,8,1470.0,1543.0,1490.0,1522.0,1551.0,1461.0,0.0,0.0,0.0,0.0,0.0,0.0,0.0,0.0,0.0,0.0
732860687,8,1515.0,1501.0,1445.0,1571.0,1569.0,1447.0,0.0,0.0,0.0,0.0,0.0,0.0,0.0,0.0,0.0,0.0
732908656,8,1538.0,1478.0,1537.0,1479.0,1381.0,1635.0,0.0,0.0,0.0,0.0,0.0,0.0,0.0,0.0,0.0,0.0
732976717,8,1465.0,1551.0,1393.0,1623.0,1603.0,1413.0,0.0,0.0,0.0,0.0,0.0,0.0,0.0,0.0,0.0,0.0
733016705,8,1563.0,1453.0,1594.0,1422.0,1285.0,1731.0,0.0,0.0,0.0,0.0,0.0,0.0,0.0,0.0,0.0,0.0
733081134,8,1430.0,1583.0,1381.0,1632.0,1531.0,1481.0,0.0,0.0,0.0,0.0,0.0,0.0,0.0,0.0,0.0,0.0
733124707,8,1495.0,1516.0,1502.0,1509.0,1434.0,1577.0,0.0,0.0,0.0,0.0,0.0,0.0,0.0,0.0,0.0,0.0
733172651,8,1611.0,1400.0,1612.0,1399.0,1373.0,1638.0,0.0,0.0,0.0,0.0,0.0,0.0,0.0,0.0,0.0,0.0
733240655,8,1536.0,1475.0,1482.0,1529.0,1343.0,1668.0,0.0,0.0,0.0,0.0,0.0,0.0,0.0,0.0,0.0,0.0
733280654,8,1525.0,1486.0,1443.0,1567.0,1596.0,1415.0,0.0,0.0,0.0,0.0,0.0,0.0,0.0,0.0,0.0,0.0
733328654,8,1530.0,1477.0,1641.0,1366.0,1323.0,1684.0,0.0,0.0,0.0,0.0,0.0,0.0,0.0,0.0,0.0,0.0
733397120,8,1470.0,1536.0,1466.0,1541.0,1627.0,1379.0,0.0,0.0,0.0,0.0,0.0,0.0,0.0,0.0,0.0,0.0
733440690,8,1454.0,1551.0,1461.0,1544.0,1591.0,1413.0,0.0,0.0,0.0,0.0,0.0,0.0,0.0,0.0,0.0,0.0
733484717,8,1454.0,1540.0,1483.0,1510.0,1561.0,1432.0,0.0,0.0,0.0,0.0,0.0,0.0,0.0,0.0,0.0,0.0
733532727,8,1446.0,1514.0,1555.0,1405.0,1451.0,1510.0,0.0,0.0,0.0,0.0,0.0,0.0,0.0,0.0,0.0,0.0
733604710,8,1358.0,1602.0,1532.0,1427.0,1396.0,1563.0,0.0,0.0,0.0,0.0,0.0,0.0,0.0,0.0,0.0,0.0
733652750,8,1364.0,1597.0,1502.0,1459.0,1467.0,1494.0,0.0,0.0,0.0,0.0,0.0,0.0,0.0,0.0,0.0,0.0
733700717,8,1594.0,1366.0,1447.0,1513.0,1324.0,1636.0,0.0,0.0,0.0,0.0,0.0,0.0,0.0,0.0,0.0,0.0
733744659,8,1544.0,1416.0,1466.0,1495.0,1432.0,1528.0,0.0,0.0,0.0,0.0,0.0,0.0,0.0,0.0,0.0,0.0
733808685,8,1576.0,1384.0,1448.0,1512.0,1343.0,1617.0,0.0,0.0,0.0,0.0,0.0,0.0,0.0,0.0,0.0,0.0
733856734,8,1585.0,1376.0,1391.0,1569.0,1530.0,1431.0,0.0,0.0,0.0,0.0,0.0,0.0,0.0,0.0,0.0,0.0
733900967,8,1613.0,1347.0,1459.0,1501.0,1308.0,1653.0,0.0,0.0,0.0,0.0,0.0,0.0,0.0,0.0,0.0,0.0
733948765,8,1477.0,1483.0,1542.0,1419.0,1575.0,1385.0,0.0,0.0,0.0,0.0,0.0,0.0,0.0,0.0,0.0,0.0
734012738,8,1487.0,1474.0,1432.0,1528.0,1576.0,1384.0,0.0,0.0,0.0,0.0,0.0,0.0,0.0,0.0,0.0,0.0
734056719,8,1541.0,1420.0,1398.0,1562.0,1510.0,1450.0,0.0,0.0,0.0,0.0,0.0,0.0,0.0,0.0,0.0,0.0
734124699,8,1446.0,1515.0,1507.0,1454.0,1441.0,1520.0,0.0,0.0,0.0,0.0,0.0,0.0,0.0,0.0,0.0,0.0
734168662,8,1419.0,1492.0,1623.0,1287.0,1715.0,1196.0,0.0,0.0,0.0,0.0,0.0,0.0,0.0,0.0,0.0,0.0
734212682,8,1511.0,1407.0,1556.0,1362.0,1645.0,1273.0,0.0,0.0,0.0,0.0,0.0,0.0,0.0,0.0,0.0,0.0
734276715,8,1442.0,1489.0,1481.0,1449.0,1474.0,1456.0,0.0,0.0,0.0,0.0,0.0,0.0,0.0,0.0,0.0,0.0
734320668,8,1506.0,1432.0,1342.0,1596.0,1360.0,1577.0,0.0,0.0,0.0,0.0,0.0,0.0,0.0,0.0,0.0,0.0
734380696,8,1530.0,1425.0,1530.0,1425.0,1163.0,1792.0,0.0,0.0,0.0,0.0,0.0,0.0,0.0,0.0,0.0,0.0
734424749,8,1604.0,1361.0,1489.0,1476.0,1310.0,1655.0,0.0,0.0,0.0,0.0,0.0,0.0,0.0,0.0,0.0,0.0
734492674,8,1486.0,1471.0,1494.0,1463.0,1560.0,1397.0,0.0,0.0,0.0,0.0,0.0,0.0,0.0,0.0,0.0,0.0
734536655,8,1535.0,1451.0,1417.0,1569.0,1608.0,1378.0,0.0,0.0,0.0,0.0,0.0,0.0,0.0,0.0,0.0,0.0
734576664,8,1566.0,1421.0,1490.0,1496.0,1571.0,1622.0,0.0,0.0,0.0,0.0,0.0,0.0,0.0,0.0,0.0,0.0
734646301,8,1597.0,1412.0,1482.0,1526.0,1282.0,1726.0,0.0,0.0,0.0,0.0,0.0,0.0,0.0,0.0,0.0,0.0
734686627,8,1495.0,1517.0,1546.0,1466.0,1691.0,1321.0,0.0,0.0,0.0,0.0,0.0,0.0,0.0,0.0,0.0,0.0
734750322,8,1474.0,1417.0,1233.0,1658.0,1000.0,1891.0,0.0,0.0,0.0,0.0,0.0,0.0,0.0,0.0,0.0,0.0
734794335,8,1444.0,1385.0,1223.0,1606.0,1317.0,1511.0,0.0,0.0,0.0,0.0,0.0,0.0,0.0,0.0,0.0,0.0
734838562,8,1407.0,1424.0,1266.0,1565.0,1257.0,1573.0,0.0,0.0,0.0,0.0,0.0,0.0,0.0,0.0,0.0,0.0
734906595,8,1448.0,1393.0,1331.0,1509.0,1155.0,1686.0,0.0,0.0,0.0,0.0,0.0,0.0,0.0,0.0,0.0,0.0
734946644,8,1495.0,1369.0,1370.0,1494.0,1129.0,1735.0,0.0,0.0,0.0,0.0,0.0,0.0,0.0,0.0,0.0,0.0
734994561,8,1497.0,1389.0,1546.0,1340.0,1600.0,1287.0,0.0,0.0,0.0,0.0,0.0,0.0,0.0,0.0,0.0,0.0
735066591,8,1707.0,1231.0,1411.0,1526.0,1449.0,1488.0,0.0,0.0,0.0,0.0,0.0,0.0,0.0,0.0,0.0,0.0
735114642,8,1491.0,1456.0,1554.0,1393.0,1502.0,1446.0,0.0,0.0,0.0,0.0,0.0,0.0,0.0,0.0,0.0,0.0
735162616,8,1371.0,1608.0,1425.0,1553.0,1164.0,1815.0,0.0,0.0,0.0,0.0,0.0,0.0,0.0,0.0,0.0,0.0
735206354,8,1400.0,1587.0,1452.0,1535.0,1518.0,1468.0,0.0,0.0,0.0,0.0,0.0,0.0,0.0,0.0,0.0,0.0
735250313,8,1407.0,1309.0,1440.0,1565.0,1244.0,1761.0,0.0,0.0,0.0,0.0,0.0,0.0,0.0,0.0,0.0,0.0
735318525,8,1439.0,1547.0,1567.0,1419.0,1285.0,1701.0,0.0,0.0,0.0,0.0,0.0,0.0,0.0,0.0,0.0,0.0
735378574,8,1596.0,1393.0,1454.0,1535.0,1442.0,1546.0,0.0,0.0,0.0,0.0,0.0,0.0,0.0,0.0,0.0,0.0
735426325,8,1532.0,1469.0,1452.0,1549.0,1633.0,1368.0,0.0,0.0,0.0,0.0,0.0,0.0,0.0,0.0,0.0,0.0
735470337,8,1673.0,1338.0,1416.0,1594.0,1653.0,1357.0,0.0,0.0,0.0,0.0,0.0,0.0,0.0,0.0,0.0,0.0
735514642,8,1542.0,1466.0,1441.0,1568.0,1687.0,1321.0,0.0,0.0,0.0,0.0,0.0,0.0,0.0,0.0,0.0,0.0
735586290,8,1630.0,1390.0,1535.0,1484.0,1333.0,1687.0,0.0,0.0,0.0,0.0,0.0,0.0,0.0,0.0,0.0,0.0
735630315,8,1601.0,1435.0,1472.0,1563.0,1591.0,1445.0,0.0,0.0,0.0,0.0,0.0,0.0,0.0,0.0,0.0,0.0
735674520,8,1597.0,1432.0,1534.0,1494.0,1338.0,1691.0,0.0,0.0,0.0,0.0,0.0,0.0,0.0,0.0,0.0,0.0
735746639,8,1620.0,1417.0,1384.0,1653.0,1391.0,1646.0,0.0,0.0,0.0,0.0,0.0,0.0,0.0,0.0,0.0,0.0
735794625,8,1580.0,1437.0,1572.0,1445.0,1470.0,1548.0,0.0,0.0,0.0,0.0,0.0,0.0,0.0,0.0,0.0,0.0
735842621,8,1567.0,1461.0,1438.0,1589.0,1493.0,1534.0,0.0,0.0,0.0,0.0,0.0,0.0,0.0,0.0,0.0,0.0
735886339,8,1662.0,1392.0,1439.0,1614.0,1388.0,1666.0,0.0,0.0,0.0,0.0,0.0,0.0,0.0,0.0,0.0,0.0
735930563,8,1591.0,1450.0,1527.0,1514.0,1357.0,1684.0,0.0,0.0,0.0,0.0,0.0,0.0,0.0,0.0,0.0,0.0
736002603,8,1681.0,1478.0,1590.0,1453.0,1420.0,1623.0,0.0,0.0,0.0,0.0,0.0,0.0,0.0,0.0,0.0,0.0
736050534,8,1630.0,1391.0,1513.0,1508.0,1396.0,1625.0,0.0,0.0,0.0,0.0,0.0,0.0,0.0,0.0,0.0,0.0
736098528,8,1568.0,1536.0,1523.0,1504.0,1708.0,1318.0,0.0,0.0,0.0,0.0,0.0,0.0,0.0,0.0,0.0,0.0
736146692,8,1562.0,1459.0,1625.0,1396.0,1404.0,1617.0,0.0,0.0,0.0,0.0,0.0,0.0,0.0,0.0,0.0,0.0
736194279,8,1559.0,1465.0,1464.0,1559.0,1564.0,1460.0,0.0,0.0,0.0,0.0,0.0,0.0,0.0,0.0,0.0,0.0
736258558,8,1492.0,1525.0,1624.0,1393.0,1418.0,1599.0,0.0,0.0,0.0,0.0,0.0,0.0,0.0,0.0,0.0,0.0
736302302,8,1541.0,1502.0,1610.0,1433.0,1240.0,1803.0,0.0,0.0,0.0,0.0,0.0,0.0,0.0,0.0,0.0,0.0
736362281,8,1626.0,1388.0,1555.0,1460.0,1400.0,1614.0,0.0,0.0,0.0,0.0,0.0,0.0,0.0,0.0,0.0,0.0
736410325,8,1465.0,1543.0,1527.0,1481.0,1695.0,1313.0,0.0,0.0,0.0,0.0,0.0,0.0,0.0,0.0,0.0,0.0
736474347,8,1495.0,1522.0,1514.0,1502.0,1326.0,1690.0,0.0,0.0,0.0,0.0,0.0,0.0,0.0,0.0,0.0,0.0
736522647,8,1541.0,1492.0,1496.0,1537.0,1458.0,1697.0,0.0,0.0,0.0,0.0,0.0,0.0,0.0,0.0,0.0,0.0
736570654,8,1647.0,1381.0,1492.0,1536.0,1518.0,1510.0,0.0,0.0,0.0,0.0,0.0,0.0,0.0,0.0,0.0,0.0
736618592,8,1511.0,1510.0,1637.0,1384.0,1652.0,1368.0,0.0,0.0,0.0,0.0,0.0,0.0,0.0,0.0,0.0,0.0
736666595,8,1565.0,1473.0,1435.0,1604.0,1420.0,1618.0,0.0,0.0,0.0,0.0,0.0,0.0,0.0,0.0,0.0,0.0
736714315,8,1571.0,1469.0,1531.0,1509.0,1331.0,1709.0,0.0,0.0,0.0,0.0,0.0,0.0,0.0,0.0,0.0,0.0
736786310,8,1527.0,1508.0,1761.0,1274.0,1331.0,1704.0,0.0,0.0,0.0,0.0,0.0,0.0,0.0,0.0,0.0,0.0
736830557,8,1623.0,1410.0,1500.0,1533.0,1343.0,1691.0,0.0,0.0,0.0,0.0,0.0,0.0,0.0,0.0,0.0,0.0
736874267,8,1589.0,1433.0,1534.0,1487.0,1355.0,1666.0,0.0,0.0,0.0,0.0,0.0,0.0,0.0,0.0,0.0,0.0
736922768,8,1624.0,1399.0,1534.0,1490.0,1588.0,1435.0,0.0,0.0,0.0,0.0,0.0,0.0,0.0,0.0,0.0,0.0
736990279,8,1525.0,1513.0,1457.0,1579.0,1579.0,1456.0,0.0,0.0,0.0,0.0,0.0,0.0,0.0,0.0,0.0,0.0
737038334,8,1447.0,1569.0,1544.0,1471.0,1285.0,1730.0,0.0,0.0,0.0,0.0,0.0,0.0,0.0,0.0,0.0,0.0
737086276,8,1571.0,1443.0,1639.0,1375.0,1398.0,1616.0,0.0,0.0,0.0,0.0,0.0,0.0,0.0,0.0,0.0,0.0
737134302,8,1521.0,1485.0,1628.0,1378.0,1637.0,1369.0,0.0,0.0,0.0,0.0,0.0,0.0,0.0,0.0,0.0,0.0
737198296,8,1502.0,1510.0,1511.0,1501.0,1454.0,1558.0,0.0,0.0,0.0,0.0,0.0,0.0,0.0,0.0,0.0,0.0
737242288,8,1565.0,1466.0,1462.0,1569.0,1404.0,1627.0,0.0,0.0,0.0,0.0,0.0,0.0,0.0,0.0,0.0,0.0
737286314,8,1606.0,1420.0,1495.0,1531.0,1562.0,1464.0,0.0,0.0,0.0,0.0,0.0,0.0,0.0,0.0,0.0,0.0
737354675,8,1531.0,1494.0,1528.0,1498.0,1636.0,1745.0,0.0,0.0,0.0,0.0,0.0,0.0,0.0,0.0,0.0,0.0
737394585,8,1545.0,1484.0,1553.0,1476.0,1402.0,1628.0,0.0,0.0,0.0,0.0,0.0,0.0,0.0,0.0,0.0,0.0
737442636,8,1646.0,1408.0,1454.0,1599.0,1373.0,1669.0,0.0,0.0,0.0,0.0,0.0,0.0,0.0,0.0,0.0,0.0
737514256,8,1508.0,1531.0,1554.0,1484.0,1468.0,1571.0,0.0,0.0,0.0,0.0,0.0,0.0,0.0,0.0,0.0,0.0
737562606,8,1693.0,1344.0,1388.0,1650.0,1559.0,1479.0,0.0,0.0,0.0,0.0,0.0,0.0,0.0,0.0,0.0,0.0
737610660,8,1513.0,1532.0,1480.0,1565.0,1589.0,1456.0,0.0,0.0,0.0,0.0,0.0,0.0,0.0,0.0,0.0,0.0
737658592,8,1643.0,1393.0,1458.0,1578.0,1498.0,1538.0,0.0,0.0,0.0,0.0,0.0,0.0,0.0,0.0,0.0,0.0
737706564,8,1593.0,1432.0,1473.0,1552.0,1333.0,1691.0,0.0,0.0,0.0,0.0,0.0,0.0,0.0,0.0,0.0,0.0
737754546,8,1638.0,1372.0,1661.0,1348.0,1531.0,1479.0,0.0,0.0,0.0,0.0,0.0,0.0,0.0,0.0,0.0,0.0
737826572,8,1599.0,1432.0,1523.0,1508.0,1341.0,1690.0,0.0,0.0,0.0,0.0,0.0,0.0,0.0,0.0,0.0,0.0
737870260,8,1494.0,1529.0,1529.0,1494.0,1459.0,1564.0,0.0,0.0,0.0,0.0,0.0,0.0,0.0,0.0,0.0,0.0
737934246,8,1663.0,1338.0,1540.0,1461.0,1573.0,1428.0,0.0,0.0,0.0,0.0,0.0,0.0,0.0,0.0,0.0,0.0
737974307,8,1563.0,1455.0,1529.0,1489.0,1429.0,1589.0,0.0,0.0,0.0,0.0,0.0,0.0,0.0,0.0,0.0,0.0
738018629,8,1486.0,1552.0,1528.0,1509.0,1325.0,1712.0,0.0,0.0,0.0,0.0,0.0,0.0,0.0,0.0,0.0,0.0
738090547,8,1560.0,1468.0,1527.0,1501.0,1407.0,1621.0,0.0,0.0,0.0,0.0,0.0,0.0,0.0,0.0,0.0,0.0
738138286,8,1562.0,1480.0,1566.0,1476.0,1266.0,1776.0,0.0,0.0,0.0,0.0,0.0,0.0,0.0,0.0,0.0,0.0
738178253,8,1509.0,1534.0,1629.0,1414.0,1370.0,1673.0,0.0,0.0,0.0,0.0,0.0,0.0,0.0,0.0,0.0,0.0
738226261,8,1669.0,1390.0,1523.0,1536.0,1348.0,1710.0,0.0,0.0,0.0,0.0,0.0,0.0,0.0,0.0,0.0,0.0
738290599,8,1664.0,1374.0,1568.0,1470.0,1493.0,1545.0,0.0,0.0,0.0,0.0,0.0,0.0,0.0,0.0,0.0,0.0
738330322,8,1588.0,1465.0,1482.0,1570.0,1417.0,1635.0,0.0,0.0,0.0,0.0,0.0,0.0,0.0,0.0,0.0,0.0
738398629,8,1502.0,1539.0,1502.0,1540.0,1420.0,1622.0,0.0,0.0,0.0,0.0,0.0,0.0,0.0,0.0,0.0,0.0
738442611,8,1611.0,1421.0,1497.0,1535.0,1801.0,1232.0,0.0,0.0,0.0,0.0,0.0,0.0,0.0,0.0,0.0,0.0
738490603,8,1646.0,1394.0,1550.0,1490.0,1470.0,1570.0,0.0,0.0,0.0,0.0,0.0,0.0,0.0,0.0,0.0,0.0
738538572,8,1536.0,1488.0,1522.0,1502.0,1677.0,1347.0,0.0,0.0,0.0,0.0,0.0,0.0,0.0,0.0,0.0,0.0
738610260,8,1443.0,1599.0,1549.0,1494.0,1423.0,1618.0,0.0,0.0,0.0,0.0,0.0,0.0,0.0,0.0,0.0,0.0
738650983,8,1627.0,1419.0,1459.0,1587.0,1406.0,1640.0,0.0,0.0,0.0,0.0,0.0,0.0,0.0,0.0,0.0,0.0
738698284,8,1564.0,1475.0,1500.0,1539.0,1583.0,1455.0,0.0,0.0,0.0,0.0,0.0,0.0,0.0,0.0,0.0,0.0
738762584,8,1488.0,1572.0,1444.0,1615.0,1467.0,1592.0,0.0,0.0,0.0,0.0,0.0,0.0,0.0,0.0,0.0,0.0
738810592,8,1634.0,1402.0,1658.0,1378.0,1321.0,1714.0,0.0,0.0,0.0,0.0,0.0,0.0,0.0,0.0,0.0,0.0
738858279,8,1586.0,1432.0,1488.0,1531.0,1714.0,1305.0,0.0,0.0,0.0,0.0,0.0,0.0,0.0,0.0,0.0,0.0
738903072,8,1604.0,1424.0,1491.0,1537.0,1557.0,1471.0,0.0,0.0,0.0,0.0,0.0,0.0,0.0,0.0,0.0,0.0
738967891,8,1488.0,1543.0,1543.0,1489.0,1582.0,1450.0,0.0,0.0,0.0,0.0,0.0,0.0,0.0,0.0,0.0,0.0
739011877,8,1619.0,1416.0,1449.0,1586.0,1428.0,1606.0,0.0,0.0,0.0,0.0,0.0,0.0,0.0,0.0,0.0,0.0
739059922,8,1549.0,1470.0,1633.0,1385.0,1537.0,1481.0,0.0,0.0,0.0,0.0,0.0,0.0,0.0,0.0,0.0,0.0
739107884,8,1471.0,1564.0,1513.0,1522.0,1686.0,1349.0,0.0,0.0,0.0,0.0,0.0,0.0,0.0,0.0,0.0,0.0
739180128,8,1686.0,1356.0,1379.0,1663.0,1589.0,1452.0,0.0,0.0,0.0,0.0,0.0,0.0,0.0,0.0,0.0,0.0
739228152,8,1631.0,1400.0,1512.0,1518.0,1495.0,1536.0,0.0,0.0,0.0,0.0,0.0,0.0,0.0,0.0,0.0,0.0
739272157,8,1524.0,1521.0,1481.0,1563.0,1559.0,1486.0,0.0,0.0,0.0,0.0,0.0,0.0,0.0,0.0,0.0,0.0
739315921,8,1455.0,1570.0,1615.0,1410.0,1647.0,1378.0,0.0,0.0,0.0,0.0,0.0,0.0,0.0,0.0,0.0,0.0
739387974,8,1581.0,1452.0,1371.0,1663.0,1722.0,1311.0,0.0,0.0,0.0,0.0,0.0,0.0,0.0,0.0,0.0,0.0
739436092,8,1453.0,1583.0,1575.0,1462.0,1561.0,1476.0,0.0,0.0,0.0,0.0,0.0,0.0,0.0,0.0,0.0,0.0
739483928,8,1482.0,1537.0,1545.0,1475.0,1313.0,1706.0,0.0,0.0,0.0,0.0,0.0,0.0,0.0,0.0,0.0,0.0
739531946,8,1626.0,1578.0,1577.0,1436.0,1311.0,1702.0,0.0,0.0,0.0,0.0,0.0,0.0,0.0,0.0,0.0,0.0
739599908,8,1531.0,1488.0,1518.0,1501.0,1449.0,1569.0,0.0,0.0,0.0,0.0,0.0,0.0,0.0,0.0,0.0,0.0
739648177,8,1533.0,1474.0,1569.0,1437.0,1638.0,1368.0,0.0,0.0,0.0,0.0,0.0,0.0,0.0,0.0,0.0,0.0
739688225,8,1605.0,1416.0,1472.0,1548.0,1704.0,1317.0,0.0,0.0,0.0,0.0,0.0,0.0,0.0,0.0,0.0,0.0
739731880,8,1517.0,1510.0,1536.0,1490.0,1317.0,1709.0,0.0,0.0,0.0,0.0,0.0,0.0,0.0,0.0,0.0,0.0
739804248,8,1446.0,1571.0,1636.0,1381.0,1254.0,1763.0,0.0,0.0,0.0,0.0,0.0,0.0,0.0,0.0,0.0,0.0
739851898,8,1572.0,1451.0,1519.0,1503.0,1371.0,1651.0,0.0,0.0,0.0,0.0,0.0,0.0,0.0,0.0,0.0,0.0
739895911,8,1534.0,1508.0,1507.0,1535.0,1232.0,1809.0,0.0,0.0,0.0,0.0,0.0,0.0,0.0,0.0,0.0,0.0
739944242,8,1725.0,1311.0,1596.0,1440.0,1537.0,1498.0,0.0,0.0,0.0,0.0,0.0,0.0,0.0,0.0,0.0,0.0
740012195,8,1382.0,1690.0,1603.0,1469.0,1289.0,1783.0,0.0,0.0,0.0,0.0,0.0,0.0,0.0,0.0,0.0,0.0
740060138,8,1609.0,1469.0,1582.0,1495.0,1348.0,1730.0,0.0,0.0,0.0,0.0,0.0,0.0,0.0,0.0,0.0,0.0
740107886,8,1641.0,1433.0,1558.0,1516.0,1640.0,1434.0,0.0,0.0,0.0,0.0,0.0,0.0,0.0,0.0,0.0,0.0
740151892,8,1648.0,1482.0,1541.0,1547.0,1337.0,1751.0,0.0,0.0,0.0,0.0,0.0,0.0,0.0,0.0,0.0,0.0
740215893,8,1515.0,1562.0,1590.0,1488.0,1561.0,1516.0,0.0,0.0,0.0,0.0,0.0,0.0,0.0,0.0,0.0,0.0
740259884,8,1651.0,1450.0,1548.0,1553.0,1737.0,1364.0,0.0,0.0,0.0,0.0,0.0,0.0,0.0,0.0,0.0,0.0
740327934,8,1572.0,1495.0,1505.0,1563.0,1818.0,1249.0,0.0,0.0,0.0,0.0,0.0,0.0,0.0,0.0,0.0,0.0
740376272,8,1562.0,1514.0,1536.0,1540.0,1469.0,1607.0,0.0,0.0,0.0,0.0,0.0,0.0,0.0,0.0,0.0,0.0
740423905,8,1537.0,1506.0,1588.0,1455.0,1783.0,1260.0,0.0,0.0,0.0,0.0,0.0,0.0,0.0,0.0,0.0,0.0
740471881,8,1461.0,1608.0,1645.0,1424.0,1672.0,1397.0,0.0,0.0,0.0,0.0,0.0,0.0,0.0,0.0,0.0,0.0
740511919,8,1495.0,1546.0,1595.0,1446.0,1731.0,1311.0,0.0,0.0,0.0,0.0,0.0,0.0,0.0,0.0,0.0,0.0
740579905,8,1570.0,1470.0,1637.0,1403.0,1561.0,1479.0,0.0,0.0,0.0,0.0,0.0,0.0,0.0,0.0,0.0,0.0
740620176,8,1530.0,1537.0,1528.0,1539.0,1545.0,1522.0,0.0,0.0,0.0,0.0,0.0,0.0,0.0,0.0,0.0,0.0
740692185,8,1654.0,1392.0,1570.0,1477.0,1611.0,1435.0,0.0,0.0,0.0,0.0,0.0,0.0,0.0,0.0,0.0,0.0
740736300,8,1582.0,1491.0,1599.0,1474.0,1518.0,1555.0,0.0,0.0,0.0,0.0,0.0,0.0,0.0,0.0,0.0,0.0
740779961,8,1439.0,1630.0,1549.0,1519.0,1355.0,1713.0,0.0,0.0,0.0,0.0,0.0,0.0,0.0,0.0,0.0,0.0
740844228,8,1588.0,1468.0,1634.0,1421.0,1531.0,1524.0,0.0,0.0,0.0,0.0,0.0,0.0,0.0,0.0,0.0,0.0
740883887,8,1413.0,1641.0,1728.0,1325.0,1442.0,1612.0,0.0,0.0,0.0,0.0,0.0,0.0,0.0,0.0,0.0,0.0
740948220,8,1453.0,1585.0,1723.0,1315.0,1360.0,1678.0,0.0,0.0,0.0,0.0,0.0,0.0,0.0,0.0,0.0,0.0
740991875,8,1455.0,1587.0,1638.0,1403.0,1565.0,1477.0,0.0,0.0,0.0,0.0,0.0,0.0,0.0,0.0,0.0,0.0
741056188,8,1640.0,1389.0,1528.0,1501.0,1513.0,1516.0,0.0,0.0,0.0,0.0,0.0,0.0,0.0,0.0,0.0,0.0
741103877,8,1644.0,1396.0,1391.0,1649.0,1563.0,1478.0,0.0,0.0,0.0,0.0,0.0,0.0,0.0,0.0,0.0,0.0
741151875,8,1597.0,1428.0,1508.0,1517.0,1471.0,1554.0,0.0,0.0,0.0,0.0,0.0,0.0,0.0,0.0,0.0,0.0
741195918,8,1492.0,1532.0,1488.0,1537.0,1458.0,1566.0,0.0,0.0,0.0,0.0,0.0,0.0,0.0,0.0,0.0,0.0
741264208,8,1522.0,1479.0,1407.0,1595.0,1838.0,1613.0,0.0,0.0,0.0,0.0,0.0,0.0,0.0,0.0,0.0,0.0
741307912,8,1461.0,1544.0,1656.0,1349.0,1915.0,1091.0,0.0,0.0,0.0,0.0,0.0,0.0,0.0,0.0,0.0,0.0
741352148,8,1670.0,1339.0,1488.0,1521.0,1732.0,1276.0,0.0,0.0,0.0,0.0,0.0,0.0,0.0,0.0,0.0,0.0
741420270,8,1661.0,1336.0,1535.0,1461.0,1367.0,1630.0,0.0,0.0,0.0,0.0,0.0,0.0,0.0,0.0,0.0,0.0
741468141,8,1530.0,1477.0,1517.0,1491.0,1490.0,1518.0,0.0,0.0,0.0,0.0,0.0,0.0,0.0,0.0,0.0,0.0
741511889,8,1396.0,1584.0,1678.0,1302.0,1748.0,1232.0,0.0,0.0,0.0,0.0,0.0,0.0,0.0,0.0,0.0,0.0
741575929,8,1503.0,1484.0,1646.0,1341.0,1800.0,1186.0,0.0,0.0,0.0,0.0,0.0,0.0,0.0,0.0,0.0,0.0
741623930,8,1413.0,1565.0,1587.0,1390.0,1530.0,1448.0,0.0,0.0,0.0,0.0,0.0,0.0,0.0,0.0,0.0,0.0
741668202,8,1472.0,1515.0,1384.0,1603.0,1639.0,1348.0,0.0,0.0,0.0,0.0,0.0,0.0,0.0,0.0,0.0,0.0
741731923,8,1647.0,1364.0,1497.0,1514.0,1514.0,1498.0,0.0,0.0,0.0,0.0,0.0,0.0,0.0,0.0,0.0,0.0
741776146,8,1521.0,1520.0,1499.0,1542.0,1344.0,1697.0,0.0,0.0,0.0,0.0,0.0,0.0,0.0,0.0,0.0,0.0
741823889,8,1547.0,1491.0,1605.0,1433.0,1585.0,1453.0,0.0,0.0,0.0,0.0,0.0,0.0,0.0,0.0,0.0,0.0
741888220,8,1659.0,1402.0,1503.0,1558.0,1323.0,1738.0,0.0,0.0,0.0,0.0,0.0,0.0,0.0,0.0,0.0,0.0
741935905,8,1651.0,1399.0,1437.0,1614.0,1616.0,1434.0,0.0,0.0,0.0,0.0,0.0,0.0,0.0,0.0,0.0,0.0
741983928,8,1609.0,1437.0,1512.0,1534.0,1708.0,1337.0,0.0,0.0,0.0,0.0,0.0,0.0,0.0,0.0,0.0,0.0
742023905,8,1643.0,1401.0,1582.0,1462.0,1464.0,1580.0,0.0,0.0,0.0,0.0,0.0,0.0,0.0,0.0,0.0,0.0
742092155,8,1603.0,1438.0,1580.0,1460.0,1449.0,1591.0,0.0,0.0,0.0,0.0,0.0,0.0,0.0,0.0,0.0,0.0
742140201,8,1495.0,1537.0,1566.0,1467.0,1655.0,1377.0,0.0,0.0,0.0,0.0,0.0,0.0,0.0,0.0,0.0,0.0
742188172,8,1544.0,1509.0,1502.0,1550.0,1490.0,1563.0,0.0,0.0,0.0,0.0,0.0,0.0,0.0,0.0,0.0,0.0
742251877,8,1677.0,1342.0,1742.0,1277.0,1497.0,1521.0,0.0,0.0,0.0,0.0,0.0,0.0,0.0,0.0,0.0,0.0
742295864,8,1623.0,1404.0,1572.0,1455.0,1464.0,1577.0,0.0,0.0,0.0,0.0,0.0,0.0,0.0,0.0,0.0,0.0
742344138,8,1646.0,1363.0,1524.0,1485.0,1632.0,1376.0,0.0,0.0,0.0,0.0,0.0,0.0,0.0,0.0,0.0,0.0
742408157,8,1434.0,1576.0,1422.0,1589.0,1580.0,1431.0,0.0,0.0,0.0,0.0,0.0,0.0,0.0,0.0,0.0,0.0
742451904,8,1631.0,1395.0,1509.0,1516.0,1341.0,1684.0,0.0,0.0,0.0,0.0,0.0,0.0,0.0,0.0,0.0,0.0
742500304,8,1470.0,1567.0,1456.0,1581.0,1240.0,1797.0,0.0,0.0,0.0,0.0,0.0,0.0,0.0,0.0,0.0,0.0
742563876,8,1553.0,1471.0,1541.0,1482.0,1760.0,1264.0,0.0,0.0,0.0,0.0,0.0,0.0,0.0,0.0,0.0,0.0
742603894,8,1566.0,1452.0,1566.0,1452.0,1660.0,1358.0,0.0,0.0,0.0,0.0,0.0,0.0,0.0,0.0,0.0,0.0
742667930,8,1426.0,1593.0,1672.0,1347.0,1598.0,1420.0,0.0,0.0,0.0,0.0,0.0,0.0,0.0,0.0,0.0,0.0
742711914,8,1563.0,1467.0,1674.0,1355.0,1222.0,1807.0,0.0,0.0,0.0,0.0,0.0,0.0,0.0,0.0,0.0,0.0
742779884,8,1409.0,1615.0,1563.0,1460.0,1612.0,1411.0,0.0,0.0,0.0,0.0,0.0,0.0,0.0,0.0,0.0,0.0
742819910,8,1657.0,1373.0,1420.0,1610.0,1497.0,1533.0,0.0,0.0,0.0,0.0,0.0,0.0,0.0,0.0,0.0,0.0
742868142,8,1455.0,1565.0,1574.0,1446.0,1641.0,1379.0,0.0,0.0,0.0,0.0,0.0,0.0,0.0,0.0,0.0,0.0
742915872,8,1550.0,1501.0,1437.0,1614.0,1389.0,1662.0,0.0,0.0,0.0,0.0,0.0,0.0,0.0,0.0,0.0,0.0
742983859,8,1589.0,1445.0,1562.0,1472.0,1498.0,1536.0,0.0,0.0,0.0,0.0,0.0,0.0,0.0,0.0,0.0,0.0
743023931,8,1611.0,1426.0,1598.0,1439.0,1368.0,1669.0,0.0,0.0,0.0,0.0,0.0,0.0,0.0,0.0,0.0,0.0
743071858,8,1486.0,1560.0,1580.0,1467.0,1453.0,1593.0,0.0,0.0,0.0,0.0,0.0,0.0,0.0,0.0,0.0,0.0
743139872,8,1482.0,1566.0,1724.0,1324.0,1762.0,1286.0,0.0,0.0,0.0,0.0,0.0,0.0,0.0,0.0,0.0,0.0
743184223,8,1452.0,1580.0,1725.0,1307.0,1790.0,1242.0,0.0,0.0,0.0,0.0,0.0,0.0,0.0,0.0,0.0,0.0
743228169,8,1543.0,1494.0,1532.0,1505.0,1848.0,1190.0,0.0,0.0,0.0,0.0,0.0,0.0,0.0,0.0,0.0,0.0
743297498,8,1396.0,1627.0,1484.0,1539.0,1453.0,1571.0,0.0,0.0,0.0,0.0,0.0,0.0,0.0,0.0,0.0,0.0
743341486,8,1538.0,1494.0,1508.0,1524.0,1249.0,1784.0,0.0,0.0,0.0,0.0,0.0,0.0,0.0,0.0,0.0,0.0
743385706,8,1565.0,1464.0,1509.0,1520.0,1377.0,1653.0,0.0,0.0,0.0,0.0,0.0,0.0,0.0,0.0,0.0,0.0
743449752,8,1563.0,1468.0,1534.0,1497.0,1336.0,1695.0,0.0,0.0,0.0,0.0,0.0,0.0,0.0,0.0,0.0,0.0
743497787,8,1633.0,1392.0,1665.0,1359.0,1321.0,1704.0,0.0,0.0,0.0,0.0,0.0,0.0,0.0,0.0,0.0,0.0
743545809,8,1590.0,1438.0,1514.0,1514.0,1508.0,1520.0,0.0,0.0,0.0,0.0,0.0,0.0,0.0,0.0,0.0,0.0
743593820,8,1543.0,1475.0,1663.0,1355.0,1461.0,1557.0,0.0,0.0,0.0,0.0,0.0,0.0,0.0,0.0,0.0,0.0
743641721,8,1415.0,1607.0,1502.0,1520.0,1714.0,1308.0,0.0,0.0,0.0,0.0,0.0,0.0,0.0,0.0,0.0,0.0
743713871,8,1664.0,1361.0,1432.0,1592.0,1553.0,1472.0,0.0,0.0,0.0,0.0,0.0,0.0,0.0,0.0,0.0,0.0
743761484,8,1447.0,1575.0,1567.0,1454.0,1599.0,1423.0,0.0,0.0,0.0,0.0,0.0,0.0,0.0,0.0,0.0,0.0
743809743,8,1491.0,1544.0,1530.0,1505.0,1307.0,1728.0,0.0,0.0,0.0,0.0,0.0,0.0,0.0,0.0,0.0,0.0
743857506,8,1690.0,1358.0,1513.0,1535.0,1421.0,1626.0,0.0,0.0,0.0,0.0,0.0,0.0,0.0,0.0,0.0,0.0
743917514,8,1579.0,1471.0,1557.0,1493.0,1277.0,1774.0,0.0,0.0,0.0,0.0,0.0,0.0,0.0,0.0,0.0,0.0
743961748,8,1615.0,1443.0,1624.0,1434.0,1380.0,1678.0,0.0,0.0,0.0,0.0,0.0,0.0,0.0,0.0,0.0,0.0
744025565,8,1473.0,1586.0,1490.0,1570.0,1510.0,1550.0,0.0,0.0,0.0,0.0,0.0,0.0,0.0,0.0,0.0,0.0
744073721,8,1587.0,1453.0,1651.0,1390.0,1379.0,1661.0,0.0,0.0,0.0,0.0,0.0,0.0,0.0,0.0,0.0,0.0
744121717,8,1513.0,1515.0,1481.0,1547.0,1749.0,1279.0,0.0,0.0,0.0,0.0,0.0,0.0,0.0,0.0,0.0,0.0
744169819,8,1492.0,1555.0,1408.0,1639.0,1726.0,1320.0,0.0,0.0,0.0,0.0,0.0,0.0,0.0,0.0,0.0,0.0
744217828,8,1578.0,1461.0,1531.0,1508.0,1395.0,1644.0,0.0,0.0,0.0,0.0,0.0,0.0,0.0,0.0,0.0,0.0
744289717,8,1610.0,1405.0,1523.0,1493.0,1384.0,1632.0,0.0,0.0,0.0,0.0,0.0,0.0,0.0,0.0,0.0,0.0
744337779,8,1484.0,1529.0,1552.0,1461.0,1276.0,1737.0,0.0,0.0,0.0,0.0,0.0,0.0,0.0,0.0,0.0,0.0
744385506,8,1494.0,1519.0,1432.0,1581.0,1651.0,1362.0,0.0,0.0,0.0,0.0,0.0,0.0,0.0,0.0,0.0,0.0
744425485,8,1657.0,1353.0,1449.0,1561.0,1477.0,1533.0,0.0,0.0,0.0,0.0,0.0,0.0,0.0,0.0,0.0,0.0
744493730,8,1454.0,1558.0,1533.0,1479.0,1565.0,1448.0,0.0,0.0,0.0,0.0,0.0,0.0,0.0,0.0,0.0,0.0
744537483,8,1425.0,1589.0,1567.0,1446.0,1482.0,1532.0,0.0,0.0,0.0,0.0,0.0,0.0,0.0,0.0,0.0,0.0
744585872,8,1579.0,1440.0,1505.0,1514.0,1333.0,1686.0,0.0,0.0,0.0,0.0,0.0,0.0,0.0,0.0,0.0,0.0
744649861,8,1469.0,1546.0,1580.0,1436.0,1575.0,1441.0,0.0,0.0,0.0,0.0,0.0,0.0,0.0,0.0,0.0,0.0
744697741,8,1500.0,1543.0,1520.0,1523.0,1407.0,1274.0,0.0,0.0,0.0,0.0,0.0,0.0,0.0,0.0,0.0,0.0
744745735,8,1573.0,1447.0,1533.0,1487.0,1512.0,1508.0,0.0,0.0,0.0,0.0,0.0,0.0,0.0,0.0,0.0,0.0
744793550,8,1565.0,1472.0,1513.0,1525.0,1431.0,1606.0,0.0,0.0,0.0,0.0,0.0,0.0,0.0,0.0,0.0,0.0
744841499,8,1533.0,1493.0,1527.0,1499.0,1604.0,1421.0,0.0,0.0,0.0,0.0,0.0,0.0,0.0,0.0,0.0,0.0
744889479,8,1567.0,1471.0,1522.0,1515.0,1303.0,1734.0,0.0,0.0,0.0,0.0,0.0,0.0,0.0,0.0,0.0,0.0
744957478,8,1379.0,1661.0,1638.0,1401.0,1431.0,1609.0,0.0,0.0,0.0,0.0,0.0,0.0,0.0,0.0,0.0,0.0
745001505,8,1454.0,1610.0,1656.0,1408.0,1306.0,1758.0,0.0,0.0,0.0,0.0,0.0,0.0,0.0,0.0,0.0,0.0
745061474,8,1647.0,1399.0,1470.0,1575.0,1369.0,1671.0,0.0,0.0,0.0,0.0,0.0,0.0,0.0,0.0,0.0,0.0
745105843,8,1650.0,1375.0,1487.0,1538.0,1485.0,1540.0,0.0,0.0,0.0,0.0,0.0,0.0,0.0,0.0,0.0,0.0
745153806,8,1550.0,1490.0,1425.0,1615.0,1684.0,1356.0,0.0,0.0,0.0,0.0,0.0,0.0,0.0,0.0,0.0,0.0
745225858,8,1544.0,1486.0,1362.0,1668.0,1537.0,1493.0,0.0,0.0,0.0,0.0,0.0,0.0,0.0,0.0,0.0,0.0
745269817,8,1558.0,1455.0,1471.0,1541.0,1322.0,1690.0,0.0,0.0,0.0,0.0,0.0,0.0,0.0,0.0,0.0,0.0
745329803,8,1517.0,1489.0,1428.0,1579.0,1248.0,1759.0,0.0,0.0,0.0,0.0,0.0,0.0,0.0,0.0,0.0,0.0
745369785,8,1578.0,1432.0,1503.0,1507.0,1346.0,1664.0,0.0,0.0,0.0,0.0,0.0,0.0,0.0,0.0,0.0,0.0
745417769,8,1486.0,1521.0,1532.0,1475.0,1647.0,1359.0,0.0,0.0,0.0,0.0,0.0,0.0,0.0,0.0,0.0,0.0
745461793,8,1425.0,1578.0,1538.0,1465.0,1757.0,1246.0,0.0,0.0,0.0,0.0,0.0,0.0,0.0,0.0,0.0,0.0
745529744,8,1566.0,1464.0,1429.0,1602.0,1616.0,1415.0,0.0,0.0,0.0,0.0,0.0,0.0,0.0,0.0,0.0,0.0
745573491,8,1570.0,1469.0,1556.0,1482.0,1282.0,1757.0,0.0,0.0,0.0,0.0,0.0,0.0,0.0,0.0,0.0,0.0
745621512,8,1502.0,1537.0,1434.0,1605.0,1499.0,1540.0,0.0,0.0,0.0,0.0,0.0,0.0,0.0,0.0,0.0,0.0
745681770,8,1492.0,1543.0,1494.0,1540.0,1569.0,1466.0,0.0,0.0,0.0,0.0,0.0,0.0,0.0,0.0,0.0,0.0
745729877,8,1595.0,1431.0,1569.0,1457.0,1717.0,1309.0,0.0,0.0,0.0,0.0,0.0,0.0,0.0,0.0,0.0,0.0
745777805,8,1533.0,1512.0,1464.0,1581.0,1382.0,1663.0,0.0,0.0,0.0,0.0,0.0,0.0,0.0,0.0,0.0,0.0
745825804,8,1513.0,1542.0,1474.0,1581.0,1513.0,1543.0,0.0,0.0,0.0,0.0,0.0,0.0,0.0,0.0,0.0,0.0
745897886,8,1692.0,1350.0,1654.0,1387.0,1343.0,1699.0,0.0,0.0,0.0,0.0,0.0,0.0,0.0,0.0,0.0,0.0
745945838,8,1541.0,1506.0,1527.0,1520.0,1323.0,1724.0,0.0,0.0,0.0,0.0,0.0,0.0,0.0,0.0,0.0,0.0
745993792,8,1545.0,1480.0,1497.0,1528.0,1389.0,1636.0,0.0,0.0,0.0,0.0,0.0,0.0,0.0,0.0,0.0,0.0
746041785,8,1674.0,1375.0,1507.0,1542.0,1307.0,1742.0,0.0,0.0,0.0,0.0,0.0,0.0,0.0,0.0,0.0,0.0
746089742,8,1689.0,1333.0,1521.0,1501.0,1516.0,1506.0,0.0,0.0,0.0,0.0,0.0,0.0,0.0,0.0,0.0,0.0
746157498,8,1566.0,1476.0,1547.0,1495.0,1203.0,1838.0,0.0,0.0,0.0,0.0,0.0,0.0,0.0,0.0,0.0,0.0
746205793,8,1500.0,1530.0,1489.0,1541.0,1602.0,1429.0,0.0,0.0,0.0,0.0,0.0,0.0,0.0,0.0,0.0,0.0
746253472,8,1503.0,1544.0,1513.0,1533.0,1129.0,1917.0,0.0,0.0,0.0,0.0,0.0,0.0,0.0,0.0,0.0,0.0
746293476,8,1473.0,1536.0,1416.0,1607.0,1618.0,1405.0,0.0,0.0,0.0,0.0,0.0,0.0,0.0,0.0,0.0,0.0
746361459,8,1492.0,1517.0,1466.0,1542.0,1501.0,1508.0,0.0,0.0,0.0,0.0,0.0,0.0,0.0,0.0,0.0,0.0
746401800,8,1442.0,1567.0,1635.0,1374.0,1627.0,1382.0,0.0,0.0,0.0,0.0,0.0,0.0,0.0,0.0,0.0,0.0
746473789,8,1394.0,1625.0,1671.0,1347.0,1675.0,1343.0,0.0,0.0,0.0,0.0,0.0,0.0,0.0,0.0,0.0,0.0
746521486,8,1406.0,1606.0,1643.0,1369.0,1627.0,1385.0,0.0,0.0,0.0,0.0,0.0,0.0,0.0,0.0,0.0,0.0
746569459,8,1573.0,1431.0,1470.0,1534.0,1195.0,1810.0,0.0,0.0,0.0,0.0,0.0,0.0,0.0,0.0,0.0,0.0
746609793,8,1624.0,1393.0,1516.0,1502.0,1357.0,1660.0,0.0,0.0,0.0,0.0,0.0,0.0,0.0,0.0,0.0,0.0
746673780,8,1481.0,1529.0,1459.0,1551.0,1681.0,1329.0,0.0,0.0,0.0,0.0,0.0,0.0,0.0,0.0,0.0,0.0
746713797,8,1627.0,1387.0,1486.0,1528.0,1551.0,1463.0,0.0,0.0,0.0,0.0,0.0,0.0,0.0,0.0,0.0,0.0
746785548,8,1591.0,1429.0,1457.0,1562.0,1522.0,1498.0,0.0,0.0,0.0,0.0,0.0,0.0,0.0,0.0,0.0,0.0
746833793,8,1502.0,1513.0,1573.0,1442.0,1504.0,1511.0,0.0,0.0,0.0,0.0,0.0,0.0,0.0,0.0,0.0,0.0
746881795,8,1689.0,1331.0,1380.0,1640.0,1561.0,1459.0,0.0,0.0,0.0,0.0,0.0,0.0,0.0,0.0,0.0,0.0
746929882,8,1323.0,1696.0,1625.0,1394.0,1437.0,1582.0,0.0,0.0,0.0,0.0,0.0,0.0,0.0,0.0,0.0,0.0
746977742,8,1559.0,1477.0,1441.0,1594.0,1339.0,1697.0,0.0,0.0,0.0,0.0,0.0,0.0,0.0,0.0,0.0,0.0
747025780,8,1519.0,1497.0,1486.0,1530.0,1480.0,1536.0,0.0,0.0,0.0,0.0,0.0,0.0,0.0,0.0,0.0,0.0
747073780,8,1593.0,1436.0,1410.0,1618.0,1286.0,1743.0,0.0,0.0,0.0,0.0,0.0,0.0,0.0,0.0,0.0,0.0
747145772,8,1533.0,1474.0,1493.0,1513.0,1613.0,1393.0,0.0,0.0,0.0,0.0,0.0,0.0,0.0,0.0,0.0,0.0
747193752,8,1574.0,1452.0,1443.0,1583.0,1433.0,1592.0,0.0,0.0,0.0,0.0,0.0,0.0,0.0,0.0,0.0,0.0
747241475,8,1507.0,1513.0,1482.0,1538.0,1292.0,1728.0,0.0,0.0,0.0,0.0,0.0,0.0,0.0,0.0,0.0,0.0
747285854,8,1458.0,1531.0,1574.0,1415.0,1564.0,1425.0,0.0,0.0,0.0,0.0,0.0,0.0,0.0,0.0,0.0,0.0
747349475,8,1593.0,1411.0,1462.0,1541.0,1550.0,1453.0,0.0,0.0,0.0,0.0,0.0,0.0,0.0,0.0,0.0,0.0
747393809,8,1440.0,1569.0,1589.0,1419.0,1610.0,1399.0,0.0,0.0,0.0,0.0,0.0,0.0,0.0,0.0,0.0,0.0
747457764,8,1547.0,1479.0,1500.0,1527.0,1184.0,1842.0,0.0,0.0,0.0,0.0,0.0,0.0,0.0,0.0,0.0,0.0
747505459,8,1481.0,1527.0,1379.0,1628.0,1625.0,1382.0,0.0,0.0,0.0,0.0,0.0,0.0,0.0,0.0,0.0,0.0
747545577,8,1370.0,1614.0,1410.0,1575.0,1348.0,1637.0,0.0,0.0,0.0,0.0,0.0,0.0,0.0,0.0,0.0,0.0
747611089,8,1428.0,1546.0,1414.0,1559.0,1496.0,1478.0,0.0,0.0,0.0,0.0,0.0,0.0,0.0,0.0,0.0,0.0
747671109,8,1482.0,1519.0,1481.0,1520.0,1211.0,1790.0,0.0,0.0,0.0,0.0,0.0,0.0,0.0,0.0,0.0,0.0
747715417,8,1528.0,1446.0,1373.0,1601.0,1471.0,1502.0,0.0,0.0,0.0,0.0,0.0,0.0,0.0,0.0,0.0,0.0
747755452,8,1697.0,1328.0,1448.0,1577.0,1381.0,1643.0,0.0,0.0,0.0,0.0,0.0,0.0,0.0,0.0,0.0,0.0
747819126,8,1503.0,1546.0,1275.0,1774.0,1413.0,1636.0,0.0,0.0,0.0,0.0,0.0,0.0,0.0,0.0,0.0,0.0
747863058,8,1661.0,1403.0,1239.0,1826.0,1108.0,1956.0,0.0,0.0,0.0,0.0,0.0,0.0,0.0,0.0,0.0,0.0
747907148,8,1568.0,1478.0,1472.0,1574.0,1249.0,1797.0,0.0,0.0,0.0,0.0,0.0,0.0,0.0,0.0,0.0,0.0
747971058,8,1570.0,1474.0,1545.0,1499.0,1349.0,1695.0,0.0,0.0,0.0,0.0,0.0,0.0,0.0,0.0,0.0,0.0
748019358,8,1486.0,1552.0,1694.0,1345.0,1604.0,1435.0,0.0,0.0,0.0,0.0,0.0,0.0,0.0,0.0,0.0,0.0
748087361,8,1431.0,1642.0,1545.0,1528.0,1352.0,1721.0,0.0,0.0,0.0,0.0,0.0,0.0,0.0,0.0,0.0,0.0
748131094,8,1559.0,1496.0,1544.0,1511.0,1543.0,1512.0,0.0,0.0,0.0,0.0,0.0,0.0,0.0,0.0,0.0,0.0
748175324,8,1577.0,1455.0,1442.0,1590.0,1751.0,1281.0,0.0,0.0,0.0,0.0,0.0,0.0,0.0,0.0,0.0,0.0
748239123,8,1617.0,1419.0,1452.0,1584.0,1431.0,1604.0,0.0,0.0,0.0,0.0,0.0,0.0,0.0,0.0,0.0,0.0
748279151,8,1626.0,1408.0,1418.0,1616.0,1370.0,1664.0,0.0,0.0,0.0,0.0,0.0,0.0,0.0,0.0,0.0,0.0
748323548,8,1354.0,1662.0,1616.0,1401.0,1648.0,1369.0,0.0,0.0,0.0,0.0,0.0,0.0,0.0,0.0,0.0,0.0
748395102,8,1574.0,1470.0,1415.0,1629.0,1248.0,1796.0,0.0,0.0,0.0,0.0,0.0,0.0,0.0,0.0,0.0,0.0
748443110,8,1460.0,1561.0,1429.0,1592.0,1615.0,1406.0,0.0,0.0,0.0,0.0,0.0,0.0,0.0,0.0,0.0,0.0
748487107,8,1390.0,1624.0,1455.0,1558.0,1545.0,1469.0,0.0,0.0,0.0,0.0,0.0,0.0,0.0,0.0,0.0,0.0
748531395,8,1623.0,1398.0,1452.0,1569.0,1298.0,1724.0,0.0,0.0,0.0,0.0,0.0,0.0,0.0,0.0,0.0,0.0
748599369,8,1582.0,1424.0,1397.0,1609.0,1441.0,1564.0,0.0,0.0,0.0,0.0,0.0,0.0,0.0,0.0,0.0,0.0
748643083,8,1447.0,1553.0,1448.0,1552.0,1435.0,1566.0,0.0,0.0,0.0,0.0,0.0,0.0,0.0,0.0,0.0,0.0
748691427,8,1663.0,1342.0,1442.0,1564.0,1417.0,1589.0,0.0,0.0,0.0,0.0,0.0,0.0,0.0,0.0,0.0,0.0
748755150,8,1477.0,1550.0,1495.0,1533.0,1339.0,1688.0,0.0,0.0,0.0,0.0,0.0,0.0,0.0,0.0,0.0,0.0
748803123,8,1556.0,1469.0,1450.0,1574.0,1535.0,1489.0,0.0,0.0,0.0,0.0,0.0,0.0,0.0,0.0,0.0,0.0
748843104,8,1607.0,1422.0,1614.0,1414.0,1518.0,1510.0,0.0,0.0,0.0,0.0,0.0,0.0,0.0,0.0,0.0,0.0
748911092,8,1671.0,1373.0,1454.0,1590.0,1449.0,1595.0,0.0,0.0,0.0,0.0,0.0,0.0,0.0,0.0,0.0,0.0
748951133,8,1662.0,1632.0,1596.0,1425.0,1516.0,1505.0,0.0,0.0,0.0,0.0,0.0,0.0,0.0,0.0,0.0,0.0
749015124,8,1545.0,1465.0,1385.0,1625.0,1666.0,1344.0,0.0,0.0,0.0,0.0,0.0,0.0,0.0,0.0,0.0,0.0
749059080,8,1546.0,1467.0,1445.0,1586.0,1568.0,1443.0,0.0,0.0,0.0,0.0,0.0,0.0,0.0,0.0,0.0,0.0
749123402,8,1540.0,1474.0,1599.0,1415.0,1438.0,1576.0,0.0,0.0,0.0,0.0,0.0,0.0,0.0,0.0,0.0,0.0
749171367,8,1385.0,1653.0,1621.0,1417.0,1568.0,1470.0,0.0,0.0,0.0,0.0,0.0,0.0,0.0,0.0,0.0,0.0
749215116,8,1435.0,1603.0,1587.0,1452.0,1293.0,1745.0,0.0,0.0,0.0,0.0,0.0,0.0,0.0,0.0,0.0,0.0
749279373,8,1594.0,1448.0,1410.0,1632.0,1547.0,1495.0,0.0,0.0,0.0,0.0,0.0,0.0,0.0,0.0,0.0,0.0
749327114,8,1482.0,1553.0,1528.0,1507.0,1489.0,1546.0,0.0,0.0,0.0,0.0,0.0,0.0,0.0,0.0,0.0,0.0
749375073,8,1692.0,1353.0,1667.0,1378.0,1296.0,1749.0,0.0,0.0,0.0,0.0,0.0,0.0,0.0,0.0,0.0,0.0
749415087,8,1541.0,1509.0,1480.0,1570.0,1709.0,1341.0,0.0,0.0,0.0,0.0,0.0,0.0,0.0,0.0,0.0,0.0
749487383,8,1524.0,1540.0,1576.0,1488.0,1232.0,1832.0,0.0,0.0,0.0,0.0,0.0,0.0,0.0,0.0,0.0,0.0
749527390,8,1620.0,1434.0,1558.0,1495.0,1299.0,1755.0,0.0,0.0,0.0,0.0,0.0,0.0,0.0,0.0,0.0,0.0
749571149,8,1523.0,1537.0,1606.0,1454.0,1144.0,1916.0,0.0,0.0,0.0,0.0,0.0,0.0,0.0,0.0,0.0,0.0
749639320,8,1538.0,1493.0,1539.0,1493.0,1455.0,1577.0,0.0,0.0,0.0,0.0,0.0,0.0,0.0,0.0,0.0,0.0
749687112,8,1548.0,1484.0,1431.0,1601.0,1321.0,1710.0,0.0,0.0,0.0,0.0,0.0,0.0,0.0,0.0,0.0,0.0
749731400,8,1592.0,1438.0,1511.0,1519.0,1327.0,1704.0,0.0,0.0,0.0,0.0,0.0,0.0,0.0,0.0,0.0,0.0
749795404,8,1651.0,1376.0,1512.0,1515.0,1511.0,1516.0,0.0,0.0,0.0,0.0,0.0,0.0,0.0,0.0,0.0,0.0
749843092,8,1614.0,1346.0,1548.0,1495.0,1420.0,1623.0,0.0,0.0,0.0,0.0,0.0,0.0,0.0,0.0,0.0,0.0
749907344,8,1498.0,1548.0,1556.0,1490.0,1551.0,1495.0,0.0,0.0,0.0,0.0,0.0,0.0,0.0,0.0,0.0,0.0
749955353,8,1437.0,1600.0,1666.0,1371.0,1431.0,1606.0,0.0,0.0,0.0,0.0,0.0,0.0,0.0,0.0,0.0,0.0
750003406,8,1502.0,1535.0,1562.0,1475.0,1302.0,1735.0,0.0,0.0,0.0,0.0,0.0,0.0,0.0,0.0,0.0,0.0
750047068,8,1557.0,1491.0,1597.0,1452.0,1476.0,1573.0,0.0,0.0,0.0,0.0,0.0,0.0,0.0,0.0,0.0,0.0
750095060,8,1437.0,1610.0,1627.0,1420.0,1388.0,1659.0,0.0,0.0,0.0,0.0,0.0,0.0,0.0,0.0,0.0,0.0
750159064,8,1515.0,1523.0,1568.0,1470.0,1337.0,1701.0,0.0,0.0,0.0,0.0,0.0,0.0,0.0,0.0,0.0,0.0
