timestamp,x,y,z,r,flaps,aux1,aux2,aux3,aux4,aux5,mode_switch,return_switch,rattitude_switch,posctl_switch,loiter_switch,acro_switch,offboard_switch,kill_switch,arm_switch,transition_switch,gear_switch,mode_slot,data_source,stab_switch,man_switch
717079147,-1.0,-1.0,0.0,1.0,0.0,0.0,0.0,0.0,0.0,0.0,0,0,0,0,0,0,0,0,0,0,0,1,1,0,0
717099100,-1.0,-1.0,0.0,1.0,0.0,0.0,0.0,0.0,0.0,0.0,0,0,0,0,0,0,0,0,0,0,0,1,1,0,0
717123157,-1.0,-1.0,0.0,1.0,0.0,0.0,0.0,0.0,0.0,0.0,0,0,0,0,0,0,0,0,0,0,0,1,1,0,0
717147119,-1.0,-1.0,0.0,1.0,0.0,0.0,0.0,0.0,0.0,0.0,0,0,0,0,0,0,0,0,0,0,0,1,1,0,0
717167166,-1.0,-1.0,0.0,1.0,0.0,0.0,0.0,0.0,0.0,0.0,0,0,0,0,0,0,0,0,0,0,0,1,1,0,0
717187184,-1.0,-1.0,0.0,1.0,0.0,0.0,0.0,0.0,0.0,0.0,0,0,0,0,0,0,0,0,0,0,0,1,1,0,0
717211133,-1.0,-1.0,0.0,1.0,0.0,0.0,0.0,0.0,0.0,0.0,0,0,0,0,0,0,0,0,0,0,0,1,1,0,0
717231931,-1.0,-1.0,0.0,1.0,0.0,0.0,0.0,0.0,0.0,0.0,0,0,0,0,0,0,0,0,0,0,0,1,1,0,0
717252770,-1.0,-1.0,0.0,1.0,0.0,0.0,0.0,0.0,0.0,0.0,0,0,0,0,0,0,0,0,0,0,0,1,1,0,0
717272729,-1.0,-1.0,0.0,1.0,0.0,0.0,0.0,0.0,0.0,0.0,0,0,0,0,0,0,0,0,0,0,0,1,1,0,0
717292967,-1.0,-1.0,0.0,1.0,0.0,0.0,0.0,0.0,0.0,0.0,0,0,0,0,0,0,0,0,0,0,0,1,1,0,0
717316752,-1.0,-1.0,0.0,1.0,0.0,0.0,0.0,0.0,0.0,0.0,0,0,0,0,0,0,0,0,0,0,0,1,1,0,0
717340765,-1.0,-1.0,0.0,1.0,0.0,0.0,0.0,0.0,0.0,0.0,0,0,0,0,0,0,0,0,0,0,0,1,1,0,0
717364756,-1.0,-1.0,0.0,1.0,0.0,0.0,0.0,0.0,0.0,0.0,0,0,0,0,0,0,0,0,0,0,0,1,1,0,0
717389060,-1.0,-1.0,0.0,1.0,0.0,0.0,0.0,0.0,0.0,0.0,0,0,0,0,0,0,0,0,0,0,0,1,1,0,0
717410662,-1.0,-1.0,0.0,1.0,0.0,0.0,0.0,0.0,0.0,0.0,0,0,0,0,0,0,0,0,0,0,0,1,1,0,0
717430323,-1.0,-1.0,0.0,1.0,0.0,0.0,0.0,0.0,0.0,0.0,0,0,0,0,0,0,0,0,0,0,0,1,1,0,0
717450351,-1.0,-1.0,0.0,1.0,0.0,0.0,0.0,0.0,0.0,0.0,0,0,0,0,0,0,0,0,0,0,0,1,1,0,0
717474337,-1.0,-1.0,0.0,1.0,0.0,0.0,0.0,0.0,0.0,0.0,0,0,0,0,0,0,0,0,0,0,0,1,1,0,0
717494343,-1.0,-1.0,0.0,1.0,0.0,0.0,0.0,0.0,0.0,0.0,0,0,0,0,0,0,0,0,0,0,0,1,1,0,0
717518632,-1.0,-1.0,0.0,1.0,0.0,0.0,0.0,0.0,0.0,0.0,0,0,0,0,0,0,0,0,0,0,0,1,1,0,0
717542365,-1.0,-1.0,0.0,1.0,0.0,0.0,0.0,0.0,0.0,0.0,0,0,0,0,0,0,0,0,0,0,0,1,1,0,0
717562320,-1.0,-1.0,0.0,1.0,0.0,0.0,0.0,0.0,0.0,0.0,0,0,0,0,0,0,0,0,0,0,0,1,1,0,0
717583331,-1.0,-1.0,0.0,1.0,0.0,0.0,0.0,0.0,0.0,0.0,0,0,0,0,0,0,0,0,0,0,0,1,1,0,0
717607171,-1.0,-1.0,0.0,1.0,0.0,0.0,0.0,0.0,0.0,0.0,0,0,0,0,0,0,0,0,0,0,0,1,1,0,0
717631125,-1.0,-1.0,0.0,1.0,0.0,0.0,0.0,0.0,0.0,0.0,0,0,0,0,0,0,0,0,0,0,0,1,1,0,0
717651121,-1.0,-1.0,0.0,1.0,0.0,0.0,0.0,0.0,0.0,0.0,0,0,0,0,0,0,0,0,0,0,0,1,1,0,0
717675134,-1.0,-1.0,0.0,1.0,0.0,0.0,0.0,0.0,0.0,0.0,0,0,0,0,0,0,0,0,0,0,0,1,1,0,0
717695148,-1.0,-1.0,0.0,1.0,0.0,0.0,0.0,0.0,0.0,0.0,0,0,0,0,0,0,0,0,0,0,0,1,1,0,0
717719128,-1.0,-1.0,0.0,1.0,0.0,0.0,0.0,0.0,0.0,0.0,0,0,0,0,0,0,0,0,0,0,0,1,1,0,0
717739123,-1.0,-1.0,0.0,1.0,0.0,0.0,0.0,0.0,0.0,0.0,0,0,0,0,0,0,0,0,0,0,0,1,1,0,0
717759919,-1.0,-1.0,0.0,1.0,0.0,0.0,0.0,0.0,0.0,0.0,0,0,0,0,0,0,0,0,0,0,0,1,1,0,0
717779931,-1.0,-1.0,0.0,1.0,0.0,0.0,0.0,0.0,0.0,0.0,0,0,0,0,0,0,0,0,0,0,0,1,1,0,0
717800767,-1.0,-1.0,0.0,1.0,0.0,0.0,0.0,0.0,0.0,0.0,0,0,0,0,0,0,0,0,0,0,0,1,1,0,0
717825041,-1.0,-1.0,0.0,1.0,0.0,0.0,0.0,0.0,0.0,0.0,0,0,0,0,0,0,0,0,0,0,0,1,1,0,0
717848935,-1.0,-1.0,0.0,1.0,0.0,0.0,0.0,0.0,0.0,0.0,0,0,0,0,0,0,0,0,0,0,0,1,1,0,0
717872770,-1.0,-1.0,0.0,1.0,0.0,0.0,0.0,0.0,0.0,0.0,0,0,0,0,0,0,0,0,0,0,0,1,1,0,0
717896957,-1.0,-1.0,0.0,1.0,0.0,0.0,0.0,0.0,0.0,0.0,0,0,0,0,0,0,0,0,0,0,0,1,1,0,0
717920946,-1.0,-1.0,0.0,1.0,0.0,0.0,0.0,0.0,0.0,0.0,0,0,0,0,0,0,0,0,0,0,0,1,1,0,0
717942372,-1.0,-1.0,0.0,1.0,0.0,0.0,0.0,0.0,0.0,0.0,0,0,0,0,0,0,0,0,0,0,0,1,1,0,0
717966572,-1.0,-1.0,0.0,1.0,0.0,0.0,0.0,0.0,0.0,0.0,0,0,0,0,0,0,0,0,0,0,0,1,1,0,0
717986728,-1.0,-1.0,0.0,1.0,0.0,0.0,0.0,0.0,0.0,0.0,0,0,0,0,0,0,0,0,0,0,0,1,1,0,0
718010371,-1.0,-1.0,0.0,1.0,0.0,0.0,0.0,0.0,0.0,0.0,0,0,0,0,0,0,0,0,0,0,0,1,1,0,0
718034340,-1.0,-1.0,0.0,1.0,0.0,0.0,0.0,0.0,0.0,0.0,0,0,0,0,0,0,0,0,0,0,0,1,1,0,0
718054570,-1.0,-1.0,0.0,1.0,0.0,0.0,0.0,0.0,0.0,0.0,0,0,0,0,0,0,0,0,0,0,0,1,1,0,0
718078667,-1.0,-1.0,0.0,1.0,0.0,0.0,0.0,0.0,0.0,0.0,0,0,0,0,0,0,0,0,0,0,0,1,1,0,0
718098342,-1.0,-1.0,0.0,1.0,0.0,0.0,0.0,0.0,0.0,0.0,0,0,0,0,0,0,0,0,0,0,0,1,1,0,0
718122545,-1.0,-1.0,0.0,1.0,0.0,0.0,0.0,0.0,0.0,0.0,0,0,0,0,0,0,0,0,0,0,0,1,1,0,0
718142340,-1.0,-1.0,0.0,1.0,0.0,0.0,0.0,0.0,0.0,0.0,0,0,0,0,0,0,0,0,0,0,0,1,1,0,0
718166693,-1.0,-1.0,0.0,1.0,0.0,0.0,0.0,0.0,0.0,0.0,0,0,0,0,0,0,0,0,0,0,0,1,1,0,0
718191129,-1.0,-1.0,0.0,1.0,0.0,0.0,0.0,0.0,0.0,0.0,0,0,0,0,0,0,0,0,0,0,0,1,1,0,0
718211124,-1.0,-1.0,0.0,1.0,0.0,0.0,0.0,0.0,0.0,0.0,0,0,0,0,0,0,0,0,0,0,0,1,1,0,0
718235329,-1.0,-1.0,0.0,1.0,0.0,0.0,0.0,0.0,0.0,0.0,0,0,0,0,0,0,0,0,0,0,0,1,1,0,0
718255336,-1.0,-1.0,0.0,1.0,0.0,0.0,0.0,0.0,0.0,0.0,0,0,0,0,0,0,0,0,0,0,0,1,1,0,0
718279157,-1.0,-1.0,0.0,1.0,0.0,0.0,0.0,0.0,0.0,0.0,0,0,0,0,0,0,0,0,0,0,0,1,1,0,0
718303138,-1.0,-1.0,0.0,1.0,0.0,0.0,0.0,0.0,0.0,0.0,0,0,0,0,0,0,0,0,0,0,0,1,1,0,0
718323939,-1.0,-1.0,0.0,1.0,0.0,0.0,0.0,0.0,0.0,0.0,0,0,0,0,0,0,0,0,0,0,0,1,1,0,0
718348225,-1.0,-1.0,0.0,1.0,0.0,0.0,0.0,0.0,0.0,0.0,0,0,0,0,0,0,0,0,0,0,0,1,1,0,0
718368703,-1.0,-1.0,0.0,1.0,0.0,0.0,0.0,0.0,0.0,0.0,0,0,0,0,0,0,0,0,0,0,0,1,1,0,0
718388701,-1.0,-1.0,0.0,1.0,0.0,0.0,0.0,0.0,0.0,0.0,0,0,0,0,0,0,0,0,0,0,0,1,1,0,0
718409031,-1.0,-1.0,0.0,1.0,0.0,0.0,0.0,0.0,0.0,0.0,0,0,0,0,0,0,0,0,0,0,0,1,1,0,0
718433557,-1.0,-1.0,0.0,1.0,0.0,0.0,0.0,0.0,0.0,0.0,0,0,0,0,0,0,0,0,0,0,0,1,1,0,0
718453561,-1.0,-1.0,0.0,1.0,0.0,0.0,0.0,0.0,0.0,0.0,0,0,0,0,0,0,0,0,0,0,0,1,1,0,0
718474327,-1.0,-1.0,0.0,1.0,0.0,0.0,0.0,0.0,0.0,0.0,0,0,0,0,0,0,0,0,0,0,0,1,1,0,0
718498512,-1.0,-1.0,0.0,1.0,0.0,0.0,0.0,0.0,0.0,0.0,0,0,0,0,0,0,0,0,0,0,0,1,1,0,0
718522316,-1.0,-1.0,0.0,1.0,0.0,0.0,0.0,0.0,0.0,0.0,0,0,0,0,0,0,0,0,0,0,0,1,1,0,0
718542316,-1.0,-1.0,0.0,1.0,0.0,0.0,0.0,0.0,0.0,0.0,0,0,0,0,0,0,0,0,0,0,0,1,1,0,0
718563096,-1.0,-1.0,0.0,1.0,0.0,0.0,0.0,0.0,0.0,0.0,0,0,0,0,0,0,0,0,0,0,0,1,1,0,0
718587110,-1.0,-1.0,0.0,1.0,0.0,0.0,0.0,0.0,0.0,0.0,0,0,0,0,0,0,0,0,0,0,0,1,1,0,0
718607101,-1.0,-1.0,0.0,1.0,0.0,0.0,0.0,0.0,0.0,0.0,0,0,0,0,0,0,0,0,0,0,0,1,1,0,0
718631119,-1.0,-1.0,0.0,1.0,0.0,0.0,0.0,0.0,0.0,0.0,0,0,0,0,0,0,0,0,0,0,0,1,1,0,0
718651116,-1.0,-1.0,0.0,1.0,0.0,0.0,0.0,0.0,0.0,0.0,0,0,0,0,0,0,0,0,0,0,0,1,1,0,0
718675478,-1.0,-1.0,0.0,1.0,0.0,0.0,0.0,0.0,0.0,0.0,0,0,0,0,0,0,0,0,0,0,0,1,1,0,0
718699346,-1.0,-1.0,0.0,1.0,0.0,0.0,0.0,0.0,0.0,0.0,0,0,0,0,0,0,0,0,0,0,0,1,1,0,0
718723119,-1.0,-1.0,0.0,1.0,0.0,0.0,0.0,0.0,0.0,0.0,0,0,0,0,0,0,0,0,0,0,0,1,1,0,0
718747478,-1.0,-1.0,0.0,1.0,0.0,0.0,0.0,0.0,0.0,0.0,0,0,0,0,0,0,0,0,0,0,0,1,1,0,0
718767305,-1.0,-1.0,0.0,1.0,0.0,0.0,0.0,0.0,0.0,0.0,0,0,0,0,0,0,0,0,0,0,0,1,1,0,0
718787308,-1.0,-1.0,0.0,1.0,0.0,0.0,0.0,0.0,0.0,0.0,0,0,0,0,0,0,0,0,0,0,0,1,1,0,0
718811134,-1.0,-1.0,0.0,1.0,0.0,0.0,0.0,0.0,0.0,0.0,0,0,0,0,0,0,0,0,0,0,0,1,1,0,0
718831126,-1.0,-1.0,0.0,1.0,0.0,0.0,0.0,0.0,0.0,0.0,0,0,0,0,0,0,0,0,0,0,0,1,1,0,0
718851128,-1.0,-1.0,0.0,1.0,0.0,0.0,0.0,0.0,0.0,0.0,0,0,0,0,0,0,0,0,0,0,0,1,1,0,0
718871123,-1.0,-1.0,0.0,1.0,0.0,0.0,0.0,0.0,0.0,0.0,0,0,0,0,0,0,0,0,0,0,0,1,1,0,0
718895299,-1.0,-1.0,0.0,1.0,0.0,0.0,0.0,0.0,0.0,0.0,0,0,0,0,0,0,0,0,0,0,0,1,1,0,0
718915319,-1.0,-1.0,0.0,1.0,0.0,0.0,0.0,0.0,0.0,0.0,0,0,0,0,0,0,0,0,0,0,0,1,1,0,0
718939126,-1.0,-1.0,0.0,1.0,0.0,0.0,0.0,0.0,0.0,0.0,0,0,0,0,0,0,0,0,0,0,0,1,1,0,0
718959133,-1.0,-1.0,0.0,1.0,0.0,0.0,0.0,0.0,0.0,0.0,0,0,0,0,0,0,0,0,0,0,0,1,1,0,0
718979125,-1.0,-1.0,0.0,1.0,0.0,0.0,0.0,0.0,0.0,0.0,0,0,0,0,0,0,0,0,0,0,0,1,1,0,0
719000261,-1.0,-1.0,0.0,1.0,0.0,0.0,0.0,0.0,0.0,0.0,0,0,0,0,0,0,0,0,0,0,0,1,1,0,0
719019891,-1.0,-1.0,0.0,1.0,0.0,0.0,0.0,0.0,0.0,0.0,0,0,0,0,0,0,0,0,0,0,0,1,1,0,0
719039895,-1.0,-1.0,0.0,1.0,0.0,0.0,0.0,0.0,0.0,0.0,0,0,0,0,0,0,0,0,0,0,0,1,1,0,0
719063894,-1.0,-1.0,0.0,1.0,0.0,0.0,0.0,0.0,0.0,0.0,0,0,0,0,0,0,0,0,0,0,0,1,1,0,0
719083916,-1.0,-1.0,0.0,1.0,0.0,0.0,0.0,0.0,0.0,0.0,0,0,0,0,0,0,0,0,0,0,0,1,1,0,0
719105928,-1.0,-1.0,0.0,1.0,0.0,0.0,0.0,0.0,0.0,0.0,0,0,0,0,0,0,0,0,0,0,0,1,1,0,0
719129781,-1.0,-1.0,0.0,1.0,0.0,0.0,0.0,0.0,0.0,0.0,0,0,0,0,0,0,0,0,0,0,0,1,1,0,0
719153874,-1.0,-1.0,0.0,1.0,0.0,0.0,0.0,0.0,0.0,0.0,0,0,0,0,0,0,0,0,0,0,0,1,1,0,0
719177909,-1.0,-1.0,0.0,1.0,0.0,0.0,0.0,0.0,0.0,0.0,0,0,0,0,0,0,0,0,0,0,0,1,1,0,0
719201533,-1.0,-1.0,0.0,1.0,0.0,0.0,0.0,0.0,0.0,0.0,0,0,0,0,0,0,0,0,0,0,0,1,1,0,0
719221826,-1.0,-1.0,0.0,1.0,0.0,0.0,0.0,0.0,0.0,0.0,0,0,0,0,0,0,0,0,0,0,0,1,1,0,0
719245808,-1.0,-0.99645597,0.0,1.0,0.0,0.0,0.0,0.0,0.0,0.0,0,0,0,0,0,0,0,0,0,0,0,1,1,0,0
719269822,-1.0,-0.9657807,0.0,1.0,0.0,0.0,0.0,0.0,0.0,0.0,0,0,0,0,0,0,0,0,0,0,0,1,1,0,0
719293750,-0.9668279,-0.6746468,0.0,0.9580869,0.0,0.0,0.0,0.0,0.0,0.0,0,0,0,0,0,0,0,0,0,0,0,1,1,0,0
719317792,-0.8138395,-0.17258489,0.0,0.7824306,0.0,0.0,0.0,0.0,0.0,0.0,0,0,0,0,0,0,0,0,0,0,0,1,1,0,0
719341857,-0.48284346,0.07567549,0.0,0.4387436,0.0,0.0,0.0,0.0,0.0,0.0,0,0,0,0,0,0,0,0,0,0,0,1,1,0,0
719365888,-0.11807515,0.15668365,0.0,0.08909181,0.0,0.0,0.0,0.0,0.0,0.0,0,0,0,0,0,0,0,0,0,0,0,1,1,0,0
719389840,0.05091635,0.20330359,0.0,-0.057061423,0.0,0.0,0.0,0.0,0.0,0.0,0,0,0,0,0,0,0,0,0,0,0,1,1,0,0
719413854,0.04193595,0.14779013,0.0,-0.03853133,0.0,0.0,0.0,0.0,0.0,0.0,0,0,0,0,0,0,0,0,0,0,0,1,1,0,0
719437522,0.0055262544,0.16850755,0.0,-0.003064852,0.0,0.0,0.0,0.0,0.0,0.0,0,0,0,0,0,0,0,0,0,0,0,1,1,0,0
719461744,-0.0061696162,0.16559678,0.0,0.006412493,0.0,0.0,0.0,0.0,0.0,0.0,0,0,0,0,0,0,0,0,0,0,0,1,1,0,0
719485871,-0.0033619688,0.04404391,0.0,0.0029697372,0.0,0.0,0.0,0.0,0.0,0.0,0,0,0,0,0,0,0,0,0,0,0,1,1,0,0
719509821,-3.4231238e-05,-0.026277112,0.0,-0.00015826809,0.0,0.0,0.0,0.0,0.0,0.0,0,0,0,0,0,0,0,0,0,0,0,1,1,0,0
719533879,0.0006456769,-0.018334597,0.0,-0.0006400055,0.0,0.0,0.0,0.0,0.0,0.0,0,0,0,0,0,0,0,0,0,0,0,1,1,0,0
719557864,0.00024529823,-0.0016296624,0.0,-0.0002055081,0.0,0.0,0.0,0.0,0.0,0.0,0,0,0,0,0,0,0,0,0,0,0,1,1,0,0
719581895,-3.57893e-05,0.0029879978,0.0,4.9382303e-05,0.0,0.0,0.0,0.0,0.0,0.0,0,0,0,0,0,0,0,0,0,0,0,1,1,0,0
719605835,-6.125837e-05,0.0014232601,0.0,5.8489823e-05,0.0,0.0,0.0,0.0,0.0,0.0,0,0,0,0,0,0,0,0,0,0,0,1,1,0,0
719629751,-1.5628528e-05,-5.9163503e-05,0.0,1.1943754e-05,0.0,0.0,0.0,0.0,0.0,0.0,0,0,0,0,0,0,0,0,0,0,0,1,1,0,0
719653781,6.220184e-06,-0.00030055922,0.0,-7.0396845e-06,0.0,0.0,0.0,0.0,0.0,0.0,0,0,0,0,0,0,0,0,0,0,0,1,1,0,0
719677517,5.3588387e-06,-9.947967e-05,0.0,-4.9401297e-06,0.0,0.0,0.0,0.0,0.0,0.0,0,0,0,0,0,0,0,0,0,0,0,1,1,0,0
719697532,7.622273e-07,2.2093767e-05,0.0,-4.470318e-07,0.0,0.0,0.0,0.0,0.0,0.0,0,0,0,0,0,0,0,0,0,0,0,1,1,0,0
719721541,-7.6768106e-07,2.7643933e-05,0.0,8.021646e-07,0.0,0.0,0.0,0.0,0.0,0.0,0,0,0,0,0,0,0,0,0,0,0,1,1,0,0
719745528,-4.3293514e-07,5.88888e-06,0.0,3.839575e-07,0.0,0.0,0.0,0.0,0.0,0.0,0,0,0,0,0,0,0,0,0,0,0,1,1,0,0
719765780,-9.657315e-09,-3.2370147e-06,0.0,-1.5193661e-08,0.0,0.0,0.0,0.0,0.0,0.0,0,0,0,0,0,0,0,0,0,0,0,1,1,0,0
719790335,8.1206856e-08,-2.3493005e-06,0.0,-8.079939e-08,0.0,0.0,0.0,0.0,0.0,0.0,0,0,0,0,0,0,0,0,0,0,0,1,1,0,0
719813761,3.1899205e-08,-2.3427218e-07,0.0,-2.688242e-08,0.0,0.0,0.0,0.0,0.0,0.0,0,0,0,0,0,0,0,0,0,0,0,1,1,0,0
719837857,-4.113954e-09,3.7345998e-07,0.0,5.888003e-09,0.0,0.0,0.0,0.0,0.0,0.0,0,0,0,0,0,0,0,0,0,0,0,1,1,0,0
719862128,-7.766584e-09,1.838778e-07,0.0,7.4397777e-09,0.0,0.0,0.0,0.0,0.0,0.0,0,0,0,0,0,0,0,0,0,0,0,1,1,0,0
719885725,-2.064387e-09,-5.181471e-09,0.0,1.596237e-09,0.0,0.0,0.0,0.0,0.0,0.0,0,0,0,0,0,0,0,0,0,0,0,1,1,0,0
719909844,7.579717e-10,-3.792086e-08,0.0,-8.6697227e-10,0.0,0.0,0.0,0.0,0.0,0.0,0,0,0,0,0,0,0,0,0,0,0,1,1,0,0
719930366,6.8433065e-10,-1.2998178e-08,0.0,-6.329382e-10,0.0,0.0,0.0,0.0,0.0,0.0,0,0,0,0,0,0,0,0,0,0,0,1,1,0,0
719954326,1.0445605e-10,2.6223195e-09,0.0,-6.412111e-11,0.0,0.0,0.0,0.0,0.0,0.0,0,0,0,0,0,0,0,0,0,0,0,1,1,0,0
719978381,-9.540334e-11,3.514266e-09,0.0,1.0024474e-10,0.0,0.0,0.0,0.0,0.0,0.0,0,0,0,0,0,0,0,0,0,0,0,1,1,0,0
720002340,-5.5708264e-11,7.851257e-10,0.0,4.959909e-11,0.0,0.0,0.0,0.0,0.0,0.0,0,0,0,0,0,0,0,0,0,0,0,1,1,0,0
720023100,-1.9042506e-12,-3.9802317e-10,0.0,-1.3012817e-12,0.0,0.0,0.0,0.0,0.0,0.0,0,0,0,0,0,0,0,0,0,0,0,1,1,0,0
720047351,1.0204881e-11,-3.008203e-10,0.0,-1.0193139e-11,0.0,0.0,0.0,0.0,0.0,0.0,0,0,0,0,0,0,0,0,0,0,0,1,1,0,0
720071107,4.143864e-12,-3.3222113e-11,0.0,-3.5118315e-12,0.0,0.0,0.0,0.0,0.0,0.0,0,0,0,0,0,0,0,0,0,0,0,1,1,0,0
720091131,-4.670054e-13,4.662887e-11,0.0,6.9825943e-13,0.0,0.0,0.0,0.0,0.0,0.0,0,0,0,0,0,0,0,0,0,0,0,1,1,0,0
720115436,-9.840049e-13,2.373605e-11,0.0,9.456977e-13,0.0,0.0,0.0,0.0,0.0,0.0,0,0,0,0,0,0,0,0,0,0,0,1,1,0,0
720135138,-2.721696e-13,-3.5954722e-13,0.0,2.1273086e-13,0.0,0.0,0.0,0.0,0.0,0.0,0,0,0,0,0,0,0,0,0,0,0,1,1,0,0
720159112,9.2109534e-14,-4.7807544e-12,0.0,-1.065726e-13,0.0,0.0,0.0,0.0,0.0,0.0,0,0,0,0,0,0,0,0,0,0,0,1,1,0,0
720179173,8.733207e-14,-1.6962139e-12,0.0,-8.1037526e-14,0.0,0.0,0.0,0.0,0.0,0.0,0,0,0,0,0,0,0,0,0,0,0,1,1,0,0
720203098,1.4235085e-14,-0.0010126084,0.0,-9.076987e-15,0.0,0.0,0.0,0.0,0.0,0.0,0,0,0,0,0,0,0,0,0,0,0,1,1,0,0
720227165,-1.184074e-14,-0.004930924,0.0,1.2514228e-14,0.0,0.0,0.0,0.0,0.0,0.0,0,0,0,0,0,0,0,0,0,0,0,1,1,0,0
720247131,-7.162929e-15,-0.012256215,0.0,6.401765e-15,0.0,0.0,0.0,0.0,0.0,0.0,0,0,0,0,0,0,0,0,0,0,0,1,1,0,0
720271112,-3.2829478e-16,-0.020777795,0.0,-8.485575e-17,0.0,0.0,0.0,0.0,0.0,0.0,0,0,0,0,0,0,0,0,0,0,0,1,1,0,0
720291107,1.2813001e-15,-0.028567996,0.0,-1.2849226e-15,0.0,0.0,0.0,0.0,0.0,0.0,0,0,0,0,0,0,0,0,0,0,0,1,1,0,0
720315160,5.377606e-16,-0.039397806,0.0022399386,-4.5819776e-16,0.0,0.0,0.0,0.0,0.0,0.0,0,0,0,0,0,0,0,0,0,0,0,1,1,0,0
720335180,-5.2181504e-17,-0.05351927,0.009787473,8.2291474e-17,0.0,0.0,0.0,0.0,0.0,0.0,0,0,0,0,0,0,0,0,0,0,0,1,1,0,0
720359100,-1.2458446e-16,-0.059654713,0.023835335,1.2013128e-16,0.0,0.0,0.0,0.0,0.0,0.0,0,0,0,0,0,0,0,0,0,0,0,1,1,0,0
720383126,-3.5819395e-17,-0.052068464,0.040988106,2.827781e-17,0.0,0.0,0.0,0.0,0.0,0.0,0,0,0,0,0,0,0,0,0,0,0,1,1,0,0
720407149,1.1159351e-17,-0.038950246,0.054033253,-1.3074168e-17,0.0,0.0,0.0,0.0,0.0,0.0,0,0,0,0,0,0,0,0,0,0,0,1,1,0,0
720431103,1.1137684e-17,-0.02900626,0.063210346,-1.0368501e-17,0.0,0.0,0.0,0.0,0.0,0.0,0,0,0,0,0,0,0,0,0,0,0,1,1,0,0
720451101,1.9305014e-18,-0.023850005,0.0722602,-1.2713165e-18,0.0,0.0,0.0,0.0,0.0,0.0,0,0,0,0,0,0,0,0,0,0,0,1,1,0,0
720471112,-1.4675606e-18,-0.021360297,0.07953164,1.5605295e-18,0.0,0.0,0.0,0.0,0.0,0.0,0,0,0,0,0,0,0,0,0,0,0,1,1,0,0
720495098,-9.203261e-19,-0.019931046,0.08368199,8.256019e-19,0.0,0.0,0.0,0.0,0.0,0.0,0,0,0,0,0,0,0,0,0,0,0,1,1,0,0
720516783,-5.2714136e-20,-0.019384118,0.08553398,-4.9378623e-22,0.0,0.0,0.0,0.0,0.0,0.0,0,0,0,0,0,0,0,0,0,0,0,1,1,0,0
720540735,1.6073501e-19,-0.018955579,0.08640116,-1.6184829e-19,0.0,0.0,0.0,0.0,0.0,0.0,0,0,0,0,0,0,0,0,0,0,0,1,1,0,0
720564746,6.971822e-20,-0.01789171,0.08735448,-5.971066e-20,0.0,0.0,0.0,0.0,0.0,0.0,0,0,0,0,0,0,0,0,0,0,0,1,1,0,0
720584940,-5.7116595e-21,-0.016063584,0.0882836,9.627722e-21,0.0,0.0,0.0,0.0,0.0,0.0,0,0,0,0,0,0,0,0,0,0,0,1,1,0,0
720609046,-1.5762536e-20,-0.013571147,0.089435786,1.524999e-20,0.0,0.0,0.0,0.0,0.0,0.0,0,0,0,0,0,0,0,0,0,0,0,1,1,0,0
720632972,-4.706254e-21,-0.011995491,0.09142178,3.7500277e-21,0.0,0.0,0.0,0.0,0.0,0.0,0,0,0,0,0,0,0,0,0,0,0,1,1,0,0
720656792,1.3474632e-21,-0.011901301,0.09491664,-1.6004503e-21,0.0,0.0,0.0,0.0,0.0,0.0,0,0,0,0,0,0,0,0,0,0,0,1,1,0,0
720680969,1.4194829e-21,-0.013187642,0.100547954,-1.3257242e-21,0.0,0.0,0.0,0.0,0.0,0.0,0,0,0,0,0,0,0,0,0,0,0,1,1,0,0
720704967,2.6068314e-22,-0.015706642,0.10717105,-1.7649796e-22,0.0,0.0,0.0,0.0,0.0,0.0,0,0,0,0,0,0,0,0,0,0,0,1,1,0,0
720728943,-1.8162752e-22,-0.017398203,0.11448894,1.9437687e-22,0.0,0.0,0.0,0.0,0.0,0.0,0,0,0,0,0,0,0,0,0,0,0,1,1,0,0
720752951,-1.1816219e-22,-0.017530022,0.12261601,1.0638862e-22,0.0,0.0,0.0,0.0,0.0,0.0,0,0,0,0,0,0,0,0,0,0,0,1,1,0,0
720776725,-8.098624e-24,-0.017247498,0.12891498,1.25144825e-24,0.0,0.0,0.0,0.0,0.0,0.0,0,0,0,0,0,0,0,0,0,0,0,1,1,0,0
720797056,2.0145349e-23,-0.018129895,0.13263781,-2.037012e-23,0.0,0.0,0.0,0.0,0.0,0.0,0,0,0,0,0,0,0,0,0,0,0,1,1,0,0
720820724,9.030094e-24,-0.021042805,0.13526887,-7.772368e-24,0.0,0.0,0.0,0.0,0.0,0.0,0,0,0,0,0,0,0,0,0,0,0,1,1,0,0
720844725,-6.0791036e-25,-0.023971638,0.13650766,1.1166876e-24,0.0,0.0,0.0,0.0,0.0,0.0,0,0,0,0,0,0,0,0,0,0,0,1,1,0,0
720869110,-1.9928737e-24,-0.02600244,0.13719687,1.9345981e-24,0.0,0.0,0.0,0.0,0.0,0.0,0,0,0,0,0,0,0,0,0,0,0,1,1,0,0
720893017,-6.1738276e-25,-0.02921719,0.13994667,4.9622176e-25,0.0,0.0,0.0,0.0,0.0,0.0,0,0,0,0,0,0,0,0,0,0,0,1,1,0,0
720916756,1.6209622e-25,-0.03304529,0.14480996,-1.9545729e-25,0.0,0.0,0.0,0.0,0.0,0.0,0,0,0,0,0,0,0,0,0,0,0,1,1,0,0
720936764,1.8079221e-25,-0.034842987,0.15005073,-1.6939481e-25,0.0,0.0,0.0,0.0,0.0,0.0,0,0,0,0,0,0,0,0,0,0,0,1,1,0,0
720956749,3.506666e-26,-0.035263985,0.15551491,-2.4322395e-26,0.0,0.0,0.0,0.0,0.0,0.0,0,0,0,0,0,0,0,0,0,0,0,1,1,0,0
720980799,-2.2443868e-26,-0.037092756,0.16148548,2.4182379e-26,0.0,0.0,0.0,0.0,0.0,0.0,0,0,0,0,0,0,0,0,0,0,0,1,1,0,0
721000976,-1.5160224e-26,-0.040723924,0.16635503,1.3698755e-26,0.0,0.0,0.0,0.0,0.0,0.0,0,0,0,0,0,0,0,0,0,0,0,1,1,0,0
721024717,-1.2072543e-27,-0.044745464,0.16822976,3.2677371e-28,0.0,0.0,0.0,0.0,0.0,0.0,0,0,0,0,0,0,0,0,0,0,0,1,1,0,0
721044718,2.522497e-27,-0.048558317,0.16796899,-2.5616796e-27,0.0,0.0,0.0,0.0,0.0,0.0,0,0,0,0,0,0,0,0,0,0,0,1,1,0,0
721064746,1.1685306e-27,-0.05120501,0.16750552,-1.0105978e-27,0.0,0.0,0.0,0.0,0.0,0.0,0,0,0,0,0,0,0,0,0,0,0,1,1,0,0
721089064,-6.2140593e-29,-0.051942717,0.16738531,1.2817366e-28,0.0,0.0,0.0,0.0,0.0,0.0,0,0,0,0,0,0,0,0,0,0,0,1,1,0,0
721112735,-2.5177933e-28,-0.051697057,0.16743165,2.4525459e-28,0.0,0.0,0.0,0.0,0.0,0.0,0,0,0,0,0,0,0,0,0,0,0,1,1,0,0
721136923,-8.087122e-29,-0.051461823,0.16747232,6.552985e-29,0.0,0.0,0.0,0.0,0.0,0.0,0,0,0,0,0,0,0,0,0,0,0,1,1,0,0
721161041,1.9418228e-29,-0.051423002,0.16747826,-2.3809641e-29,0.0,0.0,0.0,0.0,0.0,0.0,0,0,0,0,0,0,0,0,0,0,0,1,1,0,0
721184957,2.301142e-29,-0.051454715,0.1674725,-2.1630085e-29,0.0,0.0,0.0,0.0,0.0,0.0,0,0,0,0,0,0,0,0,0,0,0,1,1,0,0
721208946,4.700952e-30,-0.051474042,0.16746919,-3.330604e-30,0.0,0.0,0.0,0.0,0.0,0.0,0,0,0,0,0,0,0,0,0,0,0,1,1,0,0
721232757,-2.7688675e-30,-0.052993886,0.1674691,3.0047614e-30,0.0,0.0,0.0,0.0,0.0,0.0,0,0,0,0,0,0,0,0,0,0,0,1,1,0,0
721256796,-1.9436925e-30,-0.059627373,0.16746973,1.7625257e-30,0.0,0.0,0.0,0.0,0.0,0.0,0,0,0,0,0,0,0,0,0,0,0,1,1,0,0
721280924,-1.7605954e-31,-0.0714008,0.16746996,6.292179e-32,0.0,0.0,0.0,0.0,0.0,0.0,0,0,0,0,0,0,0,0,0,0,0,1,1,0,0
721304919,3.1554672e-31,-0.08457855,0.16746995,-3.2187892e-31,0.0,0.0,0.0,0.0,0.0,0.0,0,0,0,0,0,0,0,0,0,0,0,1,1,0,0
721329044,1.5107832e-31,-0.09625614,0.16746989,-1.3126412e-31,0.0,0.0,0.0,0.0,0.0,0.0,0,0,0,0,0,0,0,0,0,0,0,1,1,0,0
721352985,-5.9614465e-33,-0.103053965,0.16722098,1.4523283e-32,0.0,0.0,0.0,0.0,0.0,0.0,0,0,0,0,0,0,0,0,0,0,0,1,1,0,0
721376970,-3.1786425e-32,-0.104291886,0.16638237,3.1070326e-32,0.0,0.0,0.0,0.0,0.0,0.0,0,0,0,0,0,0,0,0,0,0,0,1,1,0,0
721400929,-1.05786065e-32,-0.100886695,0.1651257,8.637444e-33,0.0,0.0,0.0,0.0,0.0,0.0,0,0,0,0,0,0,0,0,0,0,0,1,1,0,0
721424979,2.3151984e-33,-0.0897662,0.16407889,-2.892287e-33,0.0,0.0,0.0,0.0,0.0,0.0,0,0,0,0,0,0,0,0,0,0,0,1,1,0,0
721448694,2.9269863e-33,-0.073159754,0.16368926,-2.7601263e-33,0.0,0.0,0.0,0.0,0.0,0.0,0,0,0,0,0,0,0,0,0,0,0,1,1,0,0
721472735,6.28249e-34,-0.048948623,0.16350137,-4.5358663e-34,0.0,0.0,0.0,0.0,0.0,0.0,0,0,0,0,0,0,0,0,0,0,0,1,1,0,0
721492749,-3.4099477e-34,-0.016419625,0.16301048,3.7286348e-34,0.0,0.0,0.0,0.0,0.0,0.0,0,0,0,0,0,0,0,0,0,0,0,1,1,0,0
721512760,-2.490279e-34,0.0035174107,0.16261698,2.2660262e-34,0.0,0.0,0.0,0.0,0.0,0.0,0,0,0,0,0,0,0,0,0,0,0,1,1,0,0
721536699,-2.5250457e-35,0.0045149997,0.1625677,1.07233145e-35,0.0,0.0,0.0,0.0,0.0,0.0,0,0,0,0,0,0,0,0,0,0,0,1,1,0,0
721560711,3.943284e-35,0.0009796513,0.16262655,-4.0409797e-35,0.0,0.0,0.0,0.0,0.0,0.0,0,0,0,0,0,0,0,0,0,0,0,1,1,0,0
721584721,1.9515946e-35,-0.0005221001,0.16265795,-1.7032313e-35,0.0,0.0,0.0,0.0,0.0,0.0,0,0,0,0,0,0,0,0,0,0,0,1,1,0,0
721604716,-5.09896e-37,-0.0003847613,0.16265802,1.6189687e-36,0.0,0.0,0.0,0.0,0.0,0.0,0,0,0,0,0,0,0,0,0,0,0,1,1,0,0
721628742,-4.0099492e-36,-3.99444e-05,0.16265191,3.9334477e-36,0.0,0.0,0.0,0.0,0.0,0.0,0,0,0,0,0,0,0,0,0,0,0,1,1,0,0
721648764,-1.3819399e-36,6.058177e-05,0.16264963,1.1364966e-36,0.0,0.0,0.0,0.0,0.0,0.0,0,0,0,0,0,0,0,0,0,0,0,1,1,0,0
721672975,2.745466e-37,3.0208357e-05,0.16264999,-3.5026442e-37,0.0,0.0,0.0,0.0,0.0,0.0,0,0,0,0,0,0,0,0,0,0,0,1,1,0,0
721697113,3.72058e-37,-7.000521e-07,0.16265057,-3.5197615e-37,0.0,0.0,0.0,0.0,0.0,0.0,0,0,0,0,0,0,0,0,0,0,0,1,1,0,0
721716736,8.372502e-38,-6.1739593e-06,0.16289958,-6.14775e-38,0.0,0.0,0.0,0.0,0.0,0.0,0,0,0,0,0,0,0,0,0,0,0,1,1,0,0
721736760,-4.1916122e-38,-2.144365e-06,0.16348925,4.620485e-38,0.0,0.0,0.0,0.0,0.0,0.0,0,0,0,0,0,0,0,0,0,0,0,1,1,0,0
721760996,-3.1883822e-38,4.1655687e-07,0.16390727,2.911221e-38,0.0,0.0,0.0,0.0,0.0,0.0,0,0,0,0,0,0,0,0,0,0,0,1,1,0,0
721784728,-3.574106e-39,5.738295e-07,0.16394629,1.710121e-39,0.0,0.0,0.0,0.0,0.0,0.0,0,0,0,0,0,0,0,0,0,0,0,1,1,0,0
721809048,4.922623e-39,1.3047726e-07,0.16387884,-5.068693e-39,0.0,0.0,0.0,0.0,0.0,0.0,0,0,0,0,0,0,0,0,0,0,0,1,1,0,0
721832752,2.51891e-39,-6.414993e-08,0.16384628,-2.207889e-39,0.0,0.0,0.0,0.0,0.0,0.0,0,0,0,0,0,0,0,0,0,0,0,1,1,0,0
721857047,-3.3121e-41,-4.9254645e-08,0.16384746,1.76655e-40,0.0,0.0,0.0,0.0,0.0,0.0,0,0,0,0,0,0,0,0,0,0,0,1,1,0,0
721880951,-5.05482e-40,-5.6393694e-09,0.16385426,4.97618e-40,0.0,0.0,0.0,0.0,0.0,0.0,0,0,0,0,0,0,0,0,0,0,0,1,1,0,0
721904928,-1.80305e-40,7.560932e-09,0.16385655,1.49292e-40,0.0,0.0,0.0,0.0,0.0,0.0,0,0,0,0,0,0,0,0,0,0,0,1,1,0,0
721928990,3.2355e-41,3.8982475e-09,0.16385606,-4.2274e-41,0.0,0.0,0.0,0.0,0.0,0.0,0,0,0,0,0,0,0,0,0,0,0,1,1,0,0
721952729,4.7262e-41,-4.0040624e-11,0.16385543,-4.4854e-41,0.0,0.0,0.0,0.0,0.0,0.0,0,0,0,0,0,0,0,0,0,0,0,1,1,0,0
721976794,1.1129e-41,-7.7813433e-10,0.1638553,-8.297e-42,0.0,0.0,0.0,0.0,0.0,0.0,0,0,0,0,0,0,0,0,0,0,0,1,1,0,0
722001088,-5.141e-42,-2.7970123e-10,0.16385537,5.717e-42,0.0,0.0,0.0,0.0,0.0,0.0,0,0,0,0,0,0,0,0,0,0,0,1,1,0,0
722025052,-4.079e-42,4.9013682e-11,0.16385543,3.737e-42,0.0,0.0,0.0,0.0,0.0,0.0,0,0,0,0,0,0,0,0,0,0,0,1,1,0,0
722048952,-5e-43,7.2881784e-11,0.16385543,2.6e-43,0.0,0.0,0.0,0.0,0.0,0.0,0,0,0,0,0,0,0,0,0,0,0,1,1,0,0
722072950,6.14e-43,1.7334158e-11,0.16410431,-6.35e-43,0.0,0.0,0.0,0.0,0.0,0.0,0,0,0,0,0,0,0,0,0,0,0,1,1,0,0
722096997,3.25e-43,-7.865955e-12,0.16494292,-2.86e-43,0.0,0.0,0.0,0.0,0.0,0.0,0,0,0,0,0,0,0,0,0,0,0,1,1,0,0
722120737,-0.0,-6.3009858e-12,0.16595072,2e-44,0.0,0.0,0.0,0.0,0.0,0.0,0,0,0,0,0,0,0,0,0,0,0,1,1,0,0
722144753,-6.4e-44,-7.881082e-13,0.1664078,6.2e-44,0.0,0.0,0.0,0.0,0.0,0.0,0,0,0,0,0,0,0,0,0,0,0,1,1,0,0
722168786,-2.4e-44,9.426045e-13,0.16637936,2e-44,0.0,0.0,0.0,0.0,0.0,0.0,0,0,0,0,0,0,0,0,0,0,0,1,1,0,0
722193052,4e-45,5.0264204e-13,0.16627935,-6e-45,0.0,0.0,0.0,0.0,0.0,0.0,0,0,0,0,0,0,0,0,0,0,0,1,1,0,0
722216900,6e-45,1.1631556e-15,0.16624795,-6e-45,0.0,0.0,0.0,0.0,0.0,0.0,0,0,0,0,0,0,0,0,0,0,0,1,1,0,0
722240919,1e-45,-9.7995397e-14,0.16625594,-1e-45,0.0,0.0,0.0,0.0,0.0,0.0,0,0,0,0,0,0,0,0,0,0,0,1,1,0,0
722264965,-0.0,-3.643973e-14,0.16626504,0.0,0.0,0.0,0.0,0.0,0.0,0.0,0,0,0,0,0,0,0,0,0,0,0,1,1,0,0
722289048,0.0,5.723564e-15,0.16626684,0.0,0.0,0.0,0.0,0.0,0.0,0.0,0,0,0,0,0,0,0,0,0,0,0,1,1,0,0
722312945,0.0,9.250485e-15,0.16626573,0.0,0.0,0.0,0.0,0.0,0.0,0.0,0,0,0,0,0,0,0,0,0,0,0,1,1,0,0
722336772,0.0,2.2975426e-15,0.16651383,0.0,0.0,0.0,0.0,0.0,0.0,0.0,0,0,0,0,0,0,0,0,0,0,0,1,1,0,0
722360765,0.0,-9.623857e-16,0.1671035,0.0,0.0,0.0,0.0,0.0,0.0,0.0,0,0,0,0,0,0,0,0,0,0,0,1,1,0,0
722384920,0.0,-8.0552267e-16,0.1675217,0.0,0.0,0.0,0.0,0.0,0.0,0.0,0,0,0,0,0,0,0,0,0,0,0,1,1,0,0
722409080,0.0,-1.0921234e-16,0.16880518,0.0,0.0,0.0,0.0,0.0,0.0,0.0,0,0,0,0,0,0,0,0,0,0,0,1,1,0,0
722432983,0.0,-0.0015189126,0.17417522,0.0,0.0,0.0,0.0,0.0,0.0,0.0,0,0,0,0,0,0,0,0,0,0,0,1,1,0,0
722456723,0.0,-0.008155842,0.18387248,0.0,0.0,0.0,0.0,0.0,0.0,0.0,0,0,0,0,0,0,0,0,0,0,0,1,1,0,0
722476763,0.0,-0.019424418,0.19312418,0.0,0.0,0.0,0.0,0.0,0.0,0.0,0,0,0,0,0,0,0,0,0,0,0,1,1,0,0
722500768,0.0,-0.029377108,0.19887504,0.0,0.0,0.0,0.0,0.0,0.0,0.0,0,0,0,0,0,0,0,0,0,0,0,1,1,0,0
722525053,0.0,-0.03489877,0.20192623,0.0,0.0,0.0,0.0,0.0,0.0,0.0,0,0,0,0,0,0,0,0,0,0,0,1,1,0,0
722545055,0.0,-0.037015498,0.20317203,0.0,0.0,0.0,0.0,0.0,0.0,0.0,0,0,0,0,0,0,0,0,0,0,0,1,1,0,0
722569054,0.0,-0.03772907,0.20403044,0.0,0.0,0.0,0.0,0.0,0.0,0.0,0,0,0,0,0,0,0,0,0,0,0,1,1,0,0
722592726,0.0,-0.04010978,0.20609474,0.0,0.0,0.0,0.0,0.0,0.0,0.0,0,0,0,0,0,0,0,0,0,0,0,1,1,0,0
722617113,0.0,-0.044900227,0.20967606,0.0,0.0,0.0,0.0,0.0,0.0,0.0,0,0,0,0,0,0,0,0,0,0,0,1,1,0,0
722640952,0.0,-0.050254676,0.2135818,0.0,0.0,0.0,0.0,0.0,0.0,0.0,0,0,0,0,0,0,0,0,0,0,0,1,1,0,0
722665047,0.0,-0.055345684,0.21631487,0.0,0.0,0.0,0.0,0.0,0.0,0.0,0,0,0,0,0,0,0,0,0,0,0,1,1,0,0
722689064,0.0,-0.058709983,0.21904884,0.0,0.0,0.0,0.0,0.0,0.0,0.0,0,0,0,0,0,0,0,0,0,0,0,1,1,0,0
722712770,0.0,-0.05946259,0.22300829,0.0,0.0,0.0,0.0,0.0,0.0,0.0,0,0,0,0,0,0,0,0,0,0,0,1,1,0,0
722736984,0.0,-0.059081912,0.22642489,0.0,0.0,0.0,0.0,0.0,0.0,0.0,0,0,0,0,0,0,0,0,0,0,0,1,1,0,0
722760981,0.0,-0.05879387,0.22840536,0.0,0.0,0.0,0.0,0.0,0.0,0.0,0,0,0,0,0,0,0,0,0,0,0,1,1,0,0
722784942,0.0,-0.05977458,0.23021033,0.0,0.0,0.0,0.0,0.0,0.0,0.0,0,0,0,0,0,0,0,0,0,0,0,1,1,0,0
722804950,0.0,-0.062218606,0.23198283,0.0,0.0,0.0,0.0,0.0,0.0,0.0,0,0,0,0,0,0,0,0,0,0,0,1,1,0,0
722828770,0.0,-0.063942306,0.23303102,0.0,0.0,0.0,0.0,0.0,0.0,0.0,0,0,0,0,0,0,0,0,0,0,0,1,1,0,0
722852740,0.0,-0.06410068,0.23356901,0.0,0.0,0.0,0.0,0.0,0.0,0.0,0,0,0,0,0,0,0,0,0,0,0,1,1,0,0
722872742,0.0,-0.064327985,0.23381145,0.0,0.0,0.0,0.0,0.0,0.0,0.0,0,0,0,0,0,0,0,0,0,0,0,1,1,0,0
722896717,0.0,-0.06539357,0.23429346,0.0,0.0,0.0,0.0,0.0,0.0,0.0,0,0,0,0,0,0,0,0,0,0,0,1,1,0,0
722921050,0.0,-0.06624913,0.23591739,0.0,0.0,0.0,0.0,0.0,0.0,0.0,0,0,0,0,0,0,0,0,0,0,0,1,1,0,0
722940738,0.0,-0.06635662,0.23791638,0.0,0.0,0.0,0.0,0.0,0.0,0.0,0,0,0,0,0,0,0,0,0,0,0,1,1,0,0
722964724,0.0,-0.066228814,0.2393326,0.0,0.0,0.0,0.0,0.0,0.0,0.0,0,0,0,0,0,0,0,0,0,0,0,1,1,0,0
722984733,0.0,-0.06666684,0.24046004,0.0,0.0,0.0,0.0,0.0,0.0,0.0,0,0,0,0,0,0,0,0,0,0,0,1,1,0,0
723004727,0.0,-0.06887895,0.24109711,0.0,0.0,0.0,0.0,0.0,0.0,0.0,0,0,0,0,0,0,0,0,0,0,0,1,1,0,0
723024924,0.0,-0.07214213,0.24136065,0.0,0.0,0.0,0.0,0.0,0.0,0.0,0,0,0,0,0,0,0,0,0,0,0,1,1,0,0
723048939,0.0,-0.0739274,0.24232881,0.0,0.0,0.0,0.0,0.0,0.0,0.0,0,0,0,0,0,0,0,0,0,0,0,1,1,0,0
723073005,0.0,-0.07394813,0.244626,0.0,0.0,0.0,0.0,0.0,0.0,0.0,0,0,0,0,0,0,0,0,0,0,0,1,1,0,0
723096726,0.0,-0.07360621,0.24727635,0.0,0.0,0.0,0.0,0.0,0.0,0.0,0,0,0,0,0,0,0,0,0,0,0,1,1,0,0
723116736,0.0,-0.072969496,0.24855255,0.0,0.0,0.0,0.0,0.0,0.0,0.0,0,0,0,0,0,0,0,0,0,0,0,1,1,0,0
723140950,0.0,-0.07178856,0.24850516,0.0,0.0,0.0,0.0,0.0,0.0,0.0,0,0,0,0,0,0,0,0,0,0,0,1,1,0,0
723160971,0.0,-0.069957934,0.24823776,0.0,0.0,0.0,0.0,0.0,0.0,0.0,0,0,0,0,0,0,0,0,0,0,0,1,1,0,0
723180750,0.0,-0.0674875,0.24814822,0.0,0.0,0.0,0.0,0.0,0.0,0.0,0,0,0,0,0,0,0,0,0,0,0,1,1,0,0
723204904,0.0,-0.065920465,0.24816751,0.0,0.0,0.0,0.0,0.0,0.0,0.0,0,0,0,0,0,0,0,0,0,0,0,1,1,0,0
723228924,0.0,-0.06582515,0.24844104,0.0,0.0,0.0,0.0,0.0,0.0,0.0,0,0,0,0,0,0,0,0,0,0,0,1,1,0,0
723252725,0.0,-0.06609678,0.2490361,0.0,0.0,0.0,0.0,0.0,0.0,0.0,0,0,0,0,0,0,0,0,0,0,0,1,1,0,0
723276751,0.0,-0.06621582,0.24994908,0.0,0.0,0.0,0.0,0.0,0.0,0.0,0,0,0,0,0,0,0,0,0,0,0,1,1,0,0
723296743,0.0,-0.06620662,0.25116545,0.0,0.0,0.0,0.0,0.0,0.0,0.0,0,0,0,0,0,0,0,0,0,0,0,1,1,0,0
723320724,0.0,-0.06617991,0.2524317,0.0,0.0,0.0,0.0,0.0,0.0,0.0,0,0,0,0,0,0,0,0,0,0,0,1,1,0,0
723340728,0.0,-0.06617184,0.25365695,0.0,0.0,0.0,0.0,0.0,0.0,0.0,0,0,0,0,0,0,0,0,0,0,0,1,1,0,0
723364737,0.0,-0.06617409,0.25460842,0.0,0.0,0.0,0.0,0.0,0.0,0.0,0,0,0,0,0,0,0,0,0,0,0,1,1,0,0
723384748,0.0,-0.0661765,0.2559645,0.0,0.0,0.0,0.0,0.0,0.0,0.0,0,0,0,0,0,0,0,0,0,0,0,1,1,0,0
723408735,0.0,-0.06617695,0.2587681,0.0,0.0,0.0,0.0,0.0,0.0,0.0,0,0,0,0,0,0,0,0,0,0,0,1,1,0,0
723432730,0.0,-0.066176645,0.2620274,0.0,0.0,0.0,0.0,0.0,0.0,0.0,0,0,0,0,0,0,0,0,0,0,0,1,1,0,0
723456921,0.0,-0.066176444,0.26467386,0.0,0.0,0.0,0.0,0.0,0.0,0.0,0,0,0,0,0,0,0,0,0,0,0,1,1,0,0
723476928,0.0,-0.06617643,0.26725352,0.0,0.0,0.0,0.0,0.0,0.0,0.0,0,0,0,0,0,0,0,0,0,0,0,1,1,0,0
723500768,0.0,-0.06617647,0.2701774,0.0,0.0,0.0,0.0,0.0,0.0,0.0,0,0,0,0,0,0,0,0,0,0,0,1,1,0,0
723520883,0.0,-0.06567018,0.2732415,0.0,0.0,0.0,0.0,0.0,0.0,0.0,0,0,0,0,0,0,0,0,0,0,0,1,1,0,0
723544935,0.0,-0.06447047,0.27554342,0.0,0.0,0.0,0.0,0.0,0.0,0.0,0,0,0,0,0,0,0,0,0,0,0,1,1,0,0
723569023,0.0,-0.063619986,0.27678955,0.0,0.0,0.0,0.0,0.0,0.0,0.0,0,0,0,0,0,0,0,0,0,0,0,1,1,0,0
723588711,0.0,-0.06354063,0.27829257,0.0,0.0,0.0,0.0,0.0,0.0,0.0,0,0,0,0,0,0,0,0,0,0,0,1,1,0,0
723608741,0.0,-0.06367784,0.28034616,0.0,0.0,0.0,0.0,0.0,0.0,0.0,0,0,0,0,0,0,0,0,0,0,0,1,1,0,0
723632760,0.0,-0.06374408,0.2820551,0.0,0.0,0.0,0.0,0.0,0.0,0.0,0,0,0,0,0,0,0,0,0,0,0,1,1,0,0
723656704,0.0,-0.0637417,0.28328,0.0,0.0,0.0,0.0,0.0,0.0,0.0,0,0,0,0,0,0,0,0,0,0,0,1,1,0,0
723677049,0.0,-0.06372784,0.28489128,0.0,0.0,0.0,0.0,0.0,0.0,0.0,0,0,0,0,0,0,0,0,0,0,0,1,1,0,0
723700745,0.0,-0.06372319,0.28748676,0.0,0.0,0.0,0.0,0.0,0.0,0.0,0,0,0,0,0,0,0,0,0,0,0,1,1,0,0
723720721,0.0,-0.06423049,0.29037032,0.0,0.0,0.0,0.0,0.0,0.0,0.0,0,0,0,0,0,0,0,0,0,0,0,1,1,0,0
723744701,0.0,-0.06543147,0.2924209,0.0,0.0,0.0,0.0,0.0,0.0,0.0,0,0,0,0,0,0,0,0,0,0,0,1,1,0,0
723764694,0.0,-0.06678853,0.29336068,0.0,0.0,0.0,0.0,0.0,0.0,0.0,0,0,0,0,0,0,0,0,0,0,0,1,1,0,0
723785075,0.0,-0.069080055,0.29380417,0.0,0.0,0.0,0.0,0.0,0.0,0.0,0,0,0,0,0,0,0,0,0,0,0,1,1,0,0
723808964,0.0,-0.073205225,0.29428178,0.0,0.0,0.0,0.0,0.0,0.0,0.0,0,0,0,0,0,0,0,0,0,0,0,1,1,0,0
723832953,0.0,-0.07833131,0.29486918,0.0,0.0,0.0,0.0,0.0,0.0,0.0,0,0,0,0,0,0,0,0,0,0,0,1,1,0,0
723857106,0.0,-0.08245558,0.2954905,0.0,0.0,0.0,0.0,0.0,0.0,0.0,0,0,0,0,0,0,0,0,0,0,0,1,1,0,0
723880767,0.0,-0.08398846,0.29610285,0.0,0.0,0.0,0.0,0.0,0.0,0.0,0,0,0,0,0,0,0,0,0,0,0,1,1,0,0
723904746,0.0,-0.0837473,0.29645634,0.0,0.0,0.0,0.0,0.0,0.0,0.0,0,0,0,0,0,0,0,0,0,0,0,1,1,0,0
723929479,0.0,-0.08386433,0.29646707,0.0,0.0,0.0,0.0,0.0,0.0,0.0,0,0,0,0,0,0,0,0,0,0,0,1,1,0,0
723952764,0.0,-0.0849674,0.2964018,0.0,0.0,0.0,0.0,0.0,0.0,0.0,0,0,0,0,0,0,0,0,0,0,0,1,1,0,0
723976772,0.0,-0.08636471,0.29687336,0.0,0.0,0.0,0.0,0.0,0.0,0.0,0,0,0,0,0,0,0,0,0,0,0,1,1,0,0
724001071,0.0,-0.087677665,0.2983048,0.0,0.0,0.0,0.0,0.0,0.0,0.0,0,0,0,0,0,0,0,0,0,0,0,1,1,0,0
724024765,0.0,-0.088901825,0.29973695,0.0,0.0,0.0,0.0,0.0,0.0,0.0,0,0,0,0,0,0,0,0,0,0,0,1,1,0,0
724049089,0.0,-0.0901097,0.30048364,0.0,0.0,0.0,0.0,0.0,0.0,0.0,0,0,0,0,0,0,0,0,0,0,0,1,1,0,0
724073051,0.0,-0.09082263,0.3017235,0.0,0.0,0.0,0.0,0.0,0.0,0.0,0,0,0,0,0,0,0,0,0,0,0,1,1,0,0
724096928,0.0,-0.09084956,0.30402654,0.0,0.0,0.0,0.0,0.0,0.0,0.0,0,0,0,0,0,0,0,0,0,0,0,1,1,0,0
724120772,0.0,-0.09122621,0.30612805,0.0,0.0,0.0,0.0,0.0,0.0,0.0,0,0,0,0,0,0,0,0,0,0,0,1,1,0,0
724145133,0.0,-0.09237274,0.30794695,0.0,0.0,0.0,0.0,0.0,0.0,0.0,0,0,0,0,0,0,0,0,0,0,0,1,1,0,0
724168930,0.0,-0.09373526,0.30994976,0.0,0.0,0.0,0.0,0.0,0.0,0.0,0,0,0,0,0,0,0,0,0,0,0,1,1,0,0
724192919,0.0,-0.09502685,0.31132922,0.0,0.0,0.0,0.0,0.0,0.0,0.0,0,0,0,0,0,0,0,0,0,0,0,1,1,0,0
724217096,0.0,-0.09574363,0.31294006,0.0,0.0,0.0,0.0,0.0,0.0,0.0,0,0,0,0,0,0,0,0,0,0,0,1,1,0,0
724241078,0.0,-0.09524928,0.31699842,0.0,0.0,0.0,0.0,0.0,0.0,0.0,0,0,0,0,0,0,0,0,0,0,0,1,1,0,0
724264801,0.0,-0.09340733,0.32291144,0.0,0.0,0.0,0.0,0.0,0.0,0.0,0,0,0,0,0,0,0,0,0,0,0,1,1,0,0
724289314,0.0,-0.09130458,0.32753724,0.0,0.0,0.0,0.0,0.0,0.0,0.0,0,0,0,0,0,0,0,0,0,0,0,1,1,0,0
724312958,0.0,-0.09038193,0.329582,0.0,0.0,0.0,0.0,0.0,0.0,0.0,0,0,0,0,0,0,0,0,0,0,0,1,1,0,0
724336927,0.0,-0.08944013,0.33067623,0.0,0.0,0.0,0.0,0.0,0.0,0.0,0,0,0,0,0,0,0,0,0,0,0,1,1,0,0
724361080,0.0,-0.087247565,0.3326712,0.0,0.0,0.0,0.0,0.0,0.0,0.0,0,0,0,0,0,0,0,0,0,0,0,1,1,0,0
724384973,0.0,-0.08560916,0.3351852,0.0,0.0,0.0,0.0,0.0,0.0,0.0,0,0,0,0,0,0,0,0,0,0,0,1,1,0,0
724408942,0.0,-0.085433066,0.33696795,0.0,0.0,0.0,0.0,0.0,0.0,0.0,0,0,0,0,0,0,0,0,0,0,0,1,1,0,0
724433309,0.0,-0.085688815,0.33887663,0.0,0.0,0.0,0.0,0.0,0.0,0.0,0,0,0,0,0,0,0,0,0,0,0,1,1,0,0
724456945,0.0,-0.08581781,0.34122393,0.0,0.0,0.0,0.0,0.0,0.0,0.0,0,0,0,0,0,0,0,0,0,0,0,1,1,0,0
724480741,0.0,-0.08581539,0.34296197,0.0,0.0,0.0,0.0,0.0,0.0,0.0,0,0,0,0,0,0,0,0,0,0,0,1,1,0,0
724505054,0.0,-0.08578925,0.34414014,0.0,0.0,0.0,0.0,0.0,0.0,0.0,0,0,0,0,0,0,0,0,0,0,0,1,1,0,0
724529079,0.0,-0.085780054,0.3447329,0.0,0.0,0.0,0.0,0.0,0.0,0.0,0,0,0,0,0,0,0,0,0,0,0,1,1,0,0
724552976,0.0,-0.08679439,0.34497014,0.0,0.0,0.0,0.0,0.0,0.0,0.0,0,0,0,0,0,0,0,0,0,0,0,1,1,0,0
724577068,0.0,-0.08970253,0.34568837,0.0,0.0,0.0,0.0,0.0,0.0,0.0,0,0,0,0,0,0,0,0,0,0,0,1,1,0,0
724600939,0.0,-0.092603765,0.34690288,0.0,0.0,0.0,0.0,0.0,0.0,0.0,0,0,0,0,0,0,0,0,0,0,0,1,1,0,0
724625045,0.0,-0.093612686,0.34795764,0.0,0.0,0.0,0.0,0.0,0.0,0.0,0,0,0,0,0,0,0,0,0,0,0,1,1,0,0
724649058,0.0,-0.0934174,0.34835848,0.0,0.0,0.0,0.0,0.0,0.0,0.0,0,0,0,0,0,0,0,0,0,0,0,1,1,0,0
724668779,0.0,-0.09314768,0.34854892,0.0,0.0,0.0,0.0,0.0,0.0,0.0,0,0,0,0,0,0,0,0,0,0,0,1,1,0,0
724692665,0.0,-0.09359256,0.34978524,0.0,0.0,0.0,0.0,0.0,0.0,0.0,0,0,0,0,0,0,0,0,0,0,0,1,1,0,0
724712668,0.0,-0.09482238,0.35219583,0.0,0.0,0.0,0.0,0.0,0.0,0.0,0,0,0,0,0,0,0,0,0,0,0,1,1,0,0
724732694,0.0,-0.09569601,0.35433784,0.0,0.0,0.0,0.0,0.0,0.0,0.0,0,0,0,0,0,0,0,0,0,0,0,1,1,0,0
724752705,0.0,-0.09577803,0.355404,0.0,0.0,0.0,0.0,0.0,0.0,0.0,0,0,0,0,0,0,0,0,0,0,0,1,1,0,0
724776746,0.0,-0.09563727,0.3556274,0.0,0.0,0.0,0.0,0.0,0.0,0.0,0,0,0,0,0,0,0,0,0,0,0,1,1,0,0
724800705,0.0,-0.0955692,0.35550117,0.0,0.0,0.0,0.0,0.0,0.0,0.0,0,0,0,0,0,0,0,0,0,0,0,1,1,0,0
724820700,0.0,-0.09557161,0.35541078,0.0,0.0,0.0,0.0,0.0,0.0,0.0,0,0,0,0,0,0,0,0,0,0,0,1,1,0,0
724840949,0.0,-0.09558582,0.35540208,0.0,0.0,0.0,0.0,0.0,0.0,0.0,0,0,0,0,0,0,0,0,0,0,0,1,1,0,0
724865275,0.0,-0.09559061,0.3554166,0.0,0.0,0.0,0.0,0.0,0.0,0.0,0,0,0,0,0,0,0,0,0,0,0,1,1,0,0
724888942,0.0,-0.09609589,0.3556725,0.0,0.0,0.0,0.0,0.0,0.0,0.0,0,0,0,0,0,0,0,0,0,0,0,1,1,0,0
724912942,0.0,-0.09729428,0.35675976,0.0,0.0,0.0,0.0,0.0,0.0,0.0,0,0,0,0,0,0,0,0,0,0,0,1,1,0,0
724937144,0.0,-0.09814448,0.3588536,0.0,0.0,0.0,0.0,0.0,0.0,0.0,0,0,0,0,0,0,0,0,0,0,0,1,1,0,0
724960948,0.0,-0.098223984,0.36115664,0.0,0.0,0.0,0.0,0.0,0.0,0.0,0,0,0,0,0,0,0,0,0,0,0,1,1,0,0
724984738,0.0,-0.098086886,0.36309093,0.0,0.0,0.0,0.0,0.0,0.0,0.0,0,0,0,0,0,0,0,0,0,0,0,1,1,0,0
725009052,0.0,-0.09802065,0.36534578,0.0,0.0,0.0,0.0,0.0,0.0,0.0,0,0,0,0,0,0,0,0,0,0,0,1,1,0,0
725032732,0.0,-0.09802303,0.36779132,0.0,0.0,0.0,0.0,0.0,0.0,0.0,0,0,0,0,0,0,0,0,0,0,0,1,1,0,0
725056950,0.0,-0.09803686,0.36949787,0.0,0.0,0.0,0.0,0.0,0.0,0.0,0,0,0,0,0,0,0,0,0,0,0,1,1,0,0
725081069,0.0,-0.09804152,0.3711429,0.0,0.0,0.0,0.0,0.0,0.0,0.0,0,0,0,0,0,0,0,0,0,0,0,1,1,0,0
725105002,0.0,-0.09804053,0.37315878,0.0,0.0,0.0,0.0,0.0,0.0,0.0,0,0,0,0,0,0,0,0,0,0,0,1,1,0,0
725128950,0.0,-0.098039255,0.37482598,0.0,0.0,0.0,0.0,0.0,0.0,0.0,0,0,0,0,0,0,0,0,0,0,0,1,1,0,0
725153049,0.0,-0.09803897,0.375794,0.0,0.0,0.0,0.0,0.0,0.0,0.0,0,0,0,0,0,0,0,0,0,0,0,1,1,0,0
725176729,0.0,-0.09803912,0.3765719,0.0,0.0,0.0,0.0,0.0,0.0,0.0,0,0,0,0,0,0,0,0,0,0,0,1,1,0,0
725200742,0.0,-0.09854554,0.3781631,0.0,0.0,0.0,0.0,0.0,0.0,0.0,0,0,0,0,0,0,0,0,0,0,0,1,1,0,0
725225052,0.0,-0.09974525,0.38058978,0.0,0.0,0.0,0.0,0.0,0.0,0.0,0,0,0,0,0,0,0,0,0,0,0,1,1,0,0
725248768,0.0,-0.10059571,0.38266826,0.0,0.0,0.0,0.0,0.0,0.0,0.0,0,0,0,0,0,0,0,0,0,0,0,1,1,0,0
725268959,0.0,-0.10067507,0.38370773,0.0,0.0,0.0,0.0,0.0,0.0,0.0,0,0,0,0,0,0,0,0,0,0,0,1,1,0,0
725288946,0.0,-0.101044156,0.38418263,0.0,0.0,0.0,0.0,0.0,0.0,0.0,0,0,0,0,0,0,0,0,0,0,0,1,1,0,0
725312722,0.0,-0.102177605,0.38440347,0.0,0.0,0.0,0.0,0.0,0.0,0.0,0,0,0,0,0,0,0,0,0,0,0,1,1,0,0
725336768,0.0,-0.10303048,0.38439208,0.0,0.0,0.0,0.0,0.0,0.0,0.0,0,0,0,0,0,0,0,0,0,0,0,1,1,0,0
725360793,0.0,-0.103123695,0.38459352,0.0,0.0,0.0,0.0,0.0,0.0,0.0,0,0,0,0,0,0,0,0,0,0,0,1,1,0,0
725380729,0.0,-0.10299113,0.38516796,0.0,0.0,0.0,0.0,0.0,0.0,0.0,0,0,0,0,0,0,0,0,0,0,0,1,1,0,0
725405071,0.0,-0.103430204,0.3858385,0.0,0.0,0.0,0.0,0.0,0.0,0.0,0,0,0,0,0,0,0,0,0,0,0,1,1,0,0
725428735,0.0,-0.104631014,0.3869694,0.0,0.0,0.0,0.0,0.0,0.0,0.0,0,0,0,0,0,0,0,0,0,0,0,1,1,0,0
725448764,0.0,-0.10549508,0.38850036,0.0,0.0,0.0,0.0,0.0,0.0,0.0,0,0,0,0,0,0,0,0,0,0,0,1,1,0,0
725469009,0.0,-0.10608553,0.39033794,0.0,0.0,0.0,0.0,0.0,0.0,0.0,0,0,0,0,0,0,0,0,0,0,0,1,1,0,0
725489029,0.0,-0.10765345,0.39295712,0.0,0.0,0.0,0.0,0.0,0.0,0.0,0,0,0,0,0,0,0,0,0,0,0,1,1,0,0
725513058,0.0,-0.10963612,0.39530733,0.0,0.0,0.0,0.0,0.0,0.0,0.0,0,0,0,0,0,0,0,0,0,0,0,1,1,0,0
725536798,0.0,-0.110568054,0.39665848,0.0,0.0,0.0,0.0,0.0,0.0,0.0,0,0,0,0,0,0,0,0,0,0,0,1,1,0,0
725560701,0.0,-0.11103049,0.39794195,0.0,0.0,0.0,0.0,0.0,0.0,0.0,0,0,0,0,0,0,0,0,0,0,0,1,1,0,0
725585039,0.0,-0.11304411,0.39964494,0.0,0.0,0.0,0.0,0.0,0.0,0.0,0,0,0,0,0,0,0,0,0,0,0,1,1,0,0
725608695,0.0,-0.11622916,0.40126732,0.0,0.0,0.0,0.0,0.0,0.0,0.0,0,0,0,0,0,0,0,0,0,0,0,1,1,0,0
725632726,0.0,-0.11802444,0.40227997,0.0,0.0,0.0,0.0,0.0,0.0,0.0,0,0,0,0,0,0,0,0,0,0,0,1,1,0,0
725657120,0.0,-0.11806416,0.40258542,0.0,0.0,0.0,0.0,0.0,0.0,0.0,0,0,0,0,0,0,0,0,0,0,0,1,1,0,0
725680758,0.0,-0.117727295,0.40274885,0.0,0.0,0.0,0.0,0.0,0.0,0.0,0,0,0,0,0,0,0,0,0,0,0,1,1,0,0
725704923,0.0,-0.11759504,0.4032472,0.0,0.0,0.0,0.0,0.0,0.0,0.0,0,0,0,0,0,0,0,0,0,0,0,1,1,0,0
725729325,0.0,-0.11761212,0.40364823,0.0,0.0,0.0,0.0,0.0,0.0,0.0,0,0,0,0,0,0,0,0,0,0,0,1,1,0,0
725753045,0.0,-0.11764434,0.40369886,0.0,0.0,0.0,0.0,0.0,0.0,0.0,0,0,0,0,0,0,0,0,0,0,0,1,1,0,0
725777024,0.0,-0.1176529,0.4038879,0.0,0.0,0.0,0.0,0.0,0.0,0.0,0,0,0,0,0,0,0,0,0,0,0,1,1,0,0
725801089,0.0,-0.11764976,0.40444562,0.0,0.0,0.0,0.0,0.0,0.0,0.0,0,0,0,0,0,0,0,0,0,0,0,1,1,0,0
725825010,0.0,-0.1176469,0.40511248,0.0,0.0,0.0,0.0,0.0,0.0,0.0,0,0,0,0,0,0,0,0,0,0,0,1,1,0,0
725846399,0.0,-0.11764647,0.4062452,0.0,0.0,0.0,0.0,0.0,0.0,0.0,0,0,0,0,0,0,0,0,0,0,0,1,1,0,0
725870348,0.0,-0.11764687,0.4077776,0.0,0.0,0.0,0.0,0.0,0.0,0.0,0,0,0,0,0,0,0,0,0,0,0,1,1,0,0
725890326,0.0,-0.117647104,0.4088687,0.0,0.0,0.0,0.0,0.0,0.0,0.0,0,0,0,0,0,0,0,0,0,0,0,1,1,0,0
725910651,0.0,-0.117647104,0.4094696,0.0,0.0,0.0,0.0,0.0,0.0,0.0,0,0,0,0,0,0,0,0,0,0,0,1,1,0,0
725934352,0.0,-0.11764707,0.40972686,0.0,0.0,0.0,0.0,0.0,0.0,0.0,0,0,0,0,0,0,0,0,0,0,0,1,1,0,0
725954356,0.0,-0.11764705,0.40995318,0.0,0.0,0.0,0.0,0.0,0.0,0.0,0,0,0,0,0,0,0,0,0,0,0,1,1,0,0
725978333,0.0,-0.11764706,0.41048416,0.0,0.0,0.0,0.0,0.0,0.0,0.0,0,0,0,0,0,0,0,0,0,0,0,1,1,0,0
726002348,0.0,-0.11764706,0.41113386,0.0,0.0,0.0,0.0,0.0,0.0,0.0,0,0,0,0,0,0,0,0,0,0,0,1,1,0,0
726022325,0.0,-0.11764706,0.41176772,0.0,0.0,0.0,0.0,0.0,0.0,0.0,0,0,0,0,0,0,0,0,0,0,0,1,1,0,0
726046343,0.0,-0.117140755,0.41237247,0.0,0.0,0.0,0.0,0.0,0.0,0.0,0,0,0,0,0,0,0,0,0,0,0,1,1,0,0
726066376,0.0,-0.11594105,0.4129696,0.0,0.0,0.0,0.0,0.0,0.0,0.0,0,0,0,0,0,0,0,0,0,0,0,1,1,0,0
726090657,0.0,-0.115090564,0.4133207,0.0,0.0,0.0,0.0,0.0,0.0,0.0,0,0,0,0,0,0,0,0,0,0,0,1,1,0,0
726110323,0.0,-0.11501121,0.4133335,0.0,0.0,0.0,0.0,0.0,0.0,0.0,0,0,0,0,0,0,0,0,0,0,0,1,1,0,0
726134632,0.0,-0.11514842,0.41376725,0.0,0.0,0.0,0.0,0.0,0.0,0.0,0,0,0,0,0,0,0,0,0,0,0,1,1,0,0
726154328,0.0,-0.11521467,0.41516945,0.0,0.0,0.0,0.0,0.0,0.0,0.0,0,0,0,0,0,0,0,0,0,0,0,1,1,0,0
726178539,0.0,-0.115212284,0.4165982,0.0,0.0,0.0,0.0,0.0,0.0,0.0,0,0,0,0,0,0,0,0,0,0,0,1,1,0,0
726198734,0.0,-0.11519842,0.41734934,0.0,0.0,0.0,0.0,0.0,0.0,0.0,0,0,0,0,0,0,0,0,0,0,0,1,1,0,0
726218345,0.0,-0.11519377,0.41809377,0.0,0.0,0.0,0.0,0.0,0.0,0.0,0,0,0,0,0,0,0,0,0,0,0,1,1,0,0
726242697,0.0,-0.11519476,0.4189684,0.0,0.0,0.0,0.0,0.0,0.0,0.0,0,0,0,0,0,0,0,0,0,0,0,1,1,0,0
726262582,0.0,-0.11519604,0.41964364,0.0,0.0,0.0,0.0,0.0,0.0,0.0,0,0,0,0,0,0,0,0,0,0,0,1,1,0,0
726286352,0.0,-0.115196325,0.42071742,0.0,0.0,0.0,0.0,0.0,0.0,0.0,0,0,0,0,0,0,0,0,0,0,0,1,1,0,0
726310516,0.0,-0.115196176,0.42222637,0.0,0.0,0.0,0.0,0.0,0.0,0.0,0,0,0,0,0,0,0,0,0,0,0,1,1,0,0
726330344,0.0,-0.11519607,0.42307147,0.0,0.0,0.0,0.0,0.0,0.0,0.0,0,0,0,0,0,0,0,0,0,0,0,1,1,0,0
726354333,0.0,-0.11519605,0.42308828,0.0,0.0,0.0,0.0,0.0,0.0,0.0,0,0,0,0,0,0,0,0,0,0,0,1,1,0,0
726378683,0.0,-0.115196064,0.422929,0.0,0.0,0.0,0.0,0.0,0.0,0.0,0,0,0,0,0,0,0,0,0,0,0,1,1,0,0
726398380,0.0,-0.11519608,0.42286685,0.0,0.0,0.0,0.0,0.0,0.0,0.0,0,0,0,0,0,0,0,0,0,0,0,1,1,0,0
726418373,0.0,-0.11519609,0.42312396,0.0,0.0,0.0,0.0,0.0,0.0,0.0,0,0,0,0,0,0,0,0,0,0,0,1,1,0,0
726438542,0.0,-0.11519609,0.4237289,0.0,0.0,0.0,0.0,0.0,0.0,0.0,0,0,0,0,0,0,0,0,0,0,0,1,1,0,0
726462335,0.0,-0.11519608,0.424151,0.0,0.0,0.0,0.0,0.0,0.0,0.0,0,0,0,0,0,0,0,0,0,0,0,1,1,0,0
726482332,0.0,-0.11519608,0.42418852,0.0,0.0,0.0,0.0,0.0,0.0,0.0,0,0,0,0,0,0,0,0,0,0,0,1,1,0,0
726502306,0.0,-0.11519608,0.42411974,0.0,0.0,0.0,0.0,0.0,0.0,0.0,0,0,0,0,0,0,0,0,0,0,0,1,1,0,0
726526352,0.0,-0.11519608,0.42433587,0.0,0.0,0.0,0.0,0.0,0.0,0.0,0,0,0,0,0,0,0,0,0,0,0,1,1,0,0
726550289,0.0,-0.11519608,0.42492697,0.0,0.0,0.0,0.0,0.0,0.0,0.0,0,0,0,0,0,0,0,0,0,0,0,1,1,0,0
726570297,0.0,-0.114689775,0.42535195,0.0,0.0,0.0,0.0,0.0,0.0,0.0,0,0,0,0,0,0,0,0,0,0,0,1,1,0,0
726590312,0.0,-0.11298377,0.42564213,0.0,0.0,0.0,0.0,0.0,0.0,0.0,0,0,0,0,0,0,0,0,0,0,0,1,1,0,0
726614335,0.0,-0.11093358,0.4261639,0.0,0.0,0.0,0.0,0.0,0.0,0.0,0,0,0,0,0,0,0,0,0,0,0,1,1,0,0
726634334,0.0,-0.11000375,0.42654878,0.0,0.0,0.0,0.0,0.0,0.0,0.0,0,0,0,0,0,0,0,0,0,0,0,1,1,0,0
726658325,0.0,-0.1100616,0.42658883,0.0,0.0,0.0,0.0,0.0,0.0,0.0,0,0,0,0,0,0,0,0,0,0,0,1,1,0,0
726678319,0.0,-0.11026506,0.42677712,0.0,0.0,0.0,0.0,0.0,0.0,0.0,0,0,0,0,0,0,0,0,0,0,0,1,1,0,0
726698318,0.0,-0.11032891,0.4275855,0.0,0.0,0.0,0.0,0.0,0.0,0.0,0,0,0,0,0,0,0,0,0,0,0,1,1,0,0
726718316,0.0,-0.11031266,0.42909175,0.0,0.0,0.0,0.0,0.0,0.0,0.0,0,0,0,0,0,0,0,0,0,0,0,1,1,0,0
726742336,0.0,-0.110294156,0.4307345,0.0,0.0,0.0,0.0,0.0,0.0,0.0,0,0,0,0,0,0,0,0,0,0,0,1,1,0,0
726762348,0.0,-0.10978419,0.43154433,0.0,0.0,0.0,0.0,0.0,0.0,0.0,0,0,0,0,0,0,0,0,0,0,0,1,1,0,0
726786355,0.0,-0.108586766,0.43177083,0.0,0.0,0.0,0.0,0.0,0.0,0.0,0,0,0,0,0,0,0,0,0,0,0,1,1,0,0
726810672,0.0,-0.107231535,0.4321937,0.0,0.0,0.0,0.0,0.0,0.0,0.0,0,0,0,0,0,0,0,0,0,0,0,1,1,0,0
726834315,0.0,-0.1059526,0.4325545,0.0,0.0,0.0,0.0,0.0,0.0,0.0,0,0,0,0,0,0,0,0,0,0,0,1,1,0,0
726858339,0.0,-0.10523907,0.432605,0.0,0.0,0.0,0.0,0.0,0.0,0.0,0,0,0,0,0,0,0,0,0,0,0,1,1,0,0
726882685,0.0,-0.105225846,0.43255302,0.0,0.0,0.0,0.0,0.0,0.0,0.0,0,0,0,0,0,0,0,0,0,0,0,1,1,0,0
726902345,0.0,-0.105360664,0.43252394,0.0,0.0,0.0,0.0,0.0,0.0,0.0,0,0,0,0,0,0,0,0,0,0,0,1,1,0,0
726926357,0.0,-0.10490678,0.43252337,0.0,0.0,0.0,0.0,0.0,0.0,0.0,0,0,0,0,0,0,0,0,0,0,0,1,1,0,0
726946352,0.0,-0.10370005,0.43252882,0.0,0.0,0.0,0.0,0.0,0.0,0.0,0,0,0,0,0,0,0,0,0,0,0,1,1,0,0
726966355,0.0,-0.1023304,0.43253097,0.0,0.0,0.0,0.0,0.0,0.0,0.0,0,0,0,0,0,0,0,0,0,0,0,1,1,0,0
726986351,0.0,-0.100541666,0.4325307,0.0,0.0,0.0,0.0,0.0,0.0,0.0,0,0,0,0,0,0,0,0,0,0,0,1,1,0,0
727010553,0.0,-0.09862996,0.4325302,0.0,0.0,0.0,0.0,0.0,0.0,0.0,0,0,0,0,0,0,0,0,0,0,0,1,1,0,0
727030358,0.0,-0.097767495,0.43253008,0.0,0.0,0.0,0.0,0.0,0.0,0.0,0,0,0,0,0,0,0,0,0,0,0,1,1,0,0
727054313,0.0,-0.09782313,0.4325301,0.0,0.0,0.0,0.0,0.0,0.0,0.0,0,0,0,0,0,0,0,0,0,0,0,1,1,0,0
727078569,0.0,-0.098012574,0.43253016,0.0,0.0,0.0,0.0,0.0,0.0,0.0,0,0,0,0,0,0,0,0,0,0,0,1,1,0,0
727098684,0.0,-0.09807168,0.43253013,0.0,0.0,0.0,0.0,0.0,0.0,0.0,0,0,0,0,0,0,0,0,0,0,0,1,1,0,0
727122342,0.0,-0.09805643,0.43253013,0.0,0.0,0.0,0.0,0.0,0.0,0.0,0,0,0,0,0,0,0,0,0,0,0,1,1,0,0
727146541,0.0,-0.098039225,0.43253013,0.0,0.0,0.0,0.0,0.0,0.0,0.0,0,0,0,0,0,0,0,0,0,0,0,1,1,0,0
727166393,0.0,-0.097023234,0.43277898,0.0,0.0,0.0,0.0,0.0,0.0,0.0,0,0,0,0,0,0,0,0,0,0,0,1,1,0,0
727190315,0.0,-0.09411966,0.4336176,0.0,0.0,0.0,0.0,0.0,0.0,0.0,0,0,0,0,0,0,0,0,0,0,0,1,1,0,0
727210326,0.0,-0.09122043,0.4348743,0.0,0.0,0.0,0.0,0.0,0.0,0.0,0,0,0,0,0,0,0,0,0,0,0,1,1,0,0
727234617,0.0,-0.08970505,0.4359211,0.0,0.0,0.0,0.0,0.0,0.0,0.0,0,0,0,0,0,0,0,0,0,0,0,1,1,0,0
727254530,0.0,-0.08819388,0.43631074,0.0,0.0,0.0,0.0,0.0,0.0,0.0,0,0,0,0,0,0,0,0,0,0,0,1,1,0,0
727278674,0.0,-0.08641328,0.43624973,0.0,0.0,0.0,0.0,0.0,0.0,0.0,0,0,0,0,0,0,0,0,0,0,0,1,1,0,0
727302319,0.0,-0.08554491,0.43664867,0.0,0.0,0.0,0.0,0.0,0.0,0.0,0,0,0,0,0,0,0,0,0,0,0,1,1,0,0
727322334,0.0,-0.085066386,0.43805245,0.0,0.0,0.0,0.0,0.0,0.0,0.0,0,0,0,0,0,0,0,0,0,0,0,1,1,0,0
727342341,0.0,-0.08404699,0.43973747,0.0,0.0,0.0,0.0,0.0,0.0,0.0,0,0,0,0,0,0,0,0,0,0,0,1,1,0,0
727362342,0.0,-0.08224508,0.44108078,0.0,0.0,0.0,0.0,0.0,0.0,0.0,0,0,0,0,0,0,0,0,0,0,0,1,1,0,0
727382317,0.0,-0.07874102,0.44199386,0.0,0.0,0.0,0.0,0.0,0.0,0.0,0,0,0,0,0,0,0,0,0,0,0,1,1,0,0
727406372,0.0,-0.07476119,0.44256598,0.0,0.0,0.0,0.0,0.0,0.0,0.0,0,0,0,0,0,0,0,0,0,0,0,1,1,0,0
727430324,0.0,-0.07245777,0.44309637,0.0,0.0,0.0,0.0,0.0,0.0,0.0,0,0,0,0,0,0,0,0,0,0,0,1,1,0,0
727450315,0.0,-0.0713733,0.44342923,0.0,0.0,0.0,0.0,0.0,0.0,0.0,0,0,0,0,0,0,0,0,0,0,0,1,1,0,0
727474349,0.0,-0.0709173,0.44344836,0.0,0.0,0.0,0.0,0.0,0.0,0.0,0,0,0,0,0,0,0,0,0,0,0,1,1,0,0
727498500,0.0,-0.070961155,0.44339025,0.0,0.0,0.0,0.0,0.0,0.0,0.0,0,0,0,0,0,0,0,0,0,0,0,1,1,0,0
727522477,0.0,-0.07106665,0.44336504,0.0,0.0,0.0,0.0,0.0,0.0,0.0,0,0,0,0,0,0,0,0,0,0,0,1,1,0,0
727542488,0.0,-0.071097046,0.4433671,0.0,0.0,0.0,0.0,0.0,0.0,0.0,0,0,0,0,0,0,0,0,0,0,0,1,1,0,0
727562380,0.0,-0.07108761,0.4433728,0.0,0.0,0.0,0.0,0.0,0.0,0.0,0,0,0,0,0,0,0,0,0,0,0,1,1,0,0
727586500,0.0,-0.07057188,0.4433745,0.0,0.0,0.0,0.0,0.0,0.0,0.0,0,0,0,0,0,0,0,0,0,0,0,1,1,0,0
727610341,0.0,-0.068864234,0.44337398,0.0,0.0,0.0,0.0,0.0,0.0,0.0,0,0,0,0,0,0,0,0,0,0,0,1,1,0,0
727634353,0.0,-0.066815294,0.44337347,0.0,0.0,0.0,0.0,0.0,0.0,0.0,0,0,0,0,0,0,0,0,0,0,0,1,1,0,0
727658638,0.0,-0.06588623,0.44337338,0.0,0.0,0.0,0.0,0.0,0.0,0.0,0,0,0,0,0,0,0,0,0,0,0,1,1,0,0
727678311,0.0,-0.06594413,0.44337347,0.0,0.0,0.0,0.0,0.0,0.0,0.0,0,0,0,0,0,0,0,0,0,0,0,1,1,0,0
727698540,0.0,-0.066147454,0.44312462,0.0,0.0,0.0,0.0,0.0,0.0,0.0,0,0,0,0,0,0,0,0,0,0,0,1,1,0,0
727722537,0.0,-0.066211246,0.4425349,0.0,0.0,0.0,0.0,0.0,0.0,0.0,0,0,0,0,0,0,0,0,0,0,0,1,1,0,0
727742331,0.0,-0.066195,0.4421168,0.0,0.0,0.0,0.0,0.0,0.0,0.0,0,0,0,0,0,0,0,0,0,0,0,1,1,0,0
727766324,0.0,-0.06617651,0.44207782,0.0,0.0,0.0,0.0,0.0,0.0,0.0,0,0,0,0,0,0,0,0,0,0,0,1,1,0,0
727786297,0.0,-0.06566656,0.44214526,0.0,0.0,0.0,0.0,0.0,0.0,0.0,0,0,0,0,0,0,0,0,0,0,0,1,1,0,0
727806289,0.0,-0.06345651,0.44217783,0.0,0.0,0.0,0.0,0.0,0.0,0.0,0,0,0,0,0,0,0,0,0,0,0,1,1,0,0
727826373,0.0,-0.06020818,0.4421766,0.0,0.0,0.0,0.0,0.0,0.0,0.0,0,0,0,0,0,0,0,0,0,0,0,1,1,0,0
727846513,0.0,-0.058427982,0.4421698,0.0,0.0,0.0,0.0,0.0,0.0,0.0,0,0,0,0,0,0,0,0,0,0,0,1,1,0,0
727866652,0.0,-0.057393614,0.4421675,0.0,0.0,0.0,0.0,0.0,0.0,0.0,0,0,0,0,0,0,0,0,0,0,0,1,1,0,0
727890636,0.0,-0.054828465,0.44216803,0.0,0.0,0.0,0.0,0.0,0.0,0.0,0,0,0,0,0,0,0,0,0,0,0,1,1,0,0
727910324,0.0,-0.052057896,0.44216865,0.0,0.0,0.0,0.0,0.0,0.0,0.0,0,0,0,0,0,0,0,0,0,0,0,1,1,0,0
727930314,0.0,-0.051030092,0.44216877,0.0,0.0,0.0,0.0,0.0,0.0,0.0,0,0,0,0,0,0,0,0,0,0,0,1,1,0,0
727950314,0.0,-0.05119281,0.44216874,0.0,0.0,0.0,0.0,0.0,0.0,0.0,0,0,0,0,0,0,0,0,0,0,0,1,1,0,0
727974312,0.0,-0.051960498,0.44216868,0.0,0.0,0.0,0.0,0.0,0.0,0.0,0,0,0,0,0,0,0,0,0,0,0,1,1,0,0
727994328,0.0,-0.053731233,0.44216868,0.0,0.0,0.0,0.0,0.0,0.0,0.0,0,0,0,0,0,0,0,0,0,0,0,1,1,0,0
728014313,0.0,-0.05626046,0.44216868,0.0,0.0,0.0,0.0,0.0,0.0,0.0,0,0,0,0,0,0,0,0,0,0,0,1,1,0,0
728035116,0.0,-0.05937986,0.44191977,0.0,0.0,0.0,0.0,0.0,0.0,0.0,0,0,0,0,0,0,0,0,0,0,0,1,1,0,0
728058333,0.0,-0.063075125,0.44133002,0.0,0.0,0.0,0.0,0.0,0.0,0.0,0,0,0,0,0,0,0,0,0,0,0,1,1,0,0
728078341,0.0,-0.06636132,0.44091198,0.0024948323,0.0,0.0,0.0,0.0,0.0,0.0,0,0,0,0,0,0,0,0,0,0,0,1,1,0,0
728098333,0.0,-0.06887729,0.440873,0.011400204,0.0,0.0,0.0,0.0,0.0,0.0,0,0,0,0,0,0,0,0,0,0,0,1,1,0,0
728118336,0.0,-0.07169504,0.44094047,0.026676616,0.0,0.0,0.0,0.0,0.0,0.0,0,0,0,0,0,0,0,0,0,0,0,1,1,0,0
728142648,0.0,-0.07477514,0.44097298,0.04404995,0.0,0.0,0.0,0.0,0.0,0.0,0,0,0,0,0,0,0,0,0,0,0,1,1,0,0
728162371,0.0,-0.07637416,0.44097182,0.05745784,0.0,0.0,0.0,0.0,0.0,0.0,0,0,0,0,0,0,0,0,0,0,0,1,1,0,0
728186342,0.0,-0.07686821,0.44096503,0.06400011,0.0,0.0,0.0,0.0,0.0,0.0,0,0,0,0,0,0,0,0,0,0,0,1,1,0,0
728210317,0.0,-0.07775027,0.44096273,0.065788046,0.0,0.0,0.0,0.0,0.0,0.0,0,0,0,0,0,0,0,0,0,0,0,1,1,0,0
728230315,0.0,-0.07848578,0.4409632,0.06566662,0.0,0.0,0.0,0.0,0.0,0.0,0,0,0,0,0,0,0,0,0,0,0,1,1,0,0
728250639,0.0,-0.07858485,0.44096383,0.065271646,0.0,0.0,0.0,0.0,0.0,0.0,0,0,0,0,0,0,0,0,0,0,0,1,1,0,0
728270324,0.0,-0.078477435,0.44096398,0.064650506,0.0,0.0,0.0,0.0,0.0,0.0,0,0,0,0,0,0,0,0,0,0,0,1,1,0,0
728294572,0.0,-0.078418344,0.44096392,0.06350039,0.0,0.0,0.0,0.0,0.0,0.0,0,0,0,0,0,0,0,0,0,0,0,1,1,0,0
728314702,0.0,-0.07841754,0.44096386,0.062199082,0.0,0.0,0.0,0.0,0.0,0.0,0,0,0,0,0,0,0,0,0,0,0,1,1,0,0
728338527,0.0,-0.07842881,0.44096383,0.060446527,0.0,0.0,0.0,0.0,0.0,0.0,0,0,0,0,0,0,0,0,0,0,0,1,1,0,0
728358690,0.0,-0.07843314,0.44096386,0.05805786,0.0,0.0,0.0,0.0,0.0,0.0,0,0,0,0,0,0,0,0,0,0,0,1,1,0,0
728382369,0.0,-0.07843253,0.4409639,0.054524563,0.0,0.0,0.0,0.0,0.0,0.0,0,0,0,0,0,0,0,0,0,0,0,1,1,0,0
728406529,0.0,-0.07843146,0.44096386,0.049694918,0.0,0.0,0.0,0.0,0.0,0.0,0,0,0,0,0,0,0,0,0,0,0,1,1,0,0
728426392,0.0,-0.07843118,0.44096383,0.046606243,0.0,0.0,0.0,0.0,0.0,0.0,0,0,0,0,0,0,0,0,0,0,0,1,1,0,0
728450516,0.0,-0.079443894,0.44096386,0.04840648,0.0,0.0,0.0,0.0,0.0,0.0,0,0,0,0,0,0,0,0,0,0,0,1,1,0,0
728470344,0.0,-0.08184339,0.4409639,0.053169295,0.0,0.0,0.0,0.0,0.0,0.0,0,0,0,0,0,0,0,0,0,0,0,1,1,0,0
728494320,0.0,-0.08354437,0.44096386,0.057071604,0.0,0.0,0.0,0.0,0.0,0.0,0,0,0,0,0,0,0,0,0,0,0,1,1,0,0
728514323,0.0,-0.08420938,0.44096383,0.060574777,0.0,0.0,0.0,0.0,0.0,0.0,0,0,0,0,0,0,0,0,0,0,0,1,1,0,0
728538695,0.0,-0.08513465,0.44096386,0.066593796,0.0,0.0,0.0,0.0,0.0,0.0,0,0,0,0,0,0,0,0,0,0,0,1,1,0,0
728562316,0.0,-0.08585264,0.4409639,0.0741196,0.0,0.0,0.0,0.0,0.0,0.0,0,0,0,0,0,0,0,0,0,0,0,1,1,0,0
728582327,0.0,-0.08644308,0.44096386,0.078216806,0.0,0.0,0.0,0.0,0.0,0.0,0,0,0,0,0,0,0,0,0,0,0,1,1,0,0
728602315,0.0,-0.088039584,0.44096383,0.078257166,0.0,0.0,0.0,0.0,0.0,0.0,0,0,0,0,0,0,0,0,0,0,0,1,1,0,0
728626478,0.0,-0.09104545,0.44096386,0.07746978,0.0,0.0,0.0,0.0,0.0,0.0,0,0,0,0,0,0,0,0,0,0,0,1,1,0,0
728650316,0.0,-0.09437509,0.44121277,0.077170916,0.0,0.0,0.0,0.0,0.0,0.0,0,0,0,0,0,0,0,0,0,0,0,1,1,0,0
728674316,0.0,-0.0965358,0.44205135,0.07621673,0.0,0.0,0.0,0.0,0.0,0.0,0,0,0,0,0,0,0,0,0,0,0,1,1,0,0
728698530,0.0,-0.09769485,0.44305915,0.07342782,0.0,0.0,0.0,0.0,0.0,0.0,0,0,0,0,0,0,0,0,0,0,0,1,1,0,0
728718736,0.0,-0.09820636,0.4437651,0.07008926,0.0,0.0,0.0,0.0,0.0,0.0,0,0,0,0,0,0,0,0,0,0,0,1,1,0,0
728738350,0.0,-0.09816842,0.44432643,0.06740581,0.0,0.0,0.0,0.0,0.0,0.0,0,0,0,0,0,0,0,0,0,0,0,1,1,0,0
728762346,0.0,-0.09805423,0.44464448,0.06307621,0.0,0.0,0.0,0.0,0.0,0.0,0,0,0,0,0,0,0,0,0,0,0,1,1,0,0
728786577,0.0,-0.098019466,0.44465208,0.055515215,0.0,0.0,0.0,0.0,0.0,0.0,0,0,0,0,0,0,0,0,0,0,0,1,1,0,0
728806586,0.0,-0.09802898,0.44459262,0.04808039,0.0,0.0,0.0,0.0,0.0,0.0,0,0,0,0,0,0,0,0,0,0,0,1,1,0,0
728830296,0.0,-0.0980393,0.44456917,0.043320816,0.0,0.0,0.0,0.0,0.0,0.0,0,0,0,0,0,0,0,0,0,0,0,1,1,0,0
728854380,0.0,-0.09804125,0.44457218,0.039026145,0.0,0.0,0.0,0.0,0.0,0.0,0,0,0,0,0,0,0,0,0,0,0,1,1,0,0
728878308,0.0,-0.09803995,0.44457784,0.029389754,0.0,0.0,0.0,0.0,0.0,0.0,0,0,0,0,0,0,0,0,0,0,0,1,1,0,0
728898696,0.0,-0.09803908,0.44457936,0.013696678,0.0,0.0,0.0,0.0,0.0,0.0,0,0,0,0,0,0,0,0,0,0,0,1,1,0,0
728918285,0.0,-0.09803902,0.4445788,0.001302186,0.0,0.0,0.0,0.0,0.0,0.0,0,0,0,0,0,0,0,0,0,0,0,1,1,0,0
728938300,0.0,-0.098039165,0.4445783,-0.0022008312,0.0,0.0,0.0,0.0,0.0,0.0,0,0,0,0,0,0,0,0,0,0,0,1,1,0,0
728958298,-0.004523477,-0.09652033,0.4445782,-0.0010682556,0.0,0.0,0.0,0.0,0.0,0.0,0,0,0,0,0,0,0,0,0,0,0,1,1,0,0
728982305,-0.01825763,-0.09292121,0.4445783,-0.0014901871,0.0,0.0,0.0,0.0,0.0,0.0,0,0,0,0,0,0,0,0,0,0,0,1,1,0,0
729002326,-0.034007,-0.09036974,0.44457832,-0.006955862,0.0,0.0,0.0,0.0,0.0,0.0,0,0,0,0,0,0,0,0,0,0,0,1,1,0,0
729026326,-0.042163547,-0.09013167,0.44457832,-0.02008652,0.0,0.0,0.0,0.0,0.0,0.0,0,0,0,0,0,0,0,0,0,0,0,1,1,0,0
729046341,-0.04309886,-0.09054332,0.44457832,-0.042693928,0.0,0.0,0.0,0.0,0.0,0.0,0,0,0,0,0,0,0,0,0,0,0,1,1,0,0
729070358,-0.040339474,-0.09074206,0.44457832,-0.08103989,0.0,0.0,0.0,0.0,0.0,0.0,0,0,0,0,0,0,0,0,0,0,0,1,1,0,0
729090329,-0.036121007,-0.090734884,0.44457832,-0.13606593,0.0,0.0,0.0,0.0,0.0,0.0,0,0,0,0,0,0,0,0,0,0,0,1,1,0,0
729114684,-0.033092063,-0.09069331,0.44457832,-0.18806827,0.0,0.0,0.0,0.0,0.0,0.0,0,0,0,0,0,0,0,0,0,0,0,1,1,0,0
729138521,-0.03179361,-0.090679355,0.44457832,-0.21889672,0.0,0.0,0.0,0.0,0.0,0.0,0,0,0,0,0,0,0,0,0,0,0,1,1,0,0
729158332,-0.0314043,-0.090682335,0.44457832,-0.22621138,0.0,0.0,0.0,0.0,0.0,0.0,0,0,0,0,0,0,0,0,0,0,0,1,1,0,0
729178517,-0.03201731,-0.09068617,0.44457832,-0.21728086,0.0,0.0,0.0,0.0,0.0,0.0,0,0,0,0,0,0,0,0,0,0,0,1,1,0,0
729198342,-0.033827893,-0.0901807,0.44457832,-0.19982852,0.0,0.0,0.0,0.0,0.0,0.0,0,0,0,0,0,0,0,0,0,0,0,1,1,0,0
729222655,-0.037895173,-0.088980556,0.44457832,-0.16765302,0.0,0.0,0.0,0.0,0.0,0.0,0,0,0,0,0,0,0,0,0,0,0,1,1,0,0
729246307,-0.0445723,-0.08812975,0.44432944,-0.11491529,0.0,0.0,0.0,0.0,0.0,0.0,0,0,0,0,0,0,0,0,0,0,0,1,1,0,0
729270351,-0.051269326,-0.088050365,0.4437397,-0.054918285,0.0,0.0,0.0,0.0,0.0,0.0,0,0,0,0,0,0,0,0,0,0,0,1,1,0,0
729294681,-0.051933967,-0.08818762,0.44332165,-0.009493944,0.0,0.0,0.0,0.0,0.0,0.0,0,0,0,0,0,0,0,0,0,0,0,1,1,0,0
729318548,-0.040313404,-0.08825389,0.44328263,0.007245592,0.0,0.0,0.0,0.0,0.0,0.0,0,0,0,0,0,0,0,0,0,0,0,1,1,0,0
729338362,-0.02081089,-0.08825151,0.44335008,0.004536507,0.0,0.0,0.0,0.0,0.0,0.0,0,0,0,0,0,0,0,0,0,0,0,1,1,0,0
729362324,-0.0053248866,-0.08773135,0.44313377,0.0002575622,0.0,0.0,0.0,0.0,0.0,0.0,0,0,0,0,0,0,0,0,0,0,0,1,1,0,0
729382303,0.0011021913,-0.08652699,0.44254285,-0.00079314306,0.0,0.0,0.0,0.0,0.0,0.0,0,0,0,0,0,0,0,0,0,0,0,1,1,0,0
729406374,0.0014499861,-0.0856775,0.44211796,-0.0003435227,0.0,0.0,0.0,0.0,0.0,0.0,0,0,0,0,0,0,0,0,0,0,0,1,1,0,0
729426545,0.000319983,-0.085599415,0.44207668,2.8368875e-05,0.0,0.0,0.0,0.0,0.0,0.0,0,0,0,0,0,0,0,0,0,0,0,1,1,0,0
729450309,-0.00016568763,-0.0857369,0.4421446,7.775022e-05,0.0,0.0,0.0,0.0,0.0,0.0,0,0,0,0,0,0,0,0,0,0,0,1,1,0,0
729474690,-0.00012388379,-0.08681561,0.44217777,2.3175753e-05,0.0,0.0,0.0,0.0,0.0,0.0,0,0,0,0,0,0,0,0,0,0,0,1,1,0,0
729494318,-1.33341955e-05,-0.09022512,0.44217676,-6.6606417e-06,0.0,0.0,0.0,0.0,0.0,0.0,0,0,0,0,0,0,0,0,0,0,0,1,1,0,0
729518353,1.9331042e-05,-0.093299024,0.4421699,-6.999465e-06,0.0,0.0,0.0,0.0,0.0,0.0,0,0,0,0,0,0,0,0,0,0,0,1,1,0,0
729538538,9.754392e-06,-0.090729445,0.44216755,-1.2822346e-06,0.0,0.0,0.0,0.0,0.0,0.0,0,0,0,0,0,0,0,0,0,0,0,1,1,0,0
729558355,-1.8080831e-07,-0.07601409,0.44216803,8.967845e-07,0.0,0.0,0.0,0.0,0.0,0.0,0,0,0,0,0,0,0,0,0,0,0,1,1,0,0
729582661,-1.9768768e-06,-0.048295844,0.44216865,5.8246803e-07,0.0,0.0,0.0,0.0,0.0,0.0,0,0,0,0,0,0,0,0,0,0,0,1,1,0,0
729606598,-6.9510475e-07,-0.019669915,0.44216877,3.9633292e-08,0.0,0.0,0.0,0.0,0.0,0.0,0,0,0,0,0,0,0,0,0,0,0,1,1,0,0
729630341,1.302434e-07,-0.001861919,0.44191986,-9.941081e-08,0.0,0.0,0.0,0.0,0.0,0.0,0,0,0,0,0,0,0,0,0,0,0,1,1,0,0
729654658,1.8424092e-07,0.0031636488,0.4408323,-4.4495827e-08,0.0,0.0,0.0,0.0,0.0,0.0,0,0,0,0,0,0,0,0,0,0,0,1,1,0,0
729674297,4.2578332e-08,0.0015336475,0.43923473,3.0237766e-09,0.0,0.0,0.0,0.0,0.0,0.0,0,0,0,0,0,0,0,0,0,0,0,1,1,0,0
729694350,-2.034341e-08,-5.2767642e-05,0.4383596,9.83035e-09,0.0,0.0,0.0,0.0,0.0,0.0,0,0,0,0,0,0,0,0,0,0,0,1,1,0,0
729714372,-1.5854953e-08,-0.00031981134,0.43834904,3.0404792e-09,0.0,0.0,0.0,0.0,0.0,0.0,0,0,0,0,0,0,0,0,0,0,0,1,1,0,0
729738317,-1.8752777e-09,-0.000107846274,0.43851653,-8.0139706e-10,0.0,0.0,0.0,0.0,0.0,0.0,0,0,0,0,0,0,0,0,0,0,0,1,1,0,0
729758345,2.4116824e-09,2.2771948e-05,0.43858048,-8.915117e-10,0.0,0.0,0.0,0.0,0.0,0.0,0,0,0,0,0,0,0,0,0,0,0,1,1,0,0
729782348,1.2583913e-09,2.953285e-05,0.43857133,-1.725117e-10,0.0,0.0,0.0,0.0,0.0,0.0,0,0,0,0,0,0,0,0,0,0,0,1,1,0,0
729802634,-7.2354813e-12,6.454088e-06,0.4385554,1.1082422e-10,0.0,0.0,0.0,0.0,0.0,0.0,0,0,0,0,0,0,0,0,0,0,0,1,1,0,0
729826545,-2.490865e-10,-3.3980348e-06,0.4385513,7.4733074e-11,0.0,0.0,0.0,0.0,0.0,0.0,0,0,0,0,0,0,0,0,0,0,0,1,1,0,0
729850305,-9.062742e-11,-2.5194781e-06,0.43855292,5.914783e-12,0.0,0.0,0.0,0.0,0.0,0.0,0,0,0,0,0,0,0,0,0,0,0,1,1,0,0
729870652,1.5285747e-11,-2.656273e-07,0.43855432,-1.2448236e-11,0.0,0.0,0.0,0.0,0.0,0.0,0,0,0,0,0,0,0,0,0,0,0,1,1,0,0
729894314,2.3394772e-11,3.9519688e-07,0.43855453,-5.7581695e-12,0.0,0.0,0.0,0.0,0.0,0.0,0,0,0,0,0,0,0,0,0,0,0,1,1,0,0
729918313,5.6518167e-12,1.9805002e-07,0.43855432,3.0975965e-13,0.0,0.0,0.0,0.0,0.0,0.0,0,0,0,0,0,0,0,0,0,0,0,1,1,0,0
729938372,-2.4925639e-12,-4.2008836e-09,0.43830532,1.2420048e-12,0.0,0.0,0.0,0.0,0.0,0.0,0,0,0,0,0,0,0,0,0,0,0,1,1,0,0
729962285,-2.0277848e-12,-4.0333646e-08,0.4377156,3.982988e-13,0.0,0.0,0.0,0.0,0.0,0.0,0,0,0,0,0,0,0,0,0,0,0,1,1,0,0
729986356,-2.6123862e-13,-1.4081783e-08,0.4365509,-9.6021776e-14,0.0,0.0,0.0,0.0,0.0,0.0,0,0,0,0,0,0,0,0,0,0,0,1,1,0,0
730010574,3.0053735e-13,2.6943592e-09,0.4322539,-1.13475825e-13,0.0,0.0,0.0,0.0,0.0,0.0,0,0,0,0,0,0,0,0,0,0,0,1,1,0,0
730030329,1.6221136e-13,3.7530734e-09,0.42467204,-2.3129842e-14,0.0,0.0,0.0,0.0,0.0,0.0,0,0,0,0,0,0,0,0,0,0,0,1,1,0,0
730054276,1.0915888e-15,8.592652e-10,0.41897854,1.3673244e-14,0.0,0.0,0.0,0.0,0.0,0.0,0,0,0,0,0,0,0,0,0,0,0,1,1,0,0
730074269,-3.136016e-14,-4.173889e-10,0.41686597,9.581821e-15,0.0,0.0,0.0,0.0,0.0,0.0,0,0,0,0,0,0,0,0,0,0,0,1,1,0,0
730094284,-1.18021835e-14,-3.2249417e-10,0.41545802,8.6330816e-16,0.0,0.0,0.0,0.0,0.0,0.0,0,0,0,0,0,0,0,0,0,0,0,1,1,0,0
730114364,1.7795836e-15,-3.743908e-11,0.41336036,-1.5572555e-15,0.0,0.0,0.0,0.0,0.0,0.0,0,0,0,0,0,0,0,0,0,0,0,1,1,0,0
730134341,2.9686576e-15,4.9314663e-11,0.41086984,-7.444977e-16,0.0,0.0,0.0,0.0,0.0,0.0,0,0,0,0,0,0,0,0,0,0,0,1,1,0,0
730158650,7.4852937e-16,2.5554272e-11,0.40712485,2.9822915e-17,0.0,0.0,0.0,0.0,0.0,0.0,0,0,0,0,0,0,0,0,0,0,0,1,1,0,0
730182304,-3.047078e-16,-2.135858e-13,0.40050435,1.5680471e-16,0.0,0.0,0.0,0.0,0.0,0.0,0,0,0,0,0,0,0,0,0,0,0,1,1,0,0
730202525,-2.5917165e-16,-5.0828543e-12,0.39157364,5.210383e-17,0.0,0.0,0.0,0.0,0.0,0.0,0,0,0,0,0,0,0,0,0,0,0,1,1,0,0
730222289,-3.6104405e-17,-1.8364297e-12,0.38359672,-1.1451046e-17,0.0,0.0,0.0,0.0,0.0,0.0,0,0,0,0,0,0,0,0,0,0,0,1,1,0,0
730243967,3.7408313e-17,3.1669199e-13,0.3791623,-1.443422e-17,0.0,0.0,0.0,0.0,0.0,0.0,0,0,0,0,0,0,0,0,0,0,0,1,1,0,0
730264290,2.0893203e-17,4.766281e-13,0.37684575,-3.0915435e-18,0.0,0.0,0.0,0.0,0.0,0.0,0,0,0,0,0,0,0,0,0,0,0,1,1,0,0
730287991,3.9547174e-19,1.1411381e-13,0.37461808,1.6840379e-18,0.0,0.0,0.0,0.0,0.0,0.0,0,0,0,0,0,0,0,0,0,0,0,1,1,0,0
730311931,-3.94508e-18,-5.1163107e-14,0.37250638,1.2276705e-18,0.0,0.0,0.0,0.0,0.0,0.0,0,0,0,0,0,0,0,0,0,0,0,1,1,0,0
730336326,-1.535254e-18,-4.125144e-14,0.3701712,1.2389669e-19,0.0,0.0,0.0,0.0,0.0,0.0,0,0,0,0,0,0,0,0,0,0,0,1,1,0,0
730359936,2.0519036e-19,-5.224991e-15,0.3662374,-1.94614e-19,0.0,0.0,0.0,0.0,0.0,0.0,0,0,0,0,0,0,0,0,0,0,0,1,1,0,0
730379922,3.7645026e-19,6.1469033e-15,0.3617567,-9.6176096e-20,0.0,0.0,0.0,0.0,0.0,0.0,0,0,0,0,0,0,0,0,0,0,0,1,1,0,0
730399952,9.8929134e-20,3.2945836e-15,0.35962686,2.5687884e-21,0.0,0.0,0.0,0.0,0.0,0.0,0,0,0,0,0,0,0,0,0,0,0,1,1,0,0
730420123,-3.715787e-20,1.3778261e-17,0.35971725,1.9782026e-20,0.0,0.0,0.0,0.0,0.0,0.0,0,0,0,0,0,0,0,0,0,0,0,1,1,0,0
730444242,-3.3102728e-20,-6.400398e-16,0.36016768,6.806989e-21,0.0,0.0,0.0,0.0,0.0,0.0,0,0,0,0,0,0,0,0,0,0,0,1,1,0,0
730463922,-4.9562647e-21,-2.3921015e-16,0.36031646,-1.3582639e-21,0.0,0.0,0.0,0.0,0.0,0.0,0,0,0,0,0,0,0,0,0,0,0,1,1,0,0
730484107,4.650559e-21,3.6935183e-17,0.36028323,-1.8348308e-21,0.0,0.0,0.0,0.0,0.0,0.0,0,0,0,0,0,0,0,0,0,0,0,1,1,0,0
730507929,2.6890226e-21,6.048967e-17,0.36024177,-4.1205048e-22,0.0,0.0,0.0,0.0,0.0,0.0,0,0,0,0,0,0,0,0,0,0,0,1,1,0,0
730531924,8.301464e-23,1.5120089e-17,0.360233,2.0702481e-22,0.0,0.0,0.0,0.0,0.0,0.0,0,0,0,0,0,0,0,0,0,0,0,1,1,0,0
730552213,-4.958767e-22,-6.257542e-18,0.36023787,1.5718728e-22,0.0,0.0,0.0,0.0,0.0,0.0,0,0,0,0,0,0,0,0,0,0,0,1,1,0,0
730571915,-1.9949555e-22,-5.2730833e-18,0.36024135,1.754627e-23,0.0,0.0,0.0,0.0,0.0,0.0,0,0,0,0,0,0,0,0,0,0,0,1,1,0,0
