timestamp,timestamp_last_signal,channel_count,rssi,rc_lost_frame_count,rc_total_frame_count,rc_ppm_frame_length,values[0],values[1],values[2],values[3],values[4],values[5],values[6],values[7],values[8],values[9],values[10],values[11],values[12],values[13],values[14],values[15],values[16],values[17],rc_failsafe,rc_lost,input_source
717079147,717079147,18,255,0,0,0,1094,1934,1094,1934,1233,1640,1094,1514,1514,1514,1514,1514,1514,1514,1514,1514,998,998,0,0,4
717099100,717099100,18,255,0,0,0,1094,1934,1094,1934,1233,1640,1094,1514,1514,1514,1514,1514,1514,1514,1514,1514,998,998,0,0,4
717123157,717123157,18,255,0,0,0,1094,1934,1094,1934,1233,1640,1094,1514,1514,1514,1514,1514,1514,1514,1514,1514,998,998,0,0,4
717147119,717147119,18,255,0,0,0,1094,1934,1094,1934,1233,1640,1094,1514,1514,1514,1514,1514,1514,1514,1514,1514,998,998,0,0,4
717167166,717167166,18,255,0,0,0,1094,1934,1094,1934,1233,1640,1094,1514,1514,1514,1514,1514,1514,1514,1514,1514,998,998,0,0,4
717187184,717187184,18,255,0,0,0,1094,1934,1094,1934,1233,1640,1094,1514,1514,1514,1514,1514,1514,1514,1514,1514,998,998,0,0,4
717211133,717211133,18,255,0,0,0,1094,1934,1094,1934,1233,1640,1094,1514,1514,1514,1514,1514,1514,1514,1514,1514,998,998,0,0,4
717231931,717231931,18,255,0,0,0,1094,1934,1094,1934,1233,1640,1094,1514,1514,1514,1514,1514,1514,1514,1514,1514,998,998,0,0,4
717252770,717252770,18,255,0,0,0,1094,1934,1094,1934,1233,1640,1094,1514,1514,1514,1514,1514,1514,1514,1514,1514,998,998,0,0,4
717272729,717272729,18,255,0,0,0,1094,1934,1094,1934,1233,1640,1094,1514,1514,1514,1514,1514,1514,1514,1514,1514,998,998,0,0,4
717292967,717292967,18,255,0,0,0,1094,1934,1094,1934,1233,1640,1094,1514,1514,1514,1514,1514,1514,1514,1514,1514,998,998,0,0,4
717316752,717316752,18,255,0,0,0,1094,1934,1094,1934,1233,1640,1094,1514,1514,1514,1514,1514,1514,1514,1514,1514,998,998,0,0,4
717340765,717340765,18,255,0,0,0,1094,1934,1094,1934,1233,1640,1094,1514,1514,1514,1514,1514,1514,1514,1514,1514,998,998,0,0,4
717364756,717364756,18,255,0,0,0,1094,1934,1094,1934,1233,1640,1094,1514,1514,1514,1514,1514,1514,1514,1514,1514,998,998,0,0,4
717389060,717389060,18,255,0,0,0,1094,1934,1094,1934,1233,1640,1094,1514,1514,1514,1514,1514,1514,1514,1514,1514,998,998,0,0,4
717410662,717410662,18,255,0,0,0,1094,1934,1094,1934,1233,1640,1094,1514,1514,1514,1514,1514,1514,1514,1514,1514,998,998,0,0,4
717430323,717430323,18,255,0,0,0,1094,1934,1094,1934,1233,1640,1094,1514,1514,1514,1514,1514,1514,1514,1514,1514,998,998,0,0,4
717450351,717450351,18,255,0,0,0,1094,1934,1094,1934,1233,1640,1094,1514,1514,1514,1514,1514,1514,1514,1514,1514,998,998,0,0,4
717474337,717474337,18,255,0,0,0,1094,1934,1094,1934,1233,1640,1094,1514,1514,1514,1514,1514,1514,1514,1514,1514,998,998,0,0,4
717494343,717494343,18,255,0,0,0,1094,1934,1094,1934,1233,1640,1094,1514,1514,1514,1514,1514,1514,1514,1514,1514,998,998,0,0,4
717518632,717518632,18,255,0,0,0,1094,1934,1094,1934,1233,1640,1094,1514,1514,1514,1514,1514,1514,1514,1514,1514,998,998,0,0,4
717542365,717542365,18,255,0,0,0,1094,1934,1094,1934,1233,1640,1094,1514,1514,1514,1514,1514,1514,1514,1514,1514,998,998,0,0,4
717562320,717562320,18,255,0,0,0,1094,1934,1094,1934,1233,1640,1094,1514,1514,1514,1514,1514,1514,1514,1514,1514,998,998,0,0,4
717583331,717583331,18,255,0,0,0,1094,1934,1094,1934,1233,1640,1094,1514,1514,1514,1514,1514,1514,1514,1514,1514,998,998,0,0,4
717607171,717607171,18,255,0,0,0,1094,1934,1094,1934,1233,1640,1094,1514,1514,1514,1514,1514,1514,1514,1514,1514,998,998,0,0,4
717631125,717631125,18,255,0,0,0,1094,1934,1094,1934,1233,1640,1094,1514,1514,1514,1514,1514,1514,1514,1514,1514,998,998,0,0,4
717651121,717651121,18,255,0,0,0,1094,1934,1094,1934,1233,1640,1094,1514,1514,1514,1514,1514,1514,1514,1514,1514,998,998,0,0,4
717675134,717675134,18,255,0,0,0,1094,1934,1094,1934,1233,1640,1094,1514,1514,1514,1514,1514,1514,1514,1514,1514,998,998,0,0,4
717695148,717695148,18,255,0,0,0,1094,1934,1094,1934,1233,1640,1094,1514,1514,1514,1514,1514,1514,1514,1514,1514,998,998,0,0,4
717719128,717719128,18,255,0,0,0,1094,1934,1094,1934,1233,1640,1094,1514,1514,1514,1514,1514,1514,1514,1514,1514,998,998,0,0,4
717739123,717739123,18,255,0,0,0,1094,1934,1094,1934,1233,1640,1094,1514,1514,1514,1514,1514,1514,1514,1514,1514,998,998,0,0,4
717759919,717759919,18,255,0,0,0,1094,1934,1094,1934,1233,1640,1094,1514,1514,1514,1514,1514,1514,1514,1514,1514,998,998,0,0,4
717779931,717779931,18,255,0,0,0,1094,1934,1094,1934,1233,1640,1094,1514,1514,1514,1514,1514,1514,1514,1514,1514,998,998,0,0,4
717800767,717800767,18,255,0,0,0,1094,1934,1094,1934,1233,1640,1094,1514,1514,1514,1514,1514,1514,1514,1514,1514,998,998,0,0,4
717825041,717825041,18,255,0,0,0,1094,1934,1094,1934,1233,1640,1094,1514,1514,1514,1514,1514,1514,1514,1514,1514,998,998,0,0,4
717848935,717848935,18,255,0,0,0,1094,1934,1094,1934,1233,1640,1094,1514,1514,1514,1514,1514,1514,1514,1514,1514,998,998,0,0,4
717872770,717872770,18,255,0,0,0,1094,1934,1094,1934,1233,1640,1094,1514,1514,1514,1514,1514,1514,1514,1514,1514,998,998,0,0,4
717896957,717896957,18,255,0,0,0,1094,1934,1094,1934,1233,1640,1094,1514,1514,1514,1514,1514,1514,1514,1514,1514,998,998,0,0,4
717920946,717920946,18,255,0,0,0,1094,1934,1094,1934,1233,1640,1094,1514,1514,1514,1514,1514,1514,1514,1514,1514,998,998,0,0,4
717942372,717942372,18,255,0,0,0,1094,1934,1094,1934,1233,1640,1094,1514,1514,1514,1514,1514,1514,1514,1514,1514,998,998,0,0,4
717966572,717966572,18,255,0,0,0,1094,1934,1094,1934,1233,1640,1094,1514,1514,1514,1514,1514,1514,1514,1514,1514,998,998,0,0,4
717986728,717986728,18,255,0,0,0,1094,1934,1094,1934,1233,1640,1094,1514,1514,1514,1514,1514,1514,1514,1514,1514,998,998,0,0,4
718010371,718010371,18,255,0,0,0,1094,1934,1094,1934,1233,1640,1094,1514,1514,1514,1514,1514,1514,1514,1514,1514,998,998,0,0,4
718034340,718034340,18,255,0,0,0,1094,1934,1094,1934,1233,1640,1094,1514,1514,1514,1514,1514,1514,1514,1514,1514,998,998,0,0,4
718054570,718054570,18,255,0,0,0,1094,1934,1094,1934,1233,1640,1094,1514,1514,1514,1514,1514,1514,1514,1514,1514,998,998,0,0,4
718078667,718078667,18,255,0,0,0,1094,1934,1094,1934,1233,1640,1094,1514,1514,1514,1514,1514,1514,1514,1514,1514,998,998,0,0,4
718098342,718098342,18,255,0,0,0,1094,1934,1094,1934,1233,1640,1094,1514,1514,1514,1514,1514,1514,1514,1514,1514,998,998,0,0,4
718122545,718122545,18,255,0,0,0,1094,1934,1094,1934,1233,1640,1094,1514,1514,1514,1514,1514,1514,1514,1514,1514,998,998,0,0,4
718142340,718142340,18,255,0,0,0,1094,1934,1094,1934,1233,1640,1094,1514,1514,1514,1514,1514,1514,1514,1514,1514,998,998,0,0,4
718166693,718166693,18,255,0,0,0,1094,1934,1094,1934,1233,1640,1094,1514,1514,1514,1514,1514,1514,1514,1514,1514,998,998,0,0,4
718191129,718191129,18,255,0,0,0,1094,1934,1094,1934,1233,1640,1094,1514,1514,1514,1514,1514,1514,1514,1514,1514,998,998,0,0,4
718211124,718211124,18,255,0,0,0,1094,1934,1094,1934,1233,1640,1094,1514,1514,1514,1514,1514,1514,1514,1514,1514,998,998,0,0,4
718235329,718235329,18,255,0,0,0,1094,1934,1094,1934,1233,1640,1094,1514,1514,1514,1514,1514,1514,1514,1514,1514,998,998,0,0,4
718255336,718255336,18,255,0,0,0,1094,1934,1094,1934,1233,1640,1094,1514,1514,1514,1514,1514,1514,1514,1514,1514,998,998,0,0,4
718279157,718279157,18,255,0,0,0,1094,1934,1094,1934,1233,1640,1094,1514,1514,1514,1514,1514,1514,1514,1514,1514,998,998,0,0,4
718303138,718303138,18,255,0,0,0,1094,1934,1094,1934,1233,1640,1094,1514,1514,1514,1514,1514,1514,1514,1514,1514,998,998,0,0,4
718323939,718323939,18,255,0,0,0,1094,1934,1094,1934,1233,1640,1094,1514,1514,1514,1514,1514,1514,1514,1514,1514,998,998,0,0,4
718348225,718348225,18,255,0,0,0,1094,1934,1094,1934,1233,1640,1094,1514,1514,1514,1514,1514,1514,1514,1514,1514,998,998,0,0,4
718368703,718368703,18,255,0,0,0,1094,1934,1094,1934,1233,1640,1094,1514,1514,1514,1514,1514,1514,1514,1514,1514,998,998,0,0,4
718388701,718388701,18,255,0,0,0,1094,1934,1094,1934,1233,1640,1094,1514,1514,1514,1514,1514,1514,1514,1514,1514,998,998,0,0,4
718409031,718409031,18,255,0,0,0,1094,1934,1094,1934,1233,1640,1094,1514,1514,1514,1514,1514,1514,1514,1514,1514,998,998,0,0,4
718433557,718433557,18,255,0,0,0,1094,1934,1094,1934,1233,1640,1094,1514,1514,1514,1514,1514,1514,1514,1514,1514,998,998,0,0,4
718453561,718453561,18,255,0,0,0,1094,1934,1094,1934,1233,1640,1094,1514,1514,1514,1514,1514,1514,1514,1514,1514,998,998,0,0,4
718474327,718474327,18,255,0,0,0,1094,1934,1094,1934,1233,1640,1094,1514,1514,1514,1514,1514,1514,1514,1514,1514,998,998,0,0,4
718498512,718498512,18,255,0,0,0,1094,1934,1094,1934,1233,1640,1094,1514,1514,1514,1514,1514,1514,1514,1514,1514,998,998,0,0,4
718522316,718522316,18,255,0,0,0,1094,1934,1094,1934,1233,1640,1094,1514,1514,1514,1514,1514,1514,1514,1514,1514,998,998,0,0,4
718542316,718542316,18,255,0,0,0,1094,1934,1094,1934,1233,1640,1094,1514,1514,1514,1514,1514,1514,1514,1514,1514,998,998,0,0,4
718563096,718563096,18,255,0,0,0,1094,1934,1094,1934,1233,1640,1094,1514,1514,1514,1514,1514,1514,1514,1514,1514,998,998,0,0,4
718587110,718587110,18,255,0,0,0,1094,1934,1094,1934,1233,1640,1094,1514,1514,1514,1514,1514,1514,1514,1514,1514,998,998,0,0,4
718607101,718607101,18,255,0,0,0,1094,1934,1094,1934,1233,1640,1094,1514,1514,1514,1514,1514,1514,1514,1514,1514,998,998,0,0,4
718631119,718631119,18,255,0,0,0,1094,1934,1094,1934,1233,1640,1094,1514,1514,1514,1514,1514,1514,1514,1514,1514,998,998,0,0,4
718651116,718651116,18,255,0,0,0,1094,1934,1094,1934,1233,1640,1094,1514,1514,1514,1514,1514,1514,1514,1514,1514,998,998,0,0,4
718675478,718675478,18,255,0,0,0,1094,1934,1094,1934,1233,1640,1094,1514,1514,1514,1514,1514,1514,1514,1514,1514,998,998,0,0,4
718699346,718699346,18,255,0,0,0,1094,1934,1094,1934,1233,1640,1094,1514,1514,1514,1514,1514,1514,1514,1514,1514,998,998,0,0,4
718723119,718723119,18,255,0,0,0,1094,1934,1094,1934,1233,1640,1094,1514,1514,1514,1514,1514,1514,1514,1514,1514,998,998,0,0,4
718747478,718747478,18,255,0,0,0,1094,1934,1094,1934,1233,1640,1094,1514,1514,1514,1514,1514,1514,1514,1514,1514,998,998,0,0,4
718767305,718767305,18,255,0,0,0,1094,1934,1094,1934,1233,1640,1094,1514,1514,1514,1514,1514,1514,1514,1514,1514,998,998,0,0,4
718787308,718787308,18,255,0,0,0,1094,1934,1094,1934,1233,1640,1094,1514,1514,1514,1514,1514,1514,1514,1514,1514,998,998,0,0,4
718811134,718811134,18,255,0,0,0,1094,1934,1094,1934,1233,1640,1094,1514,1514,1514,1514,1514,1514,1514,1514,1514,998,998,0,0,4
718831126,718831126,18,255,0,0,0,1094,1934,1094,1934,1233,1640,1094,1514,1514,1514,1514,1514,1514,1514,1514,1514,998,998,0,0,4
718851128,718851128,18,255,0,0,0,1094,1934,1094,1934,1233,1640,1094,1514,1514,1514,1514,1514,1514,1514,1514,1514,998,998,0,0,4
718871123,718871123,18,255,0,0,0,1094,1934,1094,1934,1233,1640,1094,1514,1514,1514,1514,1514,1514,1514,1514,1514,998,998,0,0,4
718895299,718895299,18,255,0,0,0,1094,1934,1094,1934,1233,1640,1094,1514,1514,1514,1514,1514,1514,1514,1514,1514,998,998,0,0,4
718915319,718915319,18,255,0,0,0,1094,1934,1094,1934,1233,1640,1094,1514,1514,1514,1514,1514,1514,1514,1514,1514,998,998,0,0,4
718939126,718939126,18,255,0,0,0,1094,1934,1094,1934,1233,1640,1094,1514,1514,1514,1514,1514,1514,1514,1514,1514,998,998,0,0,4
718959133,718959133,18,255,0,0,0,1094,1934,1094,1934,1233,1640,1094,1514,1514,1514,1514,1514,1514,1514,1514,1514,998,998,0,0,4
718979125,718979125,18,255,0,0,0,1094,1934,1094,1934,1233,1640,1094,1514,1514,1514,1514,1514,1514,1514,1514,1514,998,998,0,0,4
719000261,719000261,18,255,0,0,0,1094,1934,1094,1934,1233,1640,1094,1514,1514,1514,1514,1514,1514,1514,1514,1514,998,998,0,0,4
719019891,719019891,18,255,0,0,0,1094,1934,1094,1934,1233,1640,1094,1514,1514,1514,1514,1514,1514,1514,1514,1514,998,998,0,0,4
719039895,719039895,18,255,0,0,0,1094,1934,1094,1934,1233,1640,1094,1514,1514,1514,1514,1514,1514,1514,1514,1514,998,998,0,0,4
719063894,719063894,18,255,0,0,0,1094,1934,1094,1934,1233,1640,1094,1514,1514,1514,1514,1514,1514,1514,1514,1514,998,998,0,0,4
719083916,719083916,18,255,0,0,0,1094,1934,1094,1934,1233,1640,1094,1514,1514,1514,1514,1514,1514,1514,1514,1514,998,998,0,0,4
719105928,719105928,18,255,0,0,0,1094,1934,1094,1934,1233,1640,1094,1514,1514,1514,1514,1514,1514,1514,1514,1514,998,998,0,0,4
719129781,719129781,18,255,0,0,0,1094,1934,1094,1934,1233,1640,1094,1514,1514,1514,1514,1514,1514,1514,1514,1514,998,998,0,0,4
719153874,719153874,18,255,0,0,0,1094,1934,1094,1934,1233,1640,1094,1514,1514,1514,1514,1514,1514,1514,1514,1514,998,998,0,0,4
719177909,719177909,18,255,0,0,0,1094,1934,1094,1934,1233,1640,1094,1514,1514,1514,1514,1514,1514,1514,1514,1514,998,998,0,0,4
719201533,719201533,18,255,0,0,0,1094,1934,1094,1934,1233,1640,1094,1514,1514,1514,1514,1514,1514,1514,1514,1514,998,998,0,0,4
719221826,719221826,18,255,0,0,0,1094,1934,1094,1934,1233,1640,1094,1514,1514,1514,1514,1514,1514,1514,1514,1514,998,998,0,0,4
719245808,719245808,18,255,0,0,0,1101,1934,1094,1934,1233,1640,1094,1514,1514,1514,1514,1514,1514,1514,1514,1514,998,998,0,0,4
719269822,719269822,18,255,0,0,0,1145,1934,1094,1934,1233,1640,1094,1514,1514,1514,1514,1514,1514,1514,1514,1514,998,998,0,0,4
719293750,719293750,18,255,0,0,0,1625,1868,1094,1850,1233,1640,1094,1514,1514,1514,1514,1514,1514,1514,1514,1514,998,998,0,0,4
719317792,719317792,18,255,0,0,0,1433,1720,1094,1697,1233,1640,1094,1514,1514,1514,1514,1514,1514,1514,1514,1514,998,998,0,0,4
719341857,719341857,18,255,0,0,0,1573,1511,1094,1492,1233,1640,1094,1514,1514,1514,1514,1514,1514,1514,1514,1514,998,998,0,0,4
719365888,719365888,18,255,0,0,0,1679,1522,1094,1514,1233,1640,1094,1514,1514,1514,1514,1514,1514,1514,1514,1514,998,998,0,0,4
719389840,719389840,18,255,0,0,0,1457,1518,1094,1507,1233,1640,1094,1514,1514,1514,1514,1514,1514,1514,1514,1514,998,998,0,0,4
719413854,719413854,18,255,0,0,0,1662,1513,1094,1511,1233,1640,1094,1514,1514,1514,1514,1514,1514,1514,1514,1514,998,998,0,0,4
719437522,719437522,18,255,0,0,0,1594,1513,1094,1509,1233,1640,1094,1514,1514,1514,1514,1514,1514,1514,1514,1514,998,998,0,0,4
719461744,719461744,18,255,0,0,0,1482,1513,1094,1509,1233,1640,1094,1514,1514,1514,1514,1514,1514,1514,1514,1514,998,998,0,0,4
719485871,719485871,18,255,0,0,0,1506,1513,1094,1509,1233,1640,1094,1514,1514,1514,1514,1514,1514,1514,1514,1514,998,998,0,0,4
719509821,719509821,18,255,0,0,0,1503,1513,1094,1509,1233,1640,1094,1514,1514,1514,1514,1514,1514,1514,1514,1514,998,998,0,0,4
719533879,719533879,18,255,0,0,0,1503,1513,1094,1509,1233,1640,1094,1514,1514,1514,1514,1514,1514,1514,1514,1514,998,998,0,0,4
719557864,719557864,18,255,0,0,0,1510,1513,1094,1509,1233,1640,1094,1514,1514,1514,1514,1514,1514,1514,1514,1514,998,998,0,0,4
719581895,719581895,18,255,0,0,0,1512,1513,1094,1509,1233,1640,1094,1514,1514,1514,1514,1514,1514,1514,1514,1514,998,998,0,0,4
719605835,719605835,18,255,0,0,0,1512,1513,1094,1509,1233,1640,1094,1514,1514,1514,1514,1514,1514,1514,1514,1514,998,998,0,0,4
719629751,719629751,18,255,0,0,0,1512,1513,1094,1509,1233,1640,1094,1514,1514,1514,1514,1514,1514,1514,1514,1514,998,998,0,0,4
719653781,719653781,18,255,0,0,0,1512,1513,1094,1509,1233,1640,1094,1514,1514,1514,1514,1514,1514,1514,1514,1514,998,998,0,0,4
719677517,719677517,18,255,0,0,0,1512,1513,1094,1509,1233,1640,1094,1514,1514,1514,1514,1514,1514,1514,1514,1514,998,998,0,0,4
719697532,719697532,18,255,0,0,0,1512,1513,1094,1509,1233,1640,1094,1514,1514,1514,1514,1514,1514,1514,1514,1514,998,998,0,0,4
719721541,719721541,18,255,0,0,0,1512,1513,1094,1509,1233,1640,1094,1514,1514,1514,1514,1514,1514,1514,1514,1514,998,998,0,0,4
719745528,719745528,18,255,0,0,0,1512,1513,1094,1509,1233,1640,1094,1514,1514,1514,1514,1514,1514,1514,1514,1514,998,998,0,0,4
719765780,719765780,18,255,0,0,0,1512,1513,1094,1509,1233,1640,1094,1514,1514,1514,1514,1514,1514,1514,1514,1514,998,998,0,0,4
719790335,719790335,18,255,0,0,0,1512,1513,1094,1509,1233,1640,1094,1514,1514,1514,1514,1514,1514,1514,1514,1514,998,998,0,0,4
719813761,719813761,18,255,0,0,0,1512,1513,1094,1509,1233,1640,1094,1514,1514,1514,1514,1514,1514,1514,1514,1514,998,998,0,0,4
719837857,719837857,18,255,0,0,0,1512,1513,1094,1509,1233,1640,1094,1514,1514,1514,1514,1514,1514,1514,1514,1514,998,998,0,0,4
719862128,719862128,18,255,0,0,0,1512,1513,1094,1509,1233,1640,1094,1514,1514,1514,1514,1514,1514,1514,1514,1514,998,998,0,0,4
719885725,719885725,18,255,0,0,0,1512,1513,1094,1509,1233,1640,1094,1514,1514,1514,1514,1514,1514,1514,1514,1514,998,998,0,0,4
719909844,719909844,18,255,0,0,0,1512,1513,1094,1509,1233,1640,1094,1514,1514,1514,1514,1514,1514,1514,1514,1514,998,998,0,0,4
719930366,719930366,18,255,0,0,0,1512,1513,1094,1509,1233,1640,1094,1514,1514,1514,1514,1514,1514,1514,1514,1514,998,998,0,0,4
719954326,719954326,18,255,0,0,0,1512,1513,1094,1509,1233,1640,1094,1514,1514,1514,1514,1514,1514,1514,1514,1514,998,998,0,0,4
719978381,719978381,18,255,0,0,0,1512,1513,1094,1509,1233,1640,1094,1514,1514,1514,1514,1514,1514,1514,1514,1514,998,998,0,0,4
720002340,720002340,18,255,0,0,0,1512,1513,1094,1509,1233,1640,1094,1514,1514,1514,1514,1514,1514,1514,1514,1514,998,998,0,0,4
720023100,720023100,18,255,0,0,0,1512,1513,1094,1509,1233,1640,1094,1514,1514,1514,1514,1514,1514,1514,1514,1514,998,998,0,0,4
720047351,720047351,18,255,0,0,0,1512,1513,1094,1509,1233,1640,1094,1514,1514,1514,1514,1514,1514,1514,1514,1514,998,998,0,0,4
720071107,720071107,18,255,0,0,0,1512,1513,1094,1509,1233,1640,1094,1514,1514,1514,1514,1514,1514,1514,1514,1514,998,998,0,0,4
720091131,720091131,18,255,0,0,0,1512,1513,1094,1509,1233,1640,1094,1514,1514,1514,1514,1514,1514,1514,1514,1514,998,998,0,0,4
720115436,720115436,18,255,0,0,0,1512,1513,1094,1509,1233,1640,1094,1514,1514,1514,1514,1514,1514,1514,1514,1514,998,998,0,0,4
720135138,720135138,18,255,0,0,0,1512,1513,1094,1509,1233,1640,1094,1514,1514,1514,1514,1514,1514,1514,1514,1514,998,998,0,0,4
720159112,720159112,18,255,0,0,0,1512,1513,1094,1509,1233,1640,1094,1514,1514,1514,1514,1514,1514,1514,1514,1514,998,998,0,0,4
720179173,720179173,18,255,0,0,0,1509,1513,1094,1509,1233,1640,1094,1514,1514,1514,1514,1514,1514,1514,1514,1514,998,998,0,0,4
720203098,720203098,18,255,0,0,0,1500,1513,1094,1509,1233,1640,1094,1514,1514,1514,1514,1514,1514,1514,1514,1514,998,998,0,0,4
720227165,720227165,18,255,0,0,0,1497,1513,1094,1509,1233,1640,1094,1514,1514,1514,1514,1514,1514,1514,1514,1514,998,998,0,0,4
720247131,720247131,18,255,0,0,0,1493,1513,1094,1509,1233,1640,1094,1514,1514,1514,1514,1514,1514,1514,1514,1514,998,998,0,0,4
720271112,720271112,18,255,0,0,0,1491,1513,1097,1509,1233,1640,1094,1514,1514,1514,1514,1514,1514,1514,1514,1514,998,998,0,0,4
720291107,720291107,18,255,0,0,0,1487,1513,1104,1509,1233,1640,1094,1514,1514,1514,1514,1514,1514,1514,1514,1514,998,998,0,0,4
720315160,720315160,18,255,0,0,0,1478,1513,1113,1509,1233,1640,1094,1514,1514,1514,1514,1514,1514,1514,1514,1514,998,998,0,0,4
720335180,720335180,18,255,0,0,0,1477,1513,1122,1509,1233,1640,1094,1514,1514,1514,1514,1514,1514,1514,1514,1514,998,998,0,0,4
720359100,720359100,18,255,0,0,0,1482,1513,1142,1509,1233,1640,1094,1514,1514,1514,1514,1514,1514,1514,1514,1514,998,998,0,0,4
720383126,720383126,18,255,0,0,0,1487,1513,1147,1509,1233,1640,1094,1514,1514,1514,1514,1514,1514,1514,1514,1514,998,998,0,0,4
720407149,720407149,18,255,0,0,0,1490,1513,1155,1509,1233,1640,1094,1514,1514,1514,1514,1514,1514,1514,1514,1514,998,998,0,0,4
720431103,720431103,18,255,0,0,0,1492,1513,1165,1509,1233,1640,1094,1514,1514,1514,1514,1514,1514,1514,1514,1514,998,998,0,0,4
720451101,720451101,18,255,0,0,0,1493,1513,1170,1509,1233,1640,1094,1514,1514,1514,1514,1514,1514,1514,1514,1514,998,998,0,0,4
720471112,720471112,18,255,0,0,0,1494,1513,1173,1509,1233,1640,1094,1514,1514,1514,1514,1514,1514,1514,1514,1514,998,998,0,0,4
720495098,720495098,18,255,0,0,0,1494,1513,1175,1509,1233,1640,1094,1514,1514,1514,1514,1514,1514,1514,1514,1514,998,998,0,0,4
720516783,720516783,18,255,0,0,0,1494,1513,1175,1509,1233,1640,1094,1514,1514,1514,1514,1514,1514,1514,1514,1514,998,998,0,0,4
720540735,720540735,18,255,0,0,0,1495,1513,1177,1509,1233,1640,1094,1514,1514,1514,1514,1514,1514,1514,1514,1514,998,998,0,0,4
720564746,720564746,18,255,0,0,0,1495,1513,1177,1509,1233,1640,1094,1514,1514,1514,1514,1514,1514,1514,1514,1514,998,998,0,0,4
720584940,720584940,18,255,0,0,0,1497,1513,1178,1509,1233,1640,1094,1514,1514,1514,1514,1514,1514,1514,1514,1514,998,998,0,0,4
720609046,720609046,18,255,0,0,0,1497,1513,1180,1509,1233,1640,1094,1514,1514,1514,1514,1514,1514,1514,1514,1514,998,998,0,0,4
720632972,720632972,18,255,0,0,0,1497,1513,1182,1509,1233,1640,1094,1514,1514,1514,1514,1514,1514,1514,1514,1514,998,998,0,0,4
720656792,720656792,18,255,0,0,0,1497,1513,1188,1509,1233,1640,1094,1514,1514,1514,1514,1514,1514,1514,1514,1514,998,998,0,0,4
720680969,720680969,18,255,0,0,0,1495,1513,1193,1509,1233,1640,1094,1514,1514,1514,1514,1514,1514,1514,1514,1514,998,998,0,0,4
720704967,720704967,18,255,0,0,0,1495,1513,1198,1509,1233,1640,1094,1514,1514,1514,1514,1514,1514,1514,1514,1514,998,998,0,0,4
720728943,720728943,18,255,0,0,0,1495,1513,1207,1509,1233,1640,1094,1514,1514,1514,1514,1514,1514,1514,1514,1514,998,998,0,0,4
720752951,720752951,18,255,0,0,0,1495,1513,1211,1509,1233,1640,1094,1514,1514,1514,1514,1514,1514,1514,1514,1514,998,998,0,0,4
720776725,720776725,18,255,0,0,0,1495,1513,1213,1509,1233,1640,1094,1514,1514,1514,1514,1514,1514,1514,1514,1514,998,998,0,0,4
720797056,720797056,18,255,0,0,0,1493,1513,1217,1509,1233,1640,1094,1514,1514,1514,1514,1514,1514,1514,1514,1514,998,998,0,0,4
720820724,720820724,18,255,0,0,0,1492,1513,1217,1509,1233,1640,1094,1514,1514,1514,1514,1514,1514,1514,1514,1514,998,998,0,0,4
720844725,720844725,18,255,0,0,0,1492,1513,1217,1509,1233,1640,1094,1514,1514,1514,1514,1514,1514,1514,1514,1514,998,998,0,0,4
720869110,720869110,18,255,0,0,0,1490,1513,1220,1509,1233,1640,1094,1514,1514,1514,1514,1514,1514,1514,1514,1514,998,998,0,0,4
720893017,720893017,18,255,0,0,0,1488,1513,1225,1509,1233,1640,1094,1514,1514,1514,1514,1514,1514,1514,1514,1514,998,998,0,0,4
720916756,720916756,18,255,0,0,0,1488,1513,1228,1509,1233,1640,1094,1514,1514,1514,1514,1514,1514,1514,1514,1514,998,998,0,0,4
720936764,720936764,18,255,0,0,0,1488,1513,1233,1509,1233,1640,1094,1514,1514,1514,1514,1514,1514,1514,1514,1514,998,998,0,0,4
720956749,720956749,18,255,0,0,0,1487,1513,1238,1509,1233,1640,1094,1514,1514,1514,1514,1514,1514,1514,1514,1514,998,998,0,0,4
720980799,720980799,18,255,0,0,0,1485,1513,1243,1509,1233,1640,1094,1514,1514,1514,1514,1514,1514,1514,1514,1514,998,998,0,0,4
721000976,721000976,18,255,0,0,0,1484,1513,1243,1509,1233,1640,1094,1514,1514,1514,1514,1514,1514,1514,1514,1514,998,998,0,0,4
721024717,721024717,18,255,0,0,0,1482,1513,1243,1509,1233,1640,1094,1514,1514,1514,1514,1514,1514,1514,1514,1514,998,998,0,0,4
721044718,721044718,18,255,0,0,0,1481,1513,1243,1509,1233,1640,1094,1514,1514,1514,1514,1514,1514,1514,1514,1514,998,998,0,0,4
721064746,721064746,18,255,0,0,0,1481,1513,1243,1509,1233,1640,1094,1514,1514,1514,1514,1514,1514,1514,1514,1514,998,998,0,0,4
721089064,721089064,18,255,0,0,0,1481,1513,1243,1509,1233,1640,1094,1514,1514,1514,1514,1514,1514,1514,1514,1514,998,998,0,0,4
721112735,721112735,18,255,0,0,0,1481,1513,1243,1509,1233,1640,1094,1514,1514,1514,1514,1514,1514,1514,1514,1514,998,998,0,0,4
721136923,721136923,18,255,0,0,0,1481,1513,1243,1509,1233,1640,1094,1514,1514,1514,1514,1514,1514,1514,1514,1514,998,998,0,0,4
721161041,721161041,18,255,0,0,0,1481,1513,1243,1509,1233,1640,1094,1514,1514,1514,1514,1514,1514,1514,1514,1514,998,998,0,0,4
721184957,721184957,18,255,0,0,0,1481,1513,1243,1509,1233,1640,1094,1514,1514,1514,1514,1514,1514,1514,1514,1514,998,998,0,0,4
721208946,721208946,18,255,0,0,0,1481,1513,1243,1509,1233,1640,1094,1514,1514,1514,1514,1514,1514,1514,1514,1514,998,998,0,0,4
721232757,721232757,18,255,0,0,0,1478,1513,1243,1509,1233,1640,1094,1514,1514,1514,1514,1514,1514,1514,1514,1514,998,998,0,0,4
721256796,721256796,18,255,0,0,0,1472,1513,1243,1509,1233,1640,1094,1514,1514,1514,1514,1514,1514,1514,1514,1514,998,998,0,0,4
721280924,721280924,18,255,0,0,0,1468,1513,1243,1509,1233,1640,1094,1514,1514,1514,1514,1514,1514,1514,1514,1514,998,998,0,0,4
721304919,721304919,18,255,0,0,0,1462,1513,1243,1509,1233,1640,1094,1514,1514,1514,1514,1514,1514,1514,1514,1514,998,998,0,0,4
721329044,721329044,18,255,0,0,0,1460,1513,1243,1509,1233,1640,1094,1514,1514,1514,1514,1514,1514,1514,1514,1514,998,998,0,0,4
721352985,721352985,18,255,0,0,0,1460,1513,1242,1509,1233,1640,1094,1514,1514,1514,1514,1514,1514,1514,1514,1514,998,998,0,0,4
721376970,721376970,18,255,0,0,0,1460,1513,1241,1509,1233,1640,1094,1514,1514,1514,1514,1514,1514,1514,1514,1514,998,998,0,0,4
721400929,721400929,18,255,0,0,0,1465,1513,1240,1509,1233,1640,1094,1514,1514,1514,1514,1514,1514,1514,1514,1514,998,998,0,0,4
721424979,721424979,18,255,0,0,0,1474,1513,1240,1509,1233,1640,1094,1514,1514,1514,1514,1514,1514,1514,1514,1514,998,998,0,0,4
721448694,721448694,18,255,0,0,0,1477,1513,1240,1509,1233,1640,1094,1514,1514,1514,1514,1514,1514,1514,1514,1514,998,998,0,0,4
721472735,721472735,18,255,0,0,0,1511,1513,1239,1509,1233,1640,1094,1514,1514,1514,1514,1514,1514,1514,1514,1514,998,998,0,0,4
721492749,721492749,18,255,0,0,0,1511,1513,1239,1509,1233,1640,1094,1514,1514,1514,1514,1514,1514,1514,1514,1514,998,998,0,0,4
721512760,721512760,18,255,0,0,0,1511,1513,1239,1509,1233,1640,1094,1514,1514,1514,1514,1514,1514,1514,1514,1514,998,998,0,0,4
721536699,721536699,18,255,0,0,0,1511,1513,1239,1509,1233,1640,1094,1514,1514,1514,1514,1514,1514,1514,1514,1514,998,998,0,0,4
721560711,721560711,18,255,0,0,0,1511,1513,1239,1509,1233,1640,1094,1514,1514,1514,1514,1514,1514,1514,1514,1514,998,998,0,0,4
721584721,721584721,18,255,0,0,0,1511,1513,1239,1509,1233,1640,1094,1514,1514,1514,1514,1514,1514,1514,1514,1514,998,998,0,0,4
721604716,721604716,18,255,0,0,0,1511,1513,1239,1509,1233,1640,1094,1514,1514,1514,1514,1514,1514,1514,1514,1514,998,998,0,0,4
721628742,721628742,18,255,0,0,0,1511,1513,1239,1509,1233,1640,1094,1514,1514,1514,1514,1514,1514,1514,1514,1514,998,998,0,0,4
721648764,721648764,18,255,0,0,0,1511,1513,1239,1509,1233,1640,1094,1514,1514,1514,1514,1514,1514,1514,1514,1514,998,998,0,0,4
721672975,721672975,18,255,0,0,0,1511,1513,1239,1509,1233,1640,1094,1514,1514,1514,1514,1514,1514,1514,1514,1514,998,998,0,0,4
721697113,721697113,18,255,0,0,0,1511,1513,1239,1509,1233,1640,1094,1514,1514,1514,1514,1514,1514,1514,1514,1514,998,998,0,0,4
721716736,721716736,18,255,0,0,0,1511,1513,1240,1509,1233,1640,1094,1514,1514,1514,1514,1514,1514,1514,1514,1514,998,998,0,0,4
721736760,721736760,18,255,0,0,0,1511,1513,1240,1509,1233,1640,1094,1514,1514,1514,1514,1514,1514,1514,1514,1514,998,998,0,0,4
721760996,721760996,18,255,0,0,0,1511,1513,1240,1508,1233,1640,1094,1514,1514,1514,1514,1514,1514,1514,1514,1514,998,998,0,0,4
721784728,721784728,18,255,0,0,0,1511,1513,1240,1508,1233,1640,1094,1514,1514,1514,1514,1514,1514,1514,1514,1514,998,998,0,0,4
721809048,721809048,18,255,0,0,0,1511,1513,1240,1508,1233,1640,1094,1514,1514,1514,1514,1514,1514,1514,1514,1514,998,998,0,0,4
721832752,721832752,18,255,0,0,0,1511,1513,1240,1508,1233,1640,1094,1514,1514,1514,1514,1514,1514,1514,1514,1514,998,998,0,0,4
721857047,721857047,18,255,0,0,0,1511,1513,1240,1508,1233,1640,1094,1514,1514,1514,1514,1514,1514,1514,1514,1514,998,998,0,0,4
721880951,721880951,18,255,0,0,0,1511,1513,1240,1508,1233,1640,1094,1514,1514,1514,1514,1514,1514,1514,1514,1514,998,998,0,0,4
721904928,721904928,18,255,0,0,0,1512,1513,1240,1508,1233,1640,1094,1514,1514,1514,1514,1514,1514,1514,1514,1514,998,998,0,0,4
721928990,721928990,18,255,0,0,0,1512,1513,1240,1508,1233,1640,1094,1514,1514,1514,1514,1514,1514,1514,1514,1514,998,998,0,0,4
721952729,721952729,18,255,0,0,0,1512,1513,1240,1508,1233,1640,1094,1514,1514,1514,1514,1514,1514,1514,1514,1514,998,998,0,0,4
721976794,721976794,18,255,0,0,0,1512,1513,1240,1508,1233,1640,1094,1514,1514,1514,1514,1514,1514,1514,1514,1514,998,998,0,0,4
722001088,722001088,18,255,0,0,0,1512,1513,1240,1508,1233,1640,1094,1514,1514,1514,1514,1514,1514,1514,1514,1514,998,998,0,0,4
722025052,722025052,18,255,0,0,0,1512,1513,1240,1508,1233,1640,1094,1514,1514,1514,1514,1514,1514,1514,1514,1514,998,998,0,0,4
722048952,722048952,18,255,0,0,0,1512,1513,1240,1508,1233,1640,1094,1514,1514,1514,1514,1514,1514,1514,1514,1514,998,998,0,0,4
722072950,722072950,18,255,0,0,0,1512,1513,1241,1508,1233,1640,1094,1514,1514,1514,1514,1514,1514,1514,1514,1514,998,998,0,0,4
722096997,722096997,18,255,0,0,0,1512,1513,1242,1508,1233,1640,1094,1514,1514,1514,1514,1514,1514,1514,1514,1514,998,998,0,0,4
722120737,722120737,18,255,0,0,0,1512,1513,1242,1508,1233,1640,1094,1514,1514,1514,1514,1514,1514,1514,1514,1514,998,998,0,0,4
722144753,722144753,18,255,0,0,0,1512,1513,1242,1508,1233,1640,1094,1514,1514,1514,1514,1514,1514,1514,1514,1514,998,998,0,0,4
722168786,722168786,18,255,0,0,0,1512,1513,1242,1508,1233,1640,1094,1514,1514,1514,1514,1514,1514,1514,1514,1514,998,998,0,0,4
722193052,722193052,18,255,0,0,0,1512,1513,1242,1508,1233,1640,1094,1514,1514,1514,1514,1514,1514,1514,1514,1514,998,998,0,0,4
722216900,722216900,18,255,0,0,0,1512,1513,1242,1508,1233,1640,1094,1514,1514,1514,1514,1514,1514,1514,1514,1514,998,998,0,0,4
722240919,722240919,18,255,0,0,0,1512,1513,1242,1508,1233,1640,1094,1514,1514,1514,1514,1514,1514,1514,1514,1514,998,998,0,0,4
722264965,722264965,18,255,0,0,0,1512,1513,1242,1508,1233,1640,1094,1514,1514,1514,1514,1514,1514,1514,1514,1514,998,998,0,0,4
722289048,722289048,18,255,0,0,0,1512,1513,1242,1508,1233,1640,1094,1514,1514,1514,1514,1514,1514,1514,1514,1514,998,998,0,0,4
722312945,722312945,18,255,0,0,0,1512,1513,1242,1508,1233,1640,1094,1514,1514,1514,1514,1514,1514,1514,1514,1514,998,998,0,0,4
722336772,722336772,18,255,0,0,0,1512,1513,1243,1508,1233,1640,1094,1514,1514,1514,1514,1514,1514,1514,1514,1514,998,998,0,0,4
722360765,722360765,18,255,0,0,0,1512,1513,1243,1508,1233,1640,1094,1514,1514,1514,1514,1514,1514,1514,1514,1514,998,998,0,0,4
722384920,722384920,18,255,0,0,0,1508,1513,1243,1508,1233,1640,1094,1514,1514,1514,1514,1514,1514,1514,1514,1514,998,998,0,0,4
722409080,722409080,18,255,0,0,0,1503,1513,1248,1508,1233,1640,1094,1514,1514,1514,1514,1514,1514,1514,1514,1514,998,998,0,0,4
722432983,722432983,18,255,0,0,0,1499,1513,1258,1508,1233,1640,1094,1514,1514,1514,1514,1514,1514,1514,1514,1514,998,998,0,0,4
722456723,722456723,18,255,0,0,0,1493,1513,1265,1508,1233,1640,1094,1514,1514,1514,1514,1514,1514,1514,1514,1514,998,998,0,0,4
722476763,722476763,18,255,0,0,0,1490,1513,1268,1508,1233,1640,1094,1514,1514,1514,1514,1514,1514,1514,1514,1514,998,998,0,0,4
722500768,722500768,18,255,0,0,0,1488,1513,1272,1508,1233,1640,1094,1514,1514,1514,1514,1514,1514,1514,1514,1514,998,998,0,0,4
722525053,722525053,18,255,0,0,0,1487,1513,1272,1508,1233,1640,1094,1514,1514,1514,1514,1514,1514,1514,1514,1514,998,998,0,0,4
722545055,722545055,18,255,0,0,0,1487,1513,1273,1508,1233,1640,1094,1514,1514,1514,1514,1514,1514,1514,1514,1514,998,998,0,0,4
722569054,722569054,18,255,0,0,0,1486,1513,1275,1508,1233,1640,1094,1514,1514,1514,1514,1514,1514,1514,1514,1514,998,998,0,0,4
722592726,722592726,18,255,0,0,0,1483,1513,1278,1508,1233,1640,1094,1514,1514,1514,1514,1514,1514,1514,1514,1514,998,998,0,0,4
722617113,722617113,18,255,0,0,0,1482,1513,1282,1508,1233,1640,1094,1514,1514,1514,1514,1514,1514,1514,1514,1514,998,998,0,0,4
722640952,722640952,18,255,0,0,0,1479,1513,1283,1508,1233,1640,1094,1514,1514,1514,1514,1514,1514,1514,1514,1514,998,998,0,0,4
722665047,722665047,18,255,0,0,0,1478,1513,1285,1508,1233,1640,1094,1514,1514,1514,1514,1514,1514,1514,1514,1514,998,998,0,0,4
722689064,722689064,18,255,0,0,0,1478,1513,1290,1508,1233,1640,1094,1514,1514,1514,1514,1514,1514,1514,1514,1514,998,998,0,0,4
722712770,722712770,18,255,0,0,0,1478,1513,1292,1508,1233,1640,1094,1514,1514,1514,1514,1514,1514,1514,1514,1514,998,998,0,0,4
722736984,722736984,18,255,0,0,0,1478,1513,1293,1508,1233,1640,1094,1514,1514,1514,1514,1514,1514,1514,1514,1514,998,998,0,0,4
722760981,722760981,18,255,0,0,0,1478,1513,1295,1508,1233,1640,1094,1514,1514,1514,1514,1514,1514,1514,1514,1514,998,998,0,0,4
722784942,722784942,18,255,0,0,0,1476,1513,1297,1508,1233,1640,1094,1514,1514,1514,1514,1514,1514,1514,1514,1514,998,998,0,0,4
722804950,722804950,18,255,0,0,0,1476,1513,1297,1508,1233,1640,1094,1514,1514,1514,1514,1514,1514,1514,1514,1514,998,998,0,0,4
722828770,722828770,18,255,0,0,0,1476,1513,1298,1508,1233,1640,1094,1514,1514,1514,1514,1514,1514,1514,1514,1514,998,998,0,0,4
722852740,722852740,18,255,0,0,0,1476,1513,1298,1508,1233,1640,1094,1514,1514,1514,1514,1514,1514,1514,1514,1514,998,998,0,0,4
722872742,722872742,18,255,0,0,0,1475,1513,1298,1508,1233,1640,1094,1514,1514,1514,1514,1514,1514,1514,1514,1514,998,998,0,0,4
722896717,722896717,18,255,0,0,0,1475,1513,1300,1508,1233,1640,1094,1514,1514,1514,1514,1514,1514,1514,1514,1514,998,998,0,0,4
722921050,722921050,18,255,0,0,0,1475,1513,1302,1508,1233,1640,1094,1514,1514,1514,1514,1514,1514,1514,1514,1514,998,998,0,0,4
722940738,722940738,18,255,0,0,0,1475,1513,1302,1508,1233,1640,1094,1514,1514,1514,1514,1514,1514,1514,1514,1514,998,998,0,0,4
722964724,722964724,18,255,0,0,0,1475,1513,1304,1508,1233,1640,1094,1514,1514,1514,1514,1514,1514,1514,1514,1514,998,998,0,0,4
722984733,722984733,18,255,0,0,0,1474,1513,1304,1508,1233,1640,1094,1514,1514,1514,1514,1514,1514,1514,1514,1514,998,998,0,0,4
723004727,723004727,18,255,0,0,0,1472,1513,1304,1508,1233,1640,1094,1514,1514,1514,1514,1514,1514,1514,1514,1514,998,998,0,0,4
723024924,723024924,18,255,0,0,0,1472,1513,1305,1508,1233,1640,1094,1514,1514,1514,1514,1514,1514,1514,1514,1514,998,998,0,0,4
723048939,723048939,18,255,0,0,0,1472,1513,1307,1508,1233,1640,1094,1514,1514,1514,1514,1514,1514,1514,1514,1514,998,998,0,0,4
723073005,723073005,18,255,0,0,0,1472,1513,1310,1508,1233,1640,1094,1514,1514,1514,1514,1514,1514,1514,1514,1514,998,998,0,0,4
723096726,723096726,18,255,0,0,0,1472,1513,1310,1508,1233,1640,1094,1514,1514,1514,1514,1514,1514,1514,1514,1514,998,998,0,0,4
723116736,723116736,18,255,0,0,0,1473,1513,1310,1508,1233,1640,1094,1514,1514,1514,1514,1514,1514,1514,1514,1514,998,998,0,0,4
723140950,723140950,18,255,0,0,0,1473,1513,1310,1508,1233,1640,1094,1514,1514,1514,1514,1514,1514,1514,1514,1514,998,998,0,0,4
723160971,723160971,18,255,0,0,0,1475,1513,1310,1508,1233,1640,1094,1514,1514,1514,1514,1514,1514,1514,1514,1514,998,998,0,0,4
723180750,723180750,18,255,0,0,0,1475,1513,1310,1508,1233,1640,1094,1514,1514,1514,1514,1514,1514,1514,1514,1514,998,998,0,0,4
723204904,723204904,18,255,0,0,0,1475,1513,1310,1508,1233,1640,1094,1514,1514,1514,1514,1514,1514,1514,1514,1514,998,998,0,0,4
723228924,723228924,18,255,0,0,0,1475,1513,1311,1508,1233,1640,1094,1514,1514,1514,1514,1514,1514,1514,1514,1514,998,998,0,0,4
723252725,723252725,18,255,0,0,0,1475,1513,1311,1508,1233,1640,1094,1514,1514,1514,1514,1514,1514,1514,1514,1514,998,998,0,0,4
723276751,723276751,18,255,0,0,0,1475,1513,1313,1508,1233,1640,1094,1514,1514,1514,1514,1514,1514,1514,1514,1514,998,998,0,0,4
723296743,723296743,18,255,0,0,0,1475,1513,1313,1508,1233,1640,1094,1514,1514,1514,1514,1514,1514,1514,1514,1514,998,998,0,0,4
723320724,723320724,18,255,0,0,0,1475,1513,1315,1508,1233,1640,1094,1514,1514,1514,1514,1514,1514,1514,1514,1514,998,998,0,0,4
723340728,723340728,18,255,0,0,0,1475,1513,1315,1508,1233,1640,1094,1514,1514,1514,1514,1514,1514,1514,1514,1514,998,998,0,0,4
723364737,723364737,18,255,0,0,0,1475,1513,1316,1508,1233,1640,1094,1514,1514,1514,1514,1514,1514,1514,1514,1514,998,998,0,0,4
723384748,723384748,18,255,0,0,0,1475,1513,1319,1508,1233,1640,1094,1514,1514,1514,1514,1514,1514,1514,1514,1514,998,998,0,0,4
723408735,723408735,18,255,0,0,0,1475,1513,1322,1508,1233,1640,1094,1514,1514,1514,1514,1514,1514,1514,1514,1514,998,998,0,0,4
723432730,723432730,18,255,0,0,0,1475,1513,1323,1508,1233,1640,1094,1514,1514,1514,1514,1514,1514,1514,1514,1514,998,998,0,0,4
723456921,723456921,18,255,0,0,0,1475,1513,1326,1508,1233,1640,1094,1514,1514,1514,1514,1514,1514,1514,1514,1514,998,998,0,0,4
723476928,723476928,18,255,0,0,0,1475,1513,1328,1508,1233,1640,1094,1514,1514,1514,1514,1514,1514,1514,1514,1514,998,998,0,0,4
723500768,723500768,18,255,0,0,0,1475,1513,1331,1508,1233,1640,1094,1514,1514,1514,1514,1514,1514,1514,1514,1514,998,998,0,0,4
723520883,723520883,18,255,0,0,0,1476,1513,1333,1508,1233,1640,1094,1514,1514,1514,1514,1514,1514,1514,1514,1514,998,998,0,0,4
723544935,723544935,18,255,0,0,0,1476,1513,1333,1508,1233,1640,1094,1514,1514,1514,1514,1514,1514,1514,1514,1514,998,998,0,0,4
723569023,723569023,18,255,0,0,0,1476,1513,1335,1508,1233,1640,1094,1514,1514,1514,1514,1514,1514,1514,1514,1514,998,998,0,0,4
723588711,723588711,18,255,0,0,0,1476,1513,1337,1508,1233,1640,1094,1514,1514,1514,1514,1514,1514,1514,1514,1514,998,998,0,0,4
723608741,723608741,18,255,0,0,0,1476,1513,1338,1508,1233,1640,1094,1514,1514,1514,1514,1514,1514,1514,1514,1514,998,998,0,0,4
723632760,723632760,18,255,0,0,0,1476,1513,1339,1508,1233,1640,1094,1514,1514,1514,1514,1514,1514,1514,1514,1514,998,998,0,0,4
723656704,723656704,18,255,0,0,0,1476,1513,1340,1508,1233,1640,1094,1514,1514,1514,1514,1514,1514,1514,1514,1514,998,998,0,0,4
723677049,723677049,18,255,0,0,0,1476,1513,1343,1508,1233,1640,1094,1514,1514,1514,1514,1514,1514,1514,1514,1514,998,998,0,0,4
723700745,723700745,18,255,0,0,0,1476,1513,1345,1508,1233,1640,1094,1514,1514,1514,1514,1514,1514,1514,1514,1514,998,998,0,0,4
723720721,723720721,18,255,0,0,0,1475,1513,1347,1508,1233,1640,1094,1514,1514,1514,1514,1514,1514,1514,1514,1514,998,998,0,0,4
723744701,723744701,18,255,0,0,0,1475,1513,1347,1508,1233,1640,1094,1514,1514,1514,1514,1514,1514,1514,1514,1514,998,998,0,0,4
723764694,723764694,18,255,0,0,0,1474,1513,1348,1508,1233,1640,1094,1514,1514,1514,1514,1514,1514,1514,1514,1514,998,998,0,0,4
723785075,723785075,18,255,0,0,0,1472,1513,1348,1508,1233,1640,1094,1514,1514,1514,1514,1514,1514,1514,1514,1514,998,998,0,0,4
723808964,723808964,18,255,0,0,0,1470,1513,1349,1508,1233,1640,1094,1514,1514,1514,1514,1514,1514,1514,1514,1514,998,998,0,0,4
723832953,723832953,18,255,0,0,0,1468,1513,1349,1508,1233,1640,1094,1514,1514,1514,1514,1514,1514,1514,1514,1514,998,998,0,0,4
723857106,723857106,18,255,0,0,0,1468,1513,1350,1508,1233,1640,1094,1514,1514,1514,1514,1514,1514,1514,1514,1514,998,998,0,0,4
723880767,723880767,18,255,0,0,0,1468,1513,1350,1508,1233,1640,1094,1514,1514,1514,1514,1514,1514,1514,1514,1514,998,998,0,0,4
723904746,723904746,18,255,0,0,0,1468,1513,1350,1508,1233,1640,1094,1514,1514,1514,1514,1514,1514,1514,1514,1514,998,998,0,0,4
723929479,723929479,18,255,0,0,0,1467,1513,1350,1508,1233,1640,1094,1514,1514,1514,1514,1514,1514,1514,1514,1514,998,998,0,0,4
723952764,723952764,18,255,0,0,0,1467,1513,1350,1508,1233,1640,1094,1514,1514,1514,1514,1514,1514,1514,1514,1514,998,998,0,0,4
723976772,723976772,18,255,0,0,0,1466,1513,1352,1508,1233,1640,1094,1514,1514,1514,1514,1514,1514,1514,1514,1514,998,998,0,0,4
724001071,724001071,18,255,0,0,0,1466,1513,1353,1508,1233,1640,1094,1514,1514,1514,1514,1514,1514,1514,1514,1514,998,998,0,0,4
724024765,724024765,18,255,0,0,0,1465,1513,1353,1508,1233,1640,1094,1514,1514,1514,1514,1514,1514,1514,1514,1514,998,998,0,0,4
724049089,724049089,18,255,0,0,0,1465,1513,1354,1508,1233,1640,1094,1514,1514,1514,1514,1514,1514,1514,1514,1514,998,998,0,0,4
724073051,724073051,18,255,0,0,0,1465,1513,1357,1508,1233,1640,1094,1514,1514,1514,1514,1514,1514,1514,1514,1514,998,998,0,0,4
724096928,724096928,18,255,0,0,0,1465,1513,1358,1508,1233,1640,1094,1514,1514,1514,1514,1514,1514,1514,1514,1514,998,998,0,0,4
724120772,724120772,18,255,0,0,0,1464,1513,1359,1508,1233,1640,1094,1514,1514,1514,1514,1514,1514,1514,1514,1514,998,998,0,0,4
724145133,724145133,18,255,0,0,0,1464,1513,1362,1508,1233,1640,1094,1514,1514,1514,1514,1514,1514,1514,1514,1514,998,998,0,0,4
724168930,724168930,18,255,0,0,0,1463,1513,1362,1508,1233,1640,1094,1514,1514,1514,1514,1514,1514,1514,1514,1514,998,998,0,0,4
724192919,724192919,18,255,0,0,0,1463,1513,1363,1508,1233,1640,1094,1514,1514,1514,1514,1514,1514,1514,1514,1514,998,998,0,0,4
724217096,724217096,18,255,0,0,0,1463,1513,1367,1508,1233,1640,1094,1514,1514,1514,1514,1514,1514,1514,1514,1514,998,998,0,0,4
724241078,724241078,18,255,0,0,0,1464,1513,1373,1508,1233,1640,1094,1514,1514,1514,1514,1514,1514,1514,1514,1514,998,998,0,0,4
724264801,724264801,18,255,0,0,0,1465,1513,1376,1508,1233,1640,1094,1514,1514,1514,1514,1514,1514,1514,1514,1514,998,998,0,0,4
724289314,724289314,18,255,0,0,0,1465,1513,1377,1508,1233,1640,1094,1514,1514,1514,1514,1514,1514,1514,1514,1514,998,998,0,0,4
724312958,724312958,18,255,0,0,0,1465,1513,1378,1508,1233,1640,1094,1514,1514,1514,1514,1514,1514,1514,1514,1514,998,998,0,0,4
724336927,724336927,18,255,0,0,0,1467,1513,1380,1508,1233,1640,1094,1514,1514,1514,1514,1514,1514,1514,1514,1514,998,998,0,0,4
724361080,724361080,18,255,0,0,0,1467,1513,1383,1508,1233,1640,1094,1514,1514,1514,1514,1514,1514,1514,1514,1514,998,998,0,0,4
724384973,724384973,18,255,0,0,0,1467,1513,1383,1508,1233,1640,1094,1514,1514,1514,1514,1514,1514,1514,1514,1514,998,998,0,0,4
724408942,724408942,18,255,0,0,0,1467,1513,1385,1508,1233,1640,1094,1514,1514,1514,1514,1514,1514,1514,1514,1514,998,998,0,0,4
724433309,724433309,18,255,0,0,0,1467,1513,1388,1508,1233,1640,1094,1514,1514,1514,1514,1514,1514,1514,1514,1514,998,998,0,0,4
724456945,724456945,18,255,0,0,0,1467,1513,1388,1508,1233,1640,1094,1514,1514,1514,1514,1514,1514,1514,1514,1514,998,998,0,0,4
724480741,724480741,18,255,0,0,0,1467,1513,1390,1508,1233,1640,1094,1514,1514,1514,1514,1514,1514,1514,1514,1514,998,998,0,0,4
724505054,724505054,18,255,0,0,0,1467,1513,1390,1508,1233,1640,1094,1514,1514,1514,1514,1514,1514,1514,1514,1514,998,998,0,0,4
724529079,724529079,18,255,0,0,0,1467,1513,1390,1508,1233,1640,1094,1514,1514,1514,1514,1514,1514,1514,1514,1514,998,998,0,0,4
724552976,724552976,18,255,0,0,0,1465,1513,1391,1508,1233,1640,1094,1514,1514,1514,1514,1514,1514,1514,1514,1514,998,998,0,0,4
724577068,724577068,18,255,0,0,0,1464,1513,1392,1508,1233,1640,1094,1514,1514,1514,1514,1514,1514,1514,1514,1514,998,998,0,0,4
724600939,724600939,18,255,0,0,0,1464,1513,1393,1508,1233,1640,1094,1514,1514,1514,1514,1514,1514,1514,1514,1514,998,998,0,0,4
724625045,724625045,18,255,0,0,0,1464,1513,1393,1508,1233,1640,1094,1514,1514,1514,1514,1514,1514,1514,1514,1514,998,998,0,0,4
724649058,724649058,18,255,0,0,0,1464,1513,1393,1508,1233,1640,1094,1514,1514,1514,1514,1514,1514,1514,1514,1514,998,998,0,0,4
724668779,724668779,18,255,0,0,0,1464,1513,1394,1508,1233,1640,1094,1514,1514,1514,1514,1514,1514,1514,1514,1514,998,998,0,0,4
724692665,724692665,18,255,0,0,0,1463,1513,1397,1508,1233,1640,1094,1514,1514,1514,1514,1514,1514,1514,1514,1514,998,998,0,0,4
724712668,724712668,18,255,0,0,0,1463,1513,1398,1508,1233,1640,1094,1514,1514,1514,1514,1514,1514,1514,1514,1514,998,998,0,0,4
724732694,724732694,18,255,0,0,0,1463,1513,1399,1508,1233,1640,1094,1514,1514,1514,1514,1514,1514,1514,1514,1514,998,998,0,0,4
724752705,724752705,18,255,0,0,0,1463,1513,1399,1508,1233,1640,1094,1514,1514,1514,1514,1514,1514,1514,1514,1514,998,998,0,0,4
724776746,724776746,18,255,0,0,0,1463,1513,1399,1508,1233,1640,1094,1514,1514,1514,1514,1514,1514,1514,1514,1514,998,998,0,0,4
724800705,724800705,18,255,0,0,0,1463,1513,1399,1508,1233,1640,1094,1514,1514,1514,1514,1514,1514,1514,1514,1514,998,998,0,0,4
724820700,724820700,18,255,0,0,0,1463,1513,1399,1508,1233,1640,1094,1514,1514,1514,1514,1514,1514,1514,1514,1514,998,998,0,0,4
724840949,724840949,18,255,0,0,0,1463,1513,1399,1508,1233,1640,1094,1514,1514,1514,1514,1514,1514,1514,1514,1514,998,998,0,0,4
724865275,724865275,18,255,0,0,0,1463,1513,1399,1508,1233,1640,1094,1514,1514,1514,1514,1514,1514,1514,1514,1514,998,998,0,0,4
724888942,724888942,18,255,0,0,0,1462,1513,1400,1508,1233,1640,1094,1514,1514,1514,1514,1514,1514,1514,1514,1514,998,998,0,0,4
724912942,724912942,18,255,0,0,0,1462,1513,1402,1508,1233,1640,1094,1514,1514,1514,1514,1514,1514,1514,1514,1514,998,998,0,0,4
724937144,724937144,18,255,0,0,0,1462,1513,1404,1508,1233,1640,1094,1514,1514,1514,1514,1514,1514,1514,1514,1514,998,998,0,0,4
724960948,724960948,18,255,0,0,0,1462,1513,1405,1508,1233,1640,1094,1514,1514,1514,1514,1514,1514,1514,1514,1514,998,998,0,0,4
724984738,724984738,18,255,0,0,0,1462,1513,1407,1508,1233,1640,1094,1514,1514,1514,1514,1514,1514,1514,1514,1514,998,998,0,0,4
725009052,725009052,18,255,0,0,0,1462,1513,1410,1508,1233,1640,1094,1514,1514,1514,1514,1514,1514,1514,1514,1514,998,998,0,0,4
725032732,725032732,18,255,0,0,0,1462,1513,1410,1508,1233,1640,1094,1514,1514,1514,1514,1514,1514,1514,1514,1514,998,998,0,0,4
725056950,725056950,18,255,0,0,0,1462,1513,1412,1508,1233,1640,1094,1514,1514,1514,1514,1514,1514,1514,1514,1514,998,998,0,0,4
725081069,725081069,18,255,0,0,0,1462,1513,1414,1508,1233,1640,1094,1514,1514,1514,1514,1514,1514,1514,1514,1514,998,998,0,0,4
725105002,725105002,18,255,0,0,0,1462,1513,1415,1508,1233,1640,1094,1514,1514,1514,1514,1514,1514,1514,1514,1514,998,998,0,0,4
725128950,725128950,18,255,0,0,0,1462,1513,1416,1508,1233,1640,1094,1514,1514,1514,1514,1514,1514,1514,1514,1514,998,998,0,0,4
725153049,725153049,18,255,0,0,0,1462,1513,1416,1508,1233,1640,1094,1514,1514,1514,1514,1514,1514,1514,1514,1514,998,998,0,0,4
725176729,725176729,18,255,0,0,0,1462,1513,1418,1508,1233,1640,1094,1514,1514,1514,1514,1514,1514,1514,1514,1514,998,998,0,0,4
725200742,725200742,18,255,0,0,0,1461,1513,1420,1508,1233,1640,1094,1514,1514,1514,1514,1514,1514,1514,1514,1514,998,998,0,0,4
725225052,725225052,18,255,0,0,0,1461,1513,1422,1508,1233,1640,1094,1514,1514,1514,1514,1514,1514,1514,1514,1514,998,998,0,0,4
725248768,725248768,18,255,0,0,0,1461,1513,1422,1508,1233,1640,1094,1514,1514,1514,1514,1514,1514,1514,1514,1514,998,998,0,0,4
725268959,725268959,18,255,0,0,0,1461,1513,1423,1508,1233,1640,1094,1514,1514,1514,1514,1514,1514,1514,1514,1514,998,998,0,0,4
725288946,725288946,18,255,0,0,0,1460,1513,1423,1508,1233,1640,1094,1514,1514,1514,1514,1514,1514,1514,1514,1514,998,998,0,0,4
725312722,725312722,18,255,0,0,0,1460,1513,1423,1508,1233,1640,1094,1514,1514,1514,1514,1514,1514,1514,1514,1514,998,998,0,0,4
725336768,725336768,18,255,0,0,0,1460,1513,1423,1508,1233,1640,1094,1514,1514,1514,1514,1514,1514,1514,1514,1514,998,998,0,0,4
725360793,725360793,18,255,0,0,0,1460,1513,1424,1508,1233,1640,1094,1514,1514,1514,1514,1514,1514,1514,1514,1514,998,998,0,0,4
725380729,725380729,18,255,0,0,0,1460,1513,1424,1508,1233,1640,1094,1514,1514,1514,1514,1514,1514,1514,1514,1514,998,998,0,0,4
725405071,725405071,18,255,0,0,0,1459,1513,1425,1508,1233,1640,1094,1514,1514,1514,1514,1514,1514,1514,1514,1514,998,998,0,0,4
725428735,725428735,18,255,0,0,0,1459,1513,1427,1508,1233,1640,1094,1514,1514,1514,1514,1514,1514,1514,1514,1514,998,998,0,0,4
725448764,725448764,18,255,0,0,0,1459,1513,1427,1508,1233,1640,1094,1514,1514,1514,1514,1514,1514,1514,1514,1514,998,998,0,0,4
725469009,725469009,18,255,0,0,0,1458,1513,1431,1508,1233,1640,1094,1514,1514,1514,1514,1514,1514,1514,1514,1514,998,998,0,0,4
725489029,725489029,18,255,0,0,0,1457,1513,1432,1508,1233,1640,1094,1514,1514,1514,1514,1514,1514,1514,1514,1514,998,998,0,0,4
725513058,725513058,18,255,0,0,0,1457,1513,1433,1508,1233,1640,1094,1514,1514,1514,1514,1514,1514,1514,1514,1514,998,998,0,0,4
725536798,725536798,18,255,0,0,0,1457,1513,1434,1508,1233,1640,1094,1514,1514,1514,1514,1514,1514,1514,1514,1514,998,998,0,0,4
725560701,725560701,18,255,0,0,0,1456,1513,1436,1508,1233,1640,1094,1514,1514,1514,1514,1514,1514,1514,1514,1514,998,998,0,0,4
725585039,725585039,18,255,0,0,0,1454,1513,1437,1508,1233,1640,1094,1514,1514,1514,1514,1514,1514,1514,1514,1514,998,998,0,0,4
725608695,725608695,18,255,0,0,0,1454,1513,1438,1508,1233,1640,1094,1514,1514,1514,1514,1514,1514,1514,1514,1514,998,998,0,0,4
725632726,725632726,18,255,0,0,0,1454,1513,1438,1508,1233,1640,1094,1514,1514,1514,1514,1514,1514,1514,1514,1514,998,998,0,0,4
725657120,725657120,18,255,0,0,0,1454,1513,1438,1508,1233,1640,1094,1514,1514,1514,1514,1514,1514,1514,1514,1514,998,998,0,0,4
725680758,725680758,18,255,0,0,0,1454,1513,1439,1508,1233,1640,1094,1514,1514,1514,1514,1514,1514,1514,1514,1514,998,998,0,0,4
725704923,725704923,18,255,0,0,0,1454,1513,1439,1508,1233,1640,1094,1514,1514,1514,1514,1514,1514,1514,1514,1514,998,998,0,0,4
725729325,725729325,18,255,0,0,0,1454,1513,1439,1508,1233,1640,1094,1514,1514,1514,1514,1514,1514,1514,1514,1514,998,998,0,0,4
725753045,725753045,18,255,0,0,0,1454,1513,1439,1508,1233,1640,1094,1514,1514,1514,1514,1514,1514,1514,1514,1514,998,998,0,0,4
725777024,725777024,18,255,0,0,0,1454,1513,1440,1508,1233,1640,1094,1514,1514,1514,1514,1514,1514,1514,1514,1514,998,998,0,0,4
725801089,725801089,18,255,0,0,0,1454,1513,1440,1508,1233,1640,1094,1514,1514,1514,1514,1514,1514,1514,1514,1514,998,998,0,0,4
725825010,725825010,18,255,0,0,0,1454,1513,1441,1508,1233,1640,1094,1514,1514,1514,1514,1514,1514,1514,1514,1514,998,998,0,0,4
725846399,725846399,18,255,0,0,0,1454,1513,1443,1508,1233,1640,1094,1514,1514,1514,1514,1514,1514,1514,1514,1514,998,998,0,0,4
725870348,725870348,18,255,0,0,0,1454,1513,1443,1508,1233,1640,1094,1514,1514,1514,1514,1514,1514,1514,1514,1514,998,998,0,0,4
725890326,725890326,18,255,0,0,0,1454,1513,1444,1508,1233,1640,1094,1514,1514,1514,1514,1514,1514,1514,1514,1514,998,998,0,0,4
725910651,725910651,18,255,0,0,0,1454,1513,1444,1508,1233,1640,1094,1514,1514,1514,1514,1514,1514,1514,1514,1514,998,998,0,0,4
725934352,725934352,18,255,0,0,0,1454,1513,1444,1508,1233,1640,1094,1514,1514,1514,1514,1514,1514,1514,1514,1514,998,998,0,0,4
725954356,725954356,18,255,0,0,0,1454,1513,1445,1508,1233,1640,1094,1514,1514,1514,1514,1514,1514,1514,1514,1514,998,998,0,0,4
725978333,725978333,18,255,0,0,0,1454,1513,1445,1508,1233,1640,1094,1514,1514,1514,1514,1514,1514,1514,1514,1514,998,998,0,0,4
726002348,726002348,18,255,0,0,0,1454,1513,1446,1508,1233,1640,1094,1514,1514,1514,1514,1514,1514,1514,1514,1514,998,998,0,0,4
726022325,726022325,18,255,0,0,0,1454,1513,1446,1508,1233,1640,1094,1514,1514,1514,1514,1514,1514,1514,1514,1514,998,998,0,0,4
726046343,726046343,18,255,0,0,0,1455,1513,1447,1508,1233,1640,1094,1514,1514,1514,1514,1514,1514,1514,1514,1514,998,998,0,0,4
726066376,726066376,18,255,0,0,0,1455,1513,1447,1508,1233,1640,1094,1514,1514,1514,1514,1514,1514,1514,1514,1514,998,998,0,0,4
726090657,726090657,18,255,0,0,0,1455,1513,1447,1508,1233,1640,1094,1514,1514,1514,1514,1514,1514,1514,1514,1514,998,998,0,0,4
726110323,726110323,18,255,0,0,0,1455,1513,1447,1508,1233,1640,1094,1514,1514,1514,1514,1514,1514,1514,1514,1514,998,998,0,0,4
726134632,726134632,18,255,0,0,0,1455,1513,1449,1508,1233,1640,1094,1514,1514,1514,1514,1514,1514,1514,1514,1514,998,998,0,0,4
726154328,726154328,18,255,0,0,0,1455,1513,1450,1508,1233,1640,1094,1514,1514,1514,1514,1514,1514,1514,1514,1514,998,998,0,0,4
726178539,726178539,18,255,0,0,0,1455,1513,1450,1508,1233,1640,1094,1514,1514,1514,1514,1514,1514,1514,1514,1514,998,998,0,0,4
726198734,726198734,18,255,0,0,0,1455,1513,1451,1508,1233,1640,1094,1514,1514,1514,1514,1514,1514,1514,1514,1514,998,998,0,0,4
726218345,726218345,18,255,0,0,0,1455,1513,1452,1508,1233,1640,1094,1514,1514,1514,1514,1514,1514,1514,1514,1514,998,998,0,0,4
726242697,726242697,18,255,0,0,0,1455,1513,1452,1508,1233,1640,1094,1514,1514,1514,1514,1514,1514,1514,1514,1514,998,998,0,0,4
726262582,726262582,18,255,0,0,0,1455,1513,1453,1508,1233,1640,1094,1514,1514,1514,1514,1514,1514,1514,1514,1514,998,998,0,0,4
726286352,726286352,18,255,0,0,0,1455,1513,1455,1508,1233,1640,1094,1514,1514,1514,1514,1514,1514,1514,1514,1514,998,998,0,0,4
726310516,726310516,18,255,0,0,0,1455,1513,1455,1508,1233,1640,1094,1514,1514,1514,1514,1514,1514,1514,1514,1514,998,998,0,0,4
726330344,726330344,18,255,0,0,0,1455,1513,1455,1508,1233,1640,1094,1514,1514,1514,1514,1514,1514,1514,1514,1514,998,998,0,0,4
726354333,726354333,18,255,0,0,0,1455,1513,1455,1508,1233,1640,1094,1514,1514,1514,1514,1514,1514,1514,1514,1514,998,998,0,0,4
726378683,726378683,18,255,0,0,0,1455,1513,1455,1508,1233,1640,1094,1514,1514,1514,1514,1514,1514,1514,1514,1514,998,998,0,0,4
726398380,726398380,18,255,0,0,0,1455,1513,1455,1508,1233,1640,1094,1514,1514,1514,1514,1514,1514,1514,1514,1514,998,998,0,0,4
726418373,726418373,18,255,0,0,0,1455,1513,1456,1508,1233,1640,1094,1514,1514,1514,1514,1514,1514,1514,1514,1514,998,998,0,0,4
726438542,726438542,18,255,0,0,0,1455,1513,1456,1508,1233,1640,1094,1514,1514,1514,1514,1514,1514,1514,1514,1514,998,998,0,0,4
726462335,726462335,18,255,0,0,0,1455,1513,1456,1508,1233,1640,1094,1514,1514,1514,1514,1514,1514,1514,1514,1514,998,998,0,0,4
726482332,726482332,18,255,0,0,0,1455,1513,1456,1508,1233,1640,1094,1514,1514,1514,1514,1514,1514,1514,1514,1514,998,998,0,0,4
726502306,726502306,18,255,0,0,0,1455,1513,1456,1508,1233,1640,1094,1514,1514,1514,1514,1514,1514,1514,1514,1514,998,998,0,0,4
726526352,726526352,18,255,0,0,0,1455,1513,1457,1508,1233,1640,1094,1514,1514,1514,1514,1514,1514,1514,1514,1514,998,998,0,0,4
726550289,726550289,18,255,0,0,0,1455,1513,1457,1508,1233,1640,1094,1514,1514,1514,1514,1514,1514,1514,1514,1514,998,998,0,0,4
726570297,726570297,18,255,0,0,0,1456,1513,1457,1508,1233,1640,1094,1514,1514,1514,1514,1514,1514,1514,1514,1514,998,998,0,0,4
726590312,726590312,18,255,0,0,0,1457,1513,1458,1508,1233,1640,1094,1514,1514,1514,1514,1514,1514,1514,1514,1514,998,998,0,0,4
726614335,726614335,18,255,0,0,0,1457,1513,1458,1508,1233,1640,1094,1514,1514,1514,1514,1514,1514,1514,1514,1514,998,998,0,0,4
726634334,726634334,18,255,0,0,0,1457,1513,1458,1508,1233,1640,1094,1514,1514,1514,1514,1514,1514,1514,1514,1514,998,998,0,0,4
726658325,726658325,18,255,0,0,0,1457,1513,1458,1508,1233,1640,1094,1514,1514,1514,1514,1514,1514,1514,1514,1514,998,998,0,0,4
726678319,726678319,18,255,0,0,0,1457,1513,1459,1508,1233,1640,1094,1514,1514,1514,1514,1514,1514,1514,1514,1514,998,998,0,0,4
726698318,726698318,18,255,0,0,0,1457,1513,1460,1508,1233,1640,1094,1514,1514,1514,1514,1514,1514,1514,1514,1514,998,998,0,0,4
726718316,726718316,18,255,0,0,0,1457,1513,1462,1508,1233,1640,1094,1514,1514,1514,1514,1514,1514,1514,1514,1514,998,998,0,0,4
726742336,726742336,18,255,0,0,0,1457,1513,1462,1508,1233,1640,1094,1514,1514,1514,1514,1514,1514,1514,1514,1514,998,998,0,0,4
726762348,726762348,18,255,0,0,0,1458,1513,1462,1508,1233,1640,1094,1514,1514,1514,1514,1514,1514,1514,1514,1514,998,998,0,0,4
726786355,726786355,18,255,0,0,0,1458,1513,1463,1508,1233,1640,1094,1514,1514,1514,1514,1514,1514,1514,1514,1514,998,998,0,0,4
726810672,726810672,18,255,0,0,0,1459,1513,1463,1508,1233,1640,1094,1514,1514,1514,1514,1514,1514,1514,1514,1514,998,998,0,0,4
726834315,726834315,18,255,0,0,0,1459,1513,1463,1508,1233,1640,1094,1514,1514,1514,1514,1514,1514,1514,1514,1514,998,998,0,0,4
726858339,726858339,18,255,0,0,0,1459,1513,1463,1508,1233,1640,1094,1514,1514,1514,1514,1514,1514,1514,1514,1514,998,998,0,0,4
726882685,726882685,18,255,0,0,0,1459,1513,1463,1508,1233,1640,1094,1514,1514,1514,1514,1514,1514,1514,1514,1514,998,998,0,0,4
726902345,726902345,18,255,0,0,0,1459,1513,1463,1508,1233,1640,1094,1514,1514,1514,1514,1514,1514,1514,1514,1514,998,998,0,0,4
726926357,726926357,18,255,0,0,0,1460,1513,1463,1508,1233,1640,1094,1514,1514,1514,1514,1514,1514,1514,1514,1514,998,998,0,0,4
726946352,726946352,18,255,0,0,0,1460,1513,1463,1508,1233,1640,1094,1514,1514,1514,1514,1514,1514,1514,1514,1514,998,998,0,0,4
726966355,726966355,18,255,0,0,0,1461,1513,1463,1508,1233,1640,1094,1514,1514,1514,1514,1514,1514,1514,1514,1514,998,998,0,0,4
726986351,726986351,18,255,0,0,0,1462,1513,1463,1508,1233,1640,1094,1514,1514,1514,1514,1514,1514,1514,1514,1514,998,998,0,0,4
727010553,727010553,18,255,0,0,0,1462,1513,1463,1508,1233,1640,1094,1514,1514,1514,1514,1514,1514,1514,1514,1514,998,998,0,0,4
727030358,727030358,18,255,0,0,0,1462,1513,1463,1508,1233,1640,1094,1514,1514,1514,1514,1514,1514,1514,1514,1514,998,998,0,0,4
727054313,727054313,18,255,0,0,0,1462,1513,1463,1508,1233,1640,1094,1514,1514,1514,1514,1514,1514,1514,1514,1514,998,998,0,0,4
727078569,727078569,18,255,0,0,0,1462,1513,1463,1508,1233,1640,1094,1514,1514,1514,1514,1514,1514,1514,1514,1514,998,998,0,0,4
727098684,727098684,18,255,0,0,0,1462,1513,1463,1508,1233,1640,1094,1514,1514,1514,1514,1514,1514,1514,1514,1514,998,998,0,0,4
727122342,727122342,18,255,0,0,0,1462,1513,1463,1508,1233,1640,1094,1514,1514,1514,1514,1514,1514,1514,1514,1514,998,998,0,0,4
727146541,727146541,18,255,0,0,0,1462,1513,1463,1508,1233,1640,1094,1514,1514,1514,1514,1514,1514,1514,1514,1514,998,998,0,0,4
727166393,727166393,18,255,0,0,0,1464,1513,1464,1508,1233,1640,1094,1514,1514,1514,1514,1514,1514,1514,1514,1514,998,998,0,0,4
727190315,727190315,18,255,0,0,0,1465,1513,1465,1508,1233,1640,1094,1514,1514,1514,1514,1514,1514,1514,1514,1514,998,998,0,0,4
727210326,727210326,18,255,0,0,0,1465,1513,1466,1508,1233,1640,1094,1514,1514,1514,1514,1514,1514,1514,1514,1514,998,998,0,0,4
727234617,727234617,18,255,0,0,0,1466,1513,1466,1508,1233,1640,1094,1514,1514,1514,1514,1514,1514,1514,1514,1514,998,998,0,0,4
727254530,727254530,18,255,0,0,0,1467,1513,1466,1508,1233,1640,1094,1514,1514,1514,1514,1514,1514,1514,1514,1514,998,998,0,0,4
727278674,727278674,18,255,0,0,0,1467,1513,1466,1508,1233,1640,1094,1514,1514,1514,1514,1514,1514,1514,1514,1514,998,998,0,0,4
727302319,727302319,18,255,0,0,0,1467,1513,1468,1508,1233,1640,1094,1514,1514,1514,1514,1514,1514,1514,1514,1514,998,998,0,0,4
727322334,727322334,18,255,0,0,0,1468,1513,1469,1508,1233,1640,1094,1514,1514,1514,1514,1514,1514,1514,1514,1514,998,998,0,0,4
727342341,727342341,18,255,0,0,0,1468,1513,1470,1508,1233,1640,1094,1514,1514,1514,1514,1514,1514,1514,1514,1514,998,998,0,0,4
727362342,727362342,18,255,0,0,0,1470,1513,1471,1508,1233,1640,1094,1514,1514,1514,1514,1514,1514,1514,1514,1514,998,998,0,0,4
727382317,727382317,18,255,0,0,0,1472,1513,1471,1508,1233,1640,1094,1514,1514,1514,1514,1514,1514,1514,1514,1514,998,998,0,0,4
727406372,727406372,18,255,0,0,0,1472,1513,1472,1508,1233,1640,1094,1514,1514,1514,1514,1514,1514,1514,1514,1514,998,998,0,0,4
727430324,727430324,18,255,0,0,0,1473,1513,1472,1508,1233,1640,1094,1514,1514,1514,1514,1514,1514,1514,1514,1514,998,998,0,0,4
727450315,727450315,18,255,0,0,0,1473,1513,1472,1508,1233,1640,1094,1514,1514,1514,1514,1514,1514,1514,1514,1514,998,998,0,0,4
727474349,727474349,18,255,0,0,0,1473,1513,1472,1508,1233,1640,1094,1514,1514,1514,1514,1514,1514,1514,1514,1514,998,998,0,0,4
727498500,727498500,18,255,0,0,0,1473,1513,1472,1508,1233,1640,1094,1514,1514,1514,1514,1514,1514,1514,1514,1514,998,998,0,0,4
727522477,727522477,18,255,0,0,0,1473,1513,1472,1508,1233,1640,1094,1514,1514,1514,1514,1514,1514,1514,1514,1514,998,998,0,0,4
727542488,727542488,18,255,0,0,0,1473,1513,1472,1508,1233,1640,1094,1514,1514,1514,1514,1514,1514,1514,1514,1514,998,998,0,0,4
727562380,727562380,18,255,0,0,0,1473,1513,1472,1508,1233,1640,1094,1514,1514,1514,1514,1514,1514,1514,1514,1514,998,998,0,0,4
727586500,727586500,18,255,0,0,0,1474,1513,1472,1508,1233,1640,1094,1514,1514,1514,1514,1514,1514,1514,1514,1514,998,998,0,0,4
727610341,727610341,18,255,0,0,0,1475,1513,1472,1508,1233,1640,1094,1514,1514,1514,1514,1514,1514,1514,1514,1514,998,998,0,0,4
727634353,727634353,18,255,0,0,0,1475,1513,1472,1508,1233,1640,1094,1514,1514,1514,1514,1514,1514,1514,1514,1514,998,998,0,0,4
727658638,727658638,18,255,0,0,0,1475,1513,1472,1508,1233,1640,1094,1514,1514,1514,1514,1514,1514,1514,1514,1514,998,998,0,0,4
727678311,727678311,18,255,0,0,0,1475,1513,1472,1508,1233,1640,1094,1514,1514,1514,1514,1514,1514,1514,1514,1514,998,998,0,0,4
727698540,727698540,18,255,0,0,0,1475,1513,1471,1508,1233,1640,1094,1514,1514,1514,1514,1514,1514,1514,1514,1514,998,998,0,0,4
727722537,727722537,18,255,0,0,0,1475,1513,1471,1508,1233,1640,1094,1514,1514,1514,1514,1514,1514,1514,1514,1514,998,998,0,0,4
