timestamp,baro_alt_meter,baro_temp_celcius,baro_pressure_pa,rho
717090726,158.30136,45.719997,99438,1.1814879
717103168,158.63959,45.719997,99434,1.1814404
717124940,158.47047,45.719997,99436,1.1814642
717135439,158.30136,45.719997,99438,1.1814879
717147169,158.9778,45.719997,99430,1.1813929
717168763,158.72414,45.73,99432.99,1.1814284
717179441,158.47047,45.73,99436,1.1814642
717191866,158.47047,45.73,99436,1.1814642
717215155,158.30136,45.719997,99438,1.1814879
717225403,158.21681,45.719997,99438.99,1.1814997
717236721,158.30136,45.719997,99438,1.1814879
717256437,158.47047,45.719997,99436,1.1814642
717268614,158.47047,45.719997,99436,1.1814642
717280332,158.21681,45.719997,99438.99,1.1814997
717301436,158.30136,45.719997,99438,1.1814879
717312449,158.80869,45.719997,99432,1.1814166
717322521,158.47047,45.719997,99436,1.1814642
717344345,158.30136,45.719997,99438,1.1814879
717354902,158.47047,45.719997,99436,1.1814642
717365185,158.21681,45.719997,99438.99,1.1814997
717386537,158.80869,45.719997,99432,1.1814166
717396591,158.55502,45.719997,99435,1.1814523
717407447,158.55502,45.719997,99435,1.1814523
717428436,158.63959,45.719997,99434,1.1814404
717439436,159.14691,45.719997,99428,1.1813691
717450527,159.06235,45.719997,99429,1.181381
717474037,158.21681,45.719997,99438.99,1.1814997
717484437,158.89325,45.719997,99431,1.1814047
717494636,158.38593,45.719997,99437,1.181476
717516761,158.55502,45.719997,99435,1.1814523
717526741,158.55502,45.719997,99435,1.1814523
717537918,158.72414,45.719997,99432.99,1.1814284
717559448,158.0477,45.719997,99441,1.1815236
717570581,158.30136,45.719997,99438,1.1814879
717581448,158.80869,45.719997,99432,1.1814166
717603436,158.80869,45.73,99432,1.1814166
717613448,158.47047,45.73,99436,1.1814642
717624449,158.0477,45.73,99441,1.1815236
717647377,158.63959,45.719997,99434,1.1814404
717657465,158.63959,45.719997,99434,1.1814404
717668478,158.89325,45.719997,99431,1.1814047
717690715,158.47047,45.719997,99436,1.1814642
717701436,158.80869,45.719997,99432,1.1814166
717712436,158.63959,45.719997,99434,1.1814404
717733436,158.13225,45.73,99440,1.1815116
717743923,158.30136,45.73,99438,1.1814879
717755630,158.47047,45.73,99436,1.1814642
717779575,158.21681,45.73,99438.99,1.1814997
717790909,158.21681,45.73,99438.99,1.1814997
717800659,158.47047,45.73,99436,1.1814642
717822589,158.21681,45.719997,99438.99,1.1814997
717832525,158.80869,45.719997,99432,1.1814166
717844435,158.38593,45.719997,99437,1.181476
717865511,158.47047,45.73,99436,1.1814642
717876459,158.63959,45.73,99434,1.1814404
717886896,159.06235,45.73,99429,1.181381
717908341,158.63959,45.73,99434,1.1814404
717918593,158.63959,45.73,99434,1.1814404
717928521,158.47047,45.73,99436,1.1814642
717950129,158.80869,45.73,99432,1.1814166
717960436,158.38593,45.73,99437,1.181476
717970673,158.89325,45.73,99431,1.1814047
717991489,158.38593,45.73,99437,1.181476
718002562,158.47047,45.73,99436,1.1814642
718012485,158.47047,45.73,99436,1.1814642
718034530,158.72414,45.73,99432.99,1.1814284
718046277,158.38593,45.73,99437,1.181476
718056437,158.13225,45.73,99440,1.1815116
718076469,158.89325,45.719997,99431,1.1814047
718087436,158.30136,45.719997,99438,1.1814879
718098548,158.9778,45.719997,99430,1.1813929
718120435,158.80869,45.73,99432,1.1814166
718131439,158.55502,45.73,99435,1.1814523
718142545,158.47047,45.73,99436,1.1814642
718163450,158.21681,45.73,99438.99,1.1814997
718173938,157.87859,45.73,99443,1.1815473
718184747,158.47047,45.73,99436,1.1814642
718206991,158.55502,45.73,99435,1.1814523
718217436,158.72414,45.73,99432.99,1.1814284
718228776,158.47047,45.73,99436,1.1814642
718250711,158.21681,45.73,99438.99,1.1814997
718261494,158.47047,45.73,99436,1.1814642
718272436,158.89325,45.73,99431,1.1814047
718293451,158.38593,45.73,99437,1.181476
718304435,157.96315,45.73,99442,1.1815355
718315483,159.06235,45.73,99429,1.181381
718339583,158.38593,45.73,99437,1.181476
718352158,158.30136,45.73,99438,1.1814879
718361872,158.30136,45.73,99438,1.1814879
718385156,158.72414,45.73,99432.99,1.1814284
718396331,158.55502,45.73,99435,1.1814523
718406507,158.30136,45.73,99438,1.1814879
718428363,158.55502,45.73,99435,1.1814523
718438513,158.0477,45.73,99441,1.1815236
718449912,157.70949,45.73,99444.99,1.181571
718471763,158.47047,45.73,99436,1.1814642
718482515,158.80869,45.73,99432,1.1814166
718494278,158.72414,45.73,99432.99,1.1814284
718514507,158.80869,45.73,99432,1.1814166
718525954,158.80869,45.73,99432,1.1814166
718536436,158.47047,45.73,99436,1.1814642
718557962,158.47047,45.73,99436,1.1814642
718568450,158.72414,45.73,99432.99,1.1814284
718579444,158.38593,45.73,99437,1.181476
718601450,158.21681,45.73,99438.99,1.1814997
718612436,158.9778,45.73,99430,1.1813929
718622669,158.47047,45.73,99436,1.1814642
718644447,158.63959,45.73,99434,1.1814404
718654659,158.47047,45.73,99436,1.1814642
718665446,157.87859,45.73,99443,1.1815473
718687436,158.21681,45.739998,99438.99,1.1814997
718699446,158.80869,45.739998,99432,1.1814166
718710841,157.87859,45.739998,99443,1.1815473
718733435,158.89325,45.73,99431,1.1814047
718744748,158.47047,45.73,99436,1.1814642
718755547,158.63959,45.73,99434,1.1814404
718777447,158.38593,45.73,99437,1.181476
718788436,158.47047,45.73,99436,1.1814642
718799436,158.47047,45.73,99436,1.1814642
718821495,158.47047,45.73,99436,1.1814642
718832494,158.72414,45.73,99432.99,1.1814284
718843104,158.89325,45.73,99431,1.1814047
718863436,158.13225,45.739998,99440,1.1815116
718873507,158.30136,45.739998,99438,1.1814879
718884458,157.70949,45.739998,99444.99,1.181571
718905436,158.72414,45.739998,99432.99,1.1814284
718915463,158.72414,45.739998,99432.99,1.1814284
718926841,158.21681,45.739998,99438.99,1.1814997
718949503,158.55502,45.73,99435,1.1814523
718960760,158.30136,45.73,99438,1.1814879
718971453,158.13225,45.73,99440,1.1815116
718993447,158.47047,45.73,99436,1.1814642
719003922,158.72414,45.73,99432.99,1.1814284
719013443,158.72414,45.73,99432.99,1.1814284
719035843,158.80869,45.73,99432,1.1814166
719047516,158.55502,45.73,99435,1.1814523
719059777,158.55502,45.73,99435,1.1814523
719083757,158.21681,45.73,99438.99,1.1814997
719093491,158.72414,45.73,99432.99,1.1814284
719103436,159.06235,45.73,99429,1.181381
719125439,158.47047,45.739998,99436,1.1814642
719137142,158.55502,45.739998,99435,1.1814523
719146541,158.47047,45.739998,99436,1.1814642
719167809,158.63959,45.73,99434,1.1814404
719177456,157.87859,45.73,99443,1.1815473
719189422,158.47047,45.73,99436,1.1814642
719211764,158.30136,45.73,99438,1.1814879
719222028,158.72414,45.73,99432.99,1.1814284
719233055,158.55502,45.73,99435,1.1814523
719254544,158.30136,45.73,99438,1.1814879
719265583,157.96315,45.73,99442,1.1815355
719277862,158.38593,45.73,99437,1.181476
719299436,158.30136,45.739998,99438,1.1814879
719310577,158.13225,45.739998,99440,1.1815116
719321225,158.21681,45.739998,99438.99,1.1814997
719342072,158.47047,45.739998,99436,1.1814642
719353117,158.55502,45.739998,99435,1.1814523
719363475,158.47047,45.739998,99436,1.1814642
719385436,158.38593,45.739998,99437,1.181476
719395445,158.80869,45.739998,99432,1.1814166
719406539,158.63959,45.739998,99434,1.1814404
719429961,157.96315,45.739998,99442,1.1815355
719441142,158.38593,45.739998,99437,1.181476
719451753,158.47047,45.739998,99436,1.1814642
719473115,158.47047,45.739998,99436,1.1814642
719483436,158.72414,45.739998,99432.99,1.1814284
719494589,159.14691,45.739998,99428,1.1813691
719515436,158.80869,45.739998,99432,1.1814166
719526533,158.38593,45.739998,99437,1.181476
719537479,158.89325,45.739998,99431,1.1814047
719558161,158.55502,45.739998,99435,1.1814523
719569089,158.21681,45.739998,99438.99,1.1814997
719579463,158.72414,45.739998,99432.99,1.1814284
719601125,158.72414,45.739998,99432.99,1.1814284
719611449,158.72414,45.739998,99432.99,1.1814284
719622582,158.47047,45.739998,99436,1.1814642
719643753,158.38593,45.739998,99437,1.181476
719654314,158.63959,45.739998,99434,1.1814404
719663464,157.70949,45.739998,99444.99,1.181571
719685439,158.47047,45.739998,99436,1.1814642
719697196,158.13225,45.739998,99440,1.1815116
719707436,158.38593,45.739998,99437,1.181476
719729148,158.72414,45.739998,99432.99,1.1814284
719739483,158.38593,45.739998,99437,1.181476
719750537,158.63959,45.739998,99434,1.1814404
719771436,158.21681,45.739998,99438.99,1.1814997
719781566,158.38593,45.739998,99437,1.181476
719793118,158.55502,45.739998,99435,1.1814523
719813806,158.21681,45.739998,99438.99,1.1814997
719825132,158.21681,45.739998,99438.99,1.1814997
719835436,158.9778,45.739998,99430,1.1813929
719857450,158.80869,45.739998,99432,1.1814166
719867439,158.80869,45.739998,99432,1.1814166
719878550,158.47047,45.739998,99436,1.1814642
719899768,158.47047,45.739998,99436,1.1814642
719909870,159.23146,45.739998,99426.99,1.1813571
719921054,158.55502,45.739998,99435,1.1814523
719942523,158.38593,45.75,99437,1.181476
719953905,158.30136,45.75,99438,1.1814879
719964447,158.38593,45.75,99437,1.181476
719986112,158.21681,45.739998,99438.99,1.1814997
719996436,158.72414,45.739998,99432.99,1.1814284
720007439,159.06235,45.739998,99429,1.181381
720029483,158.38593,45.75,99437,1.181476
720040436,158.63959,45.75,99434,1.1814404
720050831,158.55502,45.75,99435,1.1814523
720072435,158.38593,45.75,99437,1.181476
720082693,158.63959,45.75,99434,1.1814404
720093490,158.63959,45.75,99434,1.1814404
720114683,158.13225,45.75,99440,1.1815116
720126928,158.13225,45.75,99440,1.1815116
720137435,158.63959,45.75,99434,1.1814404
720159441,158.38593,45.75,99437,1.181476
720171040,158.30136,45.75,99438,1.1814879
720181436,158.63959,45.75,99434,1.1814404
720203442,158.72414,45.739998,99432.99,1.1814284
720214911,158.9778,45.739998,99430,1.1813929
720225447,158.9778,45.739998,99430,1.1813929
720247439,158.21681,45.739998,99438.99,1.1814997
720259139,158.47047,45.739998,99436,1.1814642
720269436,158.38593,45.739998,99437,1.181476
720290909,158.30136,45.739998,99438,1.1814879
720301447,158.89325,45.739998,99431,1.1814047
720312436,158.72414,45.739998,99432.99,1.1814284
720334972,157.96315,45.739998,99442,1.1815355
720345447,158.47047,45.739998,99436,1.1814642
720356475,159.06235,45.739998,99429,1.181381
720378764,158.89325,45.75,99431,1.1814047
720389436,158.21681,45.75,99438.99,1.1814997
720400436,158.0477,45.75,99441,1.1815236
720423889,158.21681,45.739998,99438.99,1.1814997
720434706,158.47047,45.739998,99436,1.1814642
720445447,158.30136,45.739998,99438,1.1814879
720466780,158.38593,45.75,99437,1.181476
720477436,158.47047,45.75,99436,1.1814642
720488436,157.70949,45.75,99444.99,1.181571
720510507,159.06235,45.75,99429,1.181381
720520597,158.63959,45.75,99434,1.1814404
720532249,158.63959,45.75,99434,1.1814404
720552979,158.89325,45.739998,99431,1.1814047
720564498,158.38593,45.739998,99437,1.181476
720574879,158.38593,45.739998,99437,1.181476
720596383,158.72414,45.75,99432.99,1.1814284
720606536,158.63959,45.75,99434,1.1814404
720617438,158.21681,45.75,99438.99,1.1814997
720638497,158.21681,45.75,99438.99,1.1814997
720649436,158.38593,45.75,99437,1.181476
720660314,158.38593,45.75,99437,1.181476
720681203,158.63959,45.75,99434,1.1814404
720692303,158.55502,45.75,99435,1.1814523
720702495,158.47047,45.75,99436,1.1814642
720724439,158.30136,45.75,99438,1.1814879
720736944,158.80869,45.75,99432,1.1814166
720748368,158.80869,45.75,99432,1.1814166
720772313,158.47047,45.75,99436,1.1814642
720781436,158.30136,45.75,99438,1.1814879
720793131,159.06235,45.75,99429,1.181381
720813465,158.55502,45.75,99435,1.1814523
720824765,158.9778,45.75,99430,1.1813929
720836314,158.89325,45.75,99431,1.1814047
720857436,158.55502,45.75,99435,1.1814523
720868439,158.0477,45.75,99441,1.1815236
720880958,158.55502,45.75,99435,1.1814523
720902544,158.47047,45.75,99436,1.1814642
720913436,158.80869,45.75,99432,1.1814166
720924355,158.47047,45.75,99436,1.1814642
720944962,158.38593,45.75,99437,1.181476
720956379,158.55502,45.75,99435,1.1814523
720966575,158.89325,45.75,99431,1.1814047
720988394,158.55502,45.75,99435,1.1814523
720998526,158.80869,45.75,99432,1.1814166
721009436,158.72414,45.75,99432.99,1.1814284
721030864,158.38593,45.75,99437,1.181476
721041181,158.47047,45.75,99436,1.1814642
721052290,158.55502,45.75,99435,1.1814523
721072578,158.9778,45.75,99430,1.1813929
721084327,158.55502,45.75,99435,1.1814523
721094533,158.89325,45.75,99431,1.1814047
721116383,158.13225,45.75,99440,1.1815116
721126837,158.63959,45.75,99434,1.1814404
721137237,158.0477,45.75,99441,1.1815236
721158507,158.13225,45.75,99440,1.1815116
721169439,158.21681,45.75,99438.99,1.1814997
721180442,157.96315,45.75,99442,1.1815355
721204250,158.55502,45.75,99435,1.1814523
721214513,157.96315,45.75,99442,1.1815355
721225440,158.55502,45.75,99435,1.1814523
721246826,158.80869,45.75,99432,1.1814166
721257441,158.47047,45.75,99436,1.1814642
721268405,158.89325,45.75,99431,1.1814047
721289436,158.89325,45.75,99431,1.1814047
721300436,158.80869,45.75,99432,1.1814166
721312710,158.47047,45.75,99436,1.1814642
721334507,158.47047,45.75,99436,1.1814642
721345437,158.55502,45.75,99435,1.1814523
721356387,158.55502,45.75,99435,1.1814523
721377230,158.80869,45.75,99432,1.1814166
721388352,158.13225,45.75,99440,1.1815116
721398516,158.63959,45.75,99434,1.1814404
721420284,158.30136,45.76,99438,1.1814879
721429436,158.63959,45.76,99434,1.1814404
721440943,158.9778,45.76,99430,1.1813929
721461441,158.13225,45.76,99440,1.1815116
721473268,158.38593,45.76,99437,1.181476
721484325,158.89325,45.76,99431,1.1814047
721505444,158.38593,45.76,99437,1.181476
721516441,158.13225,45.76,99440,1.1815116
721526554,158.89325,45.76,99431,1.1814047
721548390,158.72414,45.76,99432.99,1.1814284
721558891,158.55502,45.76,99435,1.1814523
721569324,158.47047,45.76,99436,1.1814642
721590540,158.38593,45.76,99437,1.181476
721600630,158.38593,45.76,99437,1.181476
721612289,158.21681,45.76,99438.99,1.1814997
721633436,158.21681,45.76,99438.99,1.1814997
721644317,157.96315,45.76,99442,1.1815355
721654869,157.87859,45.76,99443,1.1815473
721676333,158.72414,45.75,99432.99,1.1814284
721686569,158.55502,45.75,99435,1.1814523
721696714,158.21681,45.75,99438.99,1.1814997
721718530,158.30136,45.76,99438,1.1814879
721729493,158.0477,45.76,99441,1.1815236
721740440,158.47047,45.76,99436,1.1814642
721761186,158.47047,45.76,99436,1.1814642
721772576,158.55502,45.76,99435,1.1814523
721782520,158.63959,45.76,99434,1.1814404
721804313,158.21681,45.76,99438.99,1.1814997
721813498,158.63959,45.76,99434,1.1814404
721825433,158.63959,45.76,99434,1.1814404
721846843,158.0477,45.76,99441,1.1815236
721858292,158.47047,45.76,99436,1.1814642
721868361,158.63959,45.76,99434,1.1814404
721889464,158.55502,45.76,99435,1.1814523
721900435,158.21681,45.76,99438.99,1.1814997
721912649,158.55502,45.76,99435,1.1814523
721934506,158.38593,45.76,99437,1.181476
721945435,158.30136,45.76,99438,1.1814879
721956378,158.38593,45.76,99437,1.181476
721977231,158.47047,45.76,99436,1.1814642
721988365,158.72414,45.76,99432.99,1.1814284
721998529,158.63959,45.76,99434,1.1814404
722020338,158.89325,45.76,99431,1.1814047
722030564,158.47047,45.76,99436,1.1814642
722041565,158.63959,45.76,99434,1.1814404
722062937,158.30136,45.76,99438,1.1814879
722073493,158.72414,45.76,99432.99,1.1814284
722084373,158.30136,45.76,99438,1.1814879
722104577,157.96315,45.76,99442,1.1815355
722116377,158.55502,45.76,99435,1.1814523
722126536,158.21681,45.76,99438.99,1.1814997
722148458,158.47047,45.76,99436,1.1814642
722158845,158.55502,45.76,99435,1.1814523
722169325,158.55502,45.76,99435,1.1814523
722190539,158.21681,45.76,99438.99,1.1814997
722200754,158.80869,45.76,99432,1.1814166
722212277,158.55502,45.76,99435,1.1814523
722233499,158.47047,45.76,99436,1.1814642
722244414,158.72414,45.76,99432.99,1.1814284
722254863,158.30136,45.76,99438,1.1814879
722276300,158.55502,45.76,99435,1.1814523
722286571,158.63959,45.76,99434,1.1814404
722296550,158.55502,45.76,99435,1.1814523
722318583,158.72414,45.76,99432.99,1.1814284
722329436,158.55502,45.76,99435,1.1814523
722340343,158.55502,45.76,99435,1.1814523
722361184,158.21681,45.77,99438.99,1.1814997
722372547,158.55502,45.77,99435,1.1814523
722382555,158.72414,45.77,99432.99,1.1814284
722404281,158.38593,45.76,99437,1.181476
722414612,158.21681,45.76,99438.99,1.1814997
722425450,158.55502,45.76,99435,1.1814523
722448586,158.55502,45.76,99435,1.1814523
722460341,158.55502,45.76,99435,1.1814523
722470548,158.89325,45.76,99431,1.1814047
722492308,158.89325,45.76,99431,1.1814047
722502544,158.47047,45.76,99436,1.1814642
722512949,158.38593,45.76,99437,1.181476
722534888,157.70949,45.77,99444.99,1.181571
722545259,158.63959,45.77,99434,1.1814404
722556355,158.55502,45.77,99435,1.1814523
722576974,158.38593,45.76,99437,1.181476
722588328,158.55502,45.76,99435,1.1814523
722598549,158.47047,45.76,99436,1.1814642
722620337,158.89325,45.77,99431,1.1814047
722630864,158.72414,45.77,99432.99,1.1814284
722641392,158.80869,45.77,99432,1.1814166
722662580,157.87859,45.76,99443,1.1815473
722672625,158.21681,45.76,99438.99,1.1814997
722684306,158.63959,45.76,99434,1.1814404
722705436,158.38593,45.77,99437,1.181476
722716442,158.72414,45.77,99432.99,1.1814284
722726863,158.72414,45.77,99432.99,1.1814284
722748412,158.13225,45.77,99440,1.1815116
722758563,158.80869,45.77,99432,1.1814166
722768599,158.63959,45.77,99434,1.1814404
722790603,158.9778,45.77,99430,1.1813929
722801070,158.55502,45.77,99435,1.1814523
722812431,158.55502,45.77,99435,1.1814523
722833178,158.89325,45.76,99431,1.1814047
722844308,158.47047,45.76,99436,1.1814642
722854580,158.80869,45.76,99432,1.1814166
722876471,158.55502,45.77,99435,1.1814523
722886519,158.55502,45.77,99435,1.1814523
722897534,158.9778,45.77,99430,1.1813929
722921107,158.47047,45.77,99436,1.1814642
722932381,158.89325,45.77,99431,1.1814047
722942846,157.87859,45.77,99443,1.1815473
722964370,158.47047,45.77,99436,1.1814642
722974506,158.63959,45.77,99434,1.1814404
722985440,158.63959,45.77,99434,1.1814404
723006513,158.89325,45.77,99431,1.1814047
723017448,158.30136,45.77,99438,1.1814879
723028474,158.47047,45.77,99436,1.1814642
723049176,158.63959,45.77,99434,1.1814404
723060347,158.47047,45.77,99436,1.1814642
723070518,158.63959,45.77,99434,1.1814404
723092288,158.30136,45.77,99438,1.1814879
723102530,158.80869,45.77,99432,1.1814166
723112546,158.63959,45.77,99434,1.1814404
723134624,158.63959,45.77,99434,1.1814404
723145173,158.80869,45.77,99432,1.1814166
723154943,158.30136,45.77,99438,1.1814879
723174656,158.89325,45.77,99431,1.1814047
723184703,158.55502,45.77,99435,1.1814523
723196448,158.72414,45.77,99432.99,1.1814284
723217488,158.63959,45.77,99434,1.1814404
723228493,158.72414,45.77,99432.99,1.1814284
723238580,158.30136,45.77,99438,1.1814879
723260377,158.30136,45.77,99438,1.1814879
723270842,158.80869,45.77,99432,1.1814166
723281021,159.06235,45.77,99429,1.181381
723302533,158.21681,45.77,99438.99,1.1814997
723312980,158.55502,45.77,99435,1.1814523
723324337,158.0477,45.77,99441,1.1815236
723345436,158.13225,45.78,99440,1.1815116
723356394,158.89325,45.78,99431,1.1814047
723366842,158.72414,45.78,99432.99,1.1814284
723388480,158.0477,45.77,99441,1.1815236
723398531,159.06235,45.77,99429,1.181381
723409443,158.80869,45.77,99432,1.1814166
723432642,158.47047,45.78,99436,1.1814642
723444354,158.47047,45.78,99436,1.1814642
723453462,158.9778,45.78,99430,1.1813929
723476417,159.14691,45.77,99428,1.1813691
723489073,158.30136,45.77,99438,1.1814879
723500350,158.63959,45.77,99434,1.1814404
723521049,158.13225,45.77,99440,1.1815116
723532387,158.80869,45.77,99432,1.1814166
723542543,158.30136,45.77,99438,1.1814879
723564328,158.63959,45.77,99434,1.1814404
723574534,158.38593,45.77,99437,1.181476
723584959,158.47047,45.77,99436,1.1814642
723606852,158.47047,45.77,99436,1.1814642
723617186,158.72414,45.77,99432.99,1.1814284
723628336,159.14691,45.77,99428,1.1813691
723649436,158.72414,45.77,99432.99,1.1814284
723660435,159.06235,45.77,99429,1.181381
723670531,158.63959,45.77,99434,1.1814404
723692438,158.55502,45.77,99435,1.1814523
723702858,158.72414,45.77,99432.99,1.1814284
723713199,158.30136,45.77,99438,1.1814879
723734555,158.47047,45.78,99436,1.1814642
723744962,158.72414,45.78,99432.99,1.1814284
723756303,158.0477,45.78,99441,1.1815236
723777436,158.47047,45.78,99436,1.1814642
723788384,158.55502,45.78,99435,1.1814523
723798886,158.80869,45.78,99432,1.1814166
723820409,158.21681,45.78,99438.99,1.1814997
723830530,158.55502,45.78,99435,1.1814523
723841527,158.80869,45.78,99432,1.1814166
723862607,158.47047,45.77,99436,1.1814642
723873436,158.55502,45.77,99435,1.1814523
723884358,158.38593,45.77,99437,1.181476
723905211,158.38593,45.78,99437,1.181476
723916275,158.80869,45.78,99432,1.1814166
723926569,158.89325,45.78,99431,1.1814047
723948441,158.80869,45.77,99432,1.1814166
723960662,158.72414,45.77,99432.99,1.1814284
723972248,158.72414,45.77,99432.99,1.1814284
723993436,158.63959,45.77,99434,1.1814404
724004441,159.31601,45.77,99425.99,1.1813452
724014856,158.63959,45.77,99434,1.1814404
724036400,158.89325,45.78,99431,1.1814047
724046528,159.23146,45.78,99426.99,1.1813571
724057446,158.38593,45.78,99437,1.181476
724078507,158.21681,45.78,99438.99,1.1814997
724089488,159.06235,45.78,99429,1.181381
724100334,158.63959,45.78,99434,1.1814404
724121141,158.55502,45.78,99435,1.1814523
724132335,159.06235,45.78,99429,1.181381
724142533,158.38593,45.78,99437,1.181476
724164306,159.14691,45.77,99428,1.1813691
724174512,158.72414,45.77,99432.99,1.1814284
724185436,158.13225,45.77,99440,1.1815116
724206832,158.89325,45.78,99431,1.1814047
724218146,158.9778,45.78,99430,1.1813929
724228372,158.9778,45.78,99430,1.1813929
724249453,158.21681,45.78,99438.99,1.1814997
724260305,158.38593,45.78,99437,1.181476
724270576,158.38593,45.78,99437,1.181476
724292382,158.30136,45.78,99438,1.1814879
724302883,158.13225,45.78,99440,1.1815116
724313147,158.80869,45.78,99432,1.1814166
724334582,158.47047,45.78,99436,1.1814642
724344760,158.80869,45.78,99432,1.1814166
724356348,158.38593,45.78,99437,1.181476
724377489,158.13225,45.77,99440,1.1815116
724388376,159.14691,45.77,99428,1.1813691
724398956,158.89325,45.77,99431,1.1814047
724420371,158.89325,45.78,99431,1.1814047
724430575,158.38593,45.78,99437,1.181476
724440771,158.47047,45.78,99436,1.1814642
724462552,158.38593,45.78,99437,1.181476
724472957,158.89325,45.78,99431,1.1814047
724482553,158.89325,45.78,99431,1.1814047
724504944,158.38593,45.78,99437,1.181476
724516281,158.55502,45.78,99435,1.1814523
724526581,158.55502,45.78,99435,1.1814523
724548435,158.89325,45.78,99431,1.1814047
724558568,158.80869,45.78,99432,1.1814166
724569435,158.47047,45.78,99436,1.1814642
724590870,158.0477,45.78,99441,1.1815236
724601230,158.47047,45.78,99436,1.1814642
724612351,158.9778,45.78,99430,1.1813929
724632536,158.80869,45.78,99432,1.1814166
724644247,158.80869,45.78,99432,1.1814166
724654588,158.9778,45.78,99430,1.1813929
724676294,158.38593,45.78,99437,1.181476
724686866,158.80869,45.78,99432,1.1814166
724697043,158.80869,45.78,99432,1.1814166
724718545,159.23146,45.78,99426.99,1.1813571
724729436,159.23146,45.78,99426.99,1.1813571
724740439,159.06235,45.78,99429,1.181381
724764297,158.0477,45.78,99441,1.1815236
724774537,158.9778,45.78,99430,1.1813929
724785436,158.47047,45.78,99436,1.1814642
724806886,159.06235,45.789997,99429,1.181381
724817168,158.13225,45.789997,99440,1.1815116
724828452,158.63959,45.789997,99434,1.1814404
724849436,157.87859,45.78,99443,1.1815473
724860439,158.13225,45.78,99440,1.1815116
724872706,158.38593,45.78,99437,1.181476
724894556,159.31601,45.78,99425.99,1.1813452
724905438,158.13225,45.78,99440,1.1815116
724916329,158.38593,45.78,99437,1.181476
724937270,158.80869,45.78,99432,1.1814166
724948327,158.80869,45.78,99432,1.1814166
724958550,158.72414,45.78,99432.99,1.1814284
724980233,159.06235,45.78,99429,1.181381
724990570,158.80869,45.78,99432,1.1814166
725001436,159.48512,45.78,99424,1.1813216
725022901,158.38593,45.78,99437,1.181476
725033338,158.38593,45.78,99437,1.181476
725044308,159.40057,45.78,99425,1.1813334
725064484,159.48512,45.789997,99424,1.1813216
725076312,158.47047,45.789997,99436,1.1814642
725085436,159.56967,45.789997,99423,1.1813097
725108335,158.89325,45.78,99431,1.1814047
725118878,159.31601,45.78,99425.99,1.1813452
725129171,159.23146,45.78,99426.99,1.1813571
725150510,158.13225,45.78,99440,1.1815116
725160760,159.14691,45.78,99428,1.1813691
725172312,159.14691,45.78,99428,1.1813691
725192783,158.47047,45.78,99436,1.1814642
725202530,159.40057,45.78,99425,1.1813334
725213436,159.40057,45.78,99425,1.1813334
725237448,158.72414,45.789997,99432.99,1.1814284
725249232,158.38593,45.789997,99437,1.181476
725260336,158.9778,45.789997,99430,1.1813929
725280528,159.48512,45.78,99424,1.1813216
725292339,159.31601,45.78,99425.99,1.1813452
725302507,158.80869,45.78,99432,1.1814166
725324301,158.80869,45.789997,99432,1.1814166
725334905,158.80869,45.789997,99432,1.1814166
725345211,159.06235,45.789997,99429,1.181381
725366541,159.06235,45.789997,99429,1.181381
725376627,159.14691,45.789997,99428,1.1813691
725388360,159.06235,45.789997,99429,1.181381
725409436,158.30136,45.789997,99438,1.1814879
725420300,158.80869,45.789997,99432,1.1814166
725430855,159.14691,45.789997,99428,1.1813691
725452316,158.9778,45.789997,99430,1.1813929
725462567,158.55502,45.789997,99435,1.1814523
725473488,159.31601,45.789997,99425.99,1.1813452
725494632,159.48512,45.789997,99424,1.1813216
725505455,159.31601,45.789997,99425.99,1.1813452
725516436,159.23146,45.789997,99426.99,1.1813571
725537848,159.23146,45.789997,99426.99,1.1813571
725548462,159.9079,45.789997,99419,1.1812621
725558580,159.31601,45.789997,99425.99,1.1813452
725580324,158.80869,45.789997,99432,1.1814166
725590541,159.48512,45.789997,99424,1.1813216
725600928,159.31601,45.789997,99425.99,1.1813452
725621506,159.23146,45.78,99426.99,1.1813571
725633236,159.48512,45.78,99424,1.1813216
725644297,159.73878,45.78,99421,1.181286
725665488,159.06235,45.789997,99429,1.181381
725676436,158.80869,45.789997,99432,1.1814166
725686539,158.9778,45.789997,99430,1.1813929
725708441,158.63959,45.789997,99434,1.1814404
725718875,158.9778,45.789997,99430,1.1813929
725729203,159.06235,45.789997,99429,1.181381
725750581,159.14691,45.789997,99428,1.1813691
725761439,158.63959,45.789997,99434,1.1814404
725772528,158.63959,45.789997,99434,1.1814404
725793468,159.56967,45.789997,99423,1.1813097
725804443,158.47047,45.789997,99436,1.1814642
725814924,158.89325,45.789997,99431,1.1814047
725837128,159.40057,45.789997,99425,1.1813334
725847436,158.89325,45.789997,99431,1.1814047
725858631,158.55502,45.789997,99435,1.1814523
725880435,158.72414,45.789997,99432.99,1.1814284
725890685,158.72414,45.789997,99432.99,1.1814284
725901889,159.14691,45.789997,99428,1.1813691
725923436,158.72414,45.789997,99432.99,1.1814284
725934557,158.89325,45.789997,99431,1.1814047
725944447,159.14691,45.789997,99428,1.1813691
725965961,158.55502,45.789997,99435,1.1814523
725976760,159.31601,45.789997,99425.99,1.1813452
725986631,158.9778,45.789997,99430,1.1813929
726007436,158.9778,45.789997,99430,1.1813929
726018864,158.89325,45.789997,99431,1.1814047
726029872,159.14691,45.789997,99428,1.1813691
726051436,159.14691,45.789997,99428,1.1813691
726062579,158.89325,45.789997,99431,1.1814047
726072436,158.63959,45.789997,99434,1.1814404
726094593,159.14691,45.789997,99428,1.1813691
726106755,158.89325,45.789997,99431,1.1814047
726118079,158.72414,45.789997,99432.99,1.1814284
726138607,158.80869,45.789997,99432,1.1814166
726149950,158.47047,45.789997,99436,1.1814642
726160747,159.40057,45.789997,99425,1.1813334
726181971,159.48512,45.789997,99424,1.1813216
726192466,158.89325,45.789997,99431,1.1814047
726203447,159.40057,45.789997,99425,1.1813334
726224449,158.55502,45.789997,99435,1.1814523
726235477,158.38593,45.789997,99437,1.181476
726245989,159.31601,45.789997,99425.99,1.1813452
726266803,159.14691,45.789997,99428,1.1813691
726277962,158.72414,45.789997,99432.99,1.1814284
726288436,158.63959,45.789997,99434,1.1814404
726310546,158.55502,45.789997,99435,1.1814523
726320436,159.14691,45.789997,99428,1.1813691
726331435,159.31601,45.789997,99425.99,1.1813452
726353184,158.80869,45.789997,99432,1.1814166
726362843,159.14691,45.789997,99428,1.1813691
726372446,158.63959,45.789997,99434,1.1814404
726394511,158.80869,45.789997,99432,1.1814166
726405935,159.14691,45.789997,99428,1.1813691
726416447,159.65424,45.789997,99422,1.1812978
726438078,158.9778,45.789997,99430,1.1813929
726448447,158.9778,45.789997,99430,1.1813929
726459435,158.9778,45.789997,99430,1.1813929
726482882,158.9778,45.8,99430,1.1813929
726493874,159.40057,45.8,99425,1.1813334
726504436,158.55502,45.8,99435,1.1814523
726525981,159.65424,45.789997,99422,1.1812978
726536445,158.55502,45.789997,99435,1.1814523
726547436,159.65424,45.789997,99422,1.1812978
726568449,158.89325,45.789997,99431,1.1814047
726579447,159.06235,45.789997,99429,1.181381
726589997,159.56967,45.789997,99423,1.1813097
726610537,158.55502,45.789997,99435,1.1814523
726622207,158.80869,45.789997,99432,1.1814166
726632447,158.9778,45.789997,99430,1.1813929
726652447,159.31601,45.789997,99425.99,1.1813452
726663436,158.80869,45.789997,99432,1.1814166
726674582,158.89325,45.789997,99431,1.1814047
726696528,158.89325,45.8,99431,1.1814047
726707445,158.89325,45.8,99431,1.1814047
726718111,158.38593,45.8,99437,1.181476
726738623,159.48512,45.8,99424,1.1813216
726749941,159.65424,45.8,99422,1.1812978
726760747,159.14691,45.8,99428,1.1813691
726781899,158.9778,45.8,99430,1.1813929
726791436,158.9778,45.8,99430,1.1813929
726802559,159.14691,45.8,99428,1.1813691
726823436,159.06235,45.789997,99429,1.181381
726835509,158.9778,45.789997,99430,1.1813929
726846583,159.48512,45.789997,99424,1.1813216
726868436,159.14691,45.8,99428,1.1813691
726879436,158.80869,45.8,99432,1.1814166
726890353,158.89325,45.8,99431,1.1814047
726911436,158.72414,45.8,99432.99,1.1814284
726922612,159.9079,45.8,99419,1.1812621
726933919,159.06235,45.8,99429,1.181381
726955436,158.9778,45.8,99430,1.1813929
726966322,158.89325,45.8,99431,1.1814047
726976436,160.24611,45.8,99415,1.1812147
726996438,159.73878,45.8,99421,1.181286
727007439,159.56967,45.8,99423,1.1813097
727018551,158.55502,45.8,99435,1.1814523
727040436,159.23146,45.8,99426.99,1.1813571
727050700,159.06235,45.8,99429,1.181381
727061972,159.23146,45.8,99426.99,1.1813571
727083447,159.31601,45.8,99425.99,1.1813452
727093922,159.06235,45.8,99429,1.181381
727104785,159.23146,45.8,99426.99,1.1813571
727125973,158.72414,45.8,99432.99,1.1814284
727136436,159.14691,45.8,99428,1.1813691
727147439,158.55502,45.8,99435,1.1814523
727168436,159.06235,45.8,99429,1.181381
727179435,158.80869,45.8,99432,1.1814166
727190035,159.06235,45.8,99429,1.181381
727211137,159.06235,45.8,99429,1.181381
727221852,159.65424,45.8,99422,1.1812978
727232483,159.14691,45.8,99428,1.1813691
727254092,158.72414,45.8,99432.99,1.1814284
727264436,158.47047,45.8,99436,1.1814642
727274579,159.82333,45.8,99419.99,1.1812739
727296772,158.9778,45.809998,99430,1.1813929
727306900,158.21681,45.809998,99438.99,1.1814997
727318028,158.89325,45.809998,99431,1.1814047
727339450,158.9778,45.8,99430,1.1813929
727350557,158.47047,45.8,99436,1.1814642
727360435,159.31601,45.8,99425.99,1.1813452
727382054,158.9778,45.8,99430,1.1813929
727392753,158.89325,45.8,99431,1.1814047
727402672,158.63959,45.8,99434,1.1814404
727424446,159.06235,45.8,99429,1.181381
727435436,158.89325,45.8,99431,1.1814047
727446494,159.65424,45.8,99422,1.1812978
727467436,158.9778,45.8,99430,1.1813929
727478010,159.40057,45.8,99425,1.1813334
727488761,158.9778,45.8,99430,1.1813929
727508436,158.55502,45.8,99435,1.1814523
727519436,159.06235,45.8,99429,1.181381
727530499,159.65424,45.8,99422,1.1812978
727552436,158.47047,45.8,99436,1.1814642
727562619,158.72414,45.8,99432.99,1.1814284
727573908,159.06235,45.8,99429,1.181381
727595439,158.47047,45.8,99436,1.1814642
727606494,159.73878,45.8,99421,1.181286
727616449,158.72414,45.8,99432.99,1.1814284
727638016,159.14691,45.8,99428,1.1813691
727648762,159.14691,45.8,99428,1.1813691
727658670,158.63959,45.8,99434,1.1814404
727680459,159.31601,45.8,99425.99,1.1813452
727690520,159.40057,45.8,99425,1.1813334
727701923,159.40057,45.8,99425,1.1813334
727722617,159.06235,45.809998,99429,1.181381
727733883,158.38593,45.809998,99437,1.181476
727744436,158.72414,45.809998,99432.99,1.1814284
727766509,159.14691,45.8,99428,1.1813691
727778744,158.89325,45.8,99431,1.1814047
727790012,158.9778,45.8,99430,1.1813929
727810679,158.13225,45.8,99440,1.1815116
727821964,158.13225,45.8,99440,1.1815116
727833134,158.80869,45.8,99432,1.1814166
727853936,158.63959,45.809998,99434,1.1814404
727864436,159.23146,45.809998,99426.99,1.1813571
727875440,158.0477,45.809998,99441,1.1815236
727896435,159.06235,45.8,99429,1.181381
727907441,159.06235,45.8,99429,1.181381
727917959,159.23146,45.8,99426.99,1.1813571
727938822,158.80869,45.8,99432,1.1814166
727949963,158.38593,45.8,99437,1.181476
727960448,158.89325,45.8,99431,1.1814047
727982536,158.38593,45.809998,99437,1.181476
727992448,159.06235,45.809998,99429,1.181381
728003448,159.31601,45.809998,99425.99,1.1813452
728024762,159.06235,45.809998,99429,1.181381
728036344,158.47047,45.809998,99436,1.1814642
728045924,158.80869,45.809998,99432,1.1814166
728066545,159.40057,45.809998,99425,1.1813334
728078056,159.56967,45.809998,99423,1.1813097
728088435,159.06235,45.809998,99429,1.181381
728109912,158.89325,45.809998,99431,1.1814047
728122224,158.30136,45.809998,99438,1.1814879
728131518,158.38593,45.809998,99437,1.181476
728152449,158.89325,45.809998,99431,1.1814047
728163498,158.80869,45.809998,99432,1.1814166
728174589,158.30136,45.809998,99438,1.1814879
728196436,158.72414,45.809998,99432.99,1.1814284
728207436,158.89325,45.809998,99431,1.1814047
728218521,159.14691,45.809998,99428,1.1813691
728240450,158.80869,45.809998,99432,1.1814166
728251472,158.38593,45.809998,99437,1.181476
728262530,158.55502,45.809998,99435,1.1814523
728286085,159.31601,45.809998,99425.99,1.1813452
728296436,158.89325,45.809998,99431,1.1814047
728306570,159.06235,45.809998,99429,1.181381
728328764,159.06235,45.809998,99429,1.181381
728338610,159.14691,45.809998,99428,1.1813691
728349911,159.14691,45.809998,99428,1.1813691
728371436,158.89325,45.809998,99431,1.1814047
728382576,158.89325,45.809998,99431,1.1814047
728392488,158.80869,45.809998,99432,1.1814166
728413940,158.9778,45.809998,99430,1.1813929
728424436,158.9778,45.809998,99430,1.1813929
728435439,158.89325,45.809998,99431,1.1814047
728458563,158.13225,45.809998,99440,1.1815116
728469986,158.21681,45.809998,99438.99,1.1814997
728480436,158.55502,45.809998,99435,1.1814523
728502008,158.63959,45.809998,99434,1.1814404
728512755,159.23146,45.809998,99426.99,1.1813571
728522522,157.96315,45.809998,99442,1.1815355
728543436,159.06235,45.809998,99429,1.181381
728554610,158.21681,45.809998,99438.99,1.1814997
728564436,158.55502,45.809998,99435,1.1814523
728586527,159.48512,45.809998,99424,1.1813216
728598025,159.31601,45.809998,99425.99,1.1813452
728607436,159.06235,45.809998,99429,1.181381
728628769,158.21681,45.809998,99438.99,1.1814997
728639448,158.89325,45.809998,99431,1.1814047
728650860,158.80869,45.809998,99432,1.1814166
728672789,158.38593,45.809998,99437,1.181476
728682627,158.80869,45.809998,99432,1.1814166
728693854,159.06235,45.809998,99429,1.181381
728715439,158.38593,45.809998,99437,1.181476
728726540,158.55502,45.809998,99435,1.1814523
728736436,157.87859,45.809998,99443,1.1815473
728758001,158.21681,45.809998,99438.99,1.1814997
728770135,158.63959,45.809998,99434,1.1814404
728779675,158.89325,45.809998,99431,1.1814047
728800449,158.47047,45.809998,99436,1.1814642
728810599,157.96315,45.809998,99442,1.1815355
728821913,158.80869,45.809998,99432,1.1814166
728842530,158.9778,45.809998,99430,1.1813929
728853922,158.0477,45.809998,99441,1.1815236
728864751,159.14691,45.809998,99428,1.1813691
728884436,158.47047,45.809998,99436,1.1814642
728894565,158.80869,45.809998,99432,1.1814166
728904436,158.89325,45.809998,99431,1.1814047
728925918,157.96315,45.809998,99442,1.1815355
728936747,158.0477,45.809998,99441,1.1815236
728946721,158.89325,45.809998,99431,1.1814047
728968448,159.14691,45.809998,99428,1.1813691
728978534,158.80869,45.809998,99432,1.1814166
728989918,159.65424,45.809998,99422,1.1812978
729010323,157.96315,45.809998,99442,1.1815355
729020447,158.55502,45.809998,99435,1.1814523
729030573,159.06235,45.809998,99429,1.181381
729051441,158.47047,45.82,99436,1.1814642
729061896,158.47047,45.82,99436,1.1814642
729072454,158.72414,45.82,99432.99,1.1814284
729094568,159.23146,45.809998,99426.99,1.1813571
729104747,159.48512,45.809998,99424,1.1813216
729114970,159.31601,45.809998,99425.99,1.1813452
729136436,158.89325,45.82,99431,1.1814047
729147436,159.31601,45.82,99425.99,1.1813452
729158536,158.72414,45.82,99432.99,1.1814284
729179439,158.9778,45.82,99430,1.1813929
729189894,158.72414,45.82,99432.99,1.1814284
729202188,158.47047,45.82,99436,1.1814642
729223848,158.80869,45.809998,99432,1.1814166
729234535,158.0477,45.809998,99441,1.1815236
729246333,158.63959,45.809998,99434,1.1814404
729267825,159.65424,45.809998,99422,1.1812978
729278543,158.89325,45.809998,99431,1.1814047
729290729,159.14691,45.809998,99428,1.1813691
729312748,158.63959,45.82,99434,1.1814404
729322596,159.56967,45.82,99423,1.1813097
729333879,159.82333,45.82,99419.99,1.1812739
729354660,158.72414,45.809998,99432.99,1.1814284
729366007,158.38593,45.809998,99437,1.181476
729376450,159.73878,45.809998,99421,1.181286
729398568,158.89325,45.809998,99431,1.1814047
729408563,159.40057,45.809998,99425,1.1813334
729419448,159.31601,45.809998,99425.99,1.1813452
729440436,158.80869,45.809998,99432,1.1814166
729450740,158.9778,45.809998,99430,1.1813929
729461918,158.63959,45.809998,99434,1.1814404
729482539,158.9778,45.82,99430,1.1813929
729493981,158.89325,45.82,99431,1.1814047
729504445,158.47047,45.82,99436,1.1814642
729525943,158.89325,45.809998,99431,1.1814047
729537134,158.63959,45.809998,99434,1.1814404
729546635,159.06235,45.809998,99429,1.181381
729568448,159.06235,45.82,99429,1.181381
729578796,158.89325,45.82,99431,1.1814047
729589883,158.13225,45.82,99440,1.1815116
729610543,158.72414,45.82,99432.99,1.1814284
729621898,159.31601,45.82,99425.99,1.1813452
729632449,159.56967,45.82,99423,1.1813097
729654559,158.72414,45.82,99432.99,1.1814284
729664489,158.89325,45.82,99431,1.1814047
729675446,159.23146,45.82,99426.99,1.1813571
729697123,158.9778,45.82,99430,1.1813929
729706597,159.56967,45.82,99423,1.1813097
729717940,159.48512,45.82,99424,1.1813216
729739447,159.06235,45.82,99429,1.181381
729750519,159.23146,45.82,99426.99,1.1813571
729760436,159.31601,45.82,99425.99,1.1813452
729782028,158.89325,45.82,99431,1.1814047
729793196,158.47047,45.82,99436,1.1814642
729802917,159.56967,45.82,99423,1.1813097
729824506,158.55502,45.82,99435,1.1814523
729835440,158.89325,45.82,99431,1.1814047
729845886,159.06235,45.82,99429,1.181381
729866614,158.38593,45.82,99437,1.181476
729878016,158.72414,45.82,99432.99,1.1814284
729888764,159.56967,45.82,99423,1.1813097
729908436,159.48512,45.82,99424,1.1813216
729919442,159.65424,45.82,99422,1.1812978
729930585,159.06235,45.82,99429,1.181381
729952450,158.89325,45.82,99431,1.1814047
729963450,158.80869,45.82,99432,1.1814166
729974587,159.06235,45.82,99429,1.181381
729997970,158.55502,45.82,99435,1.1814523
730008452,159.48512,45.82,99424,1.1813216
730019452,158.63959,45.82,99434,1.1814404
730042307,158.89325,45.82,99431,1.1814047
730052446,159.23146,45.82,99426.99,1.1813571
730062541,157.79404,45.82,99444,1.1815592
730085982,157.96315,45.82,99442,1.1815355
730095436,158.80869,45.82,99432,1.1814166
730106551,158.80869,45.82,99432,1.1814166
730128436,158.72414,45.82,99432.99,1.1814284
730138577,159.06235,45.82,99429,1.181381
730149864,159.14691,45.82,99428,1.1813691
730170543,158.80869,45.82,99432,1.1814166
730181900,159.82333,45.82,99419.99,1.1812739
730192752,158.80869,45.82,99432,1.1814166
730213912,158.47047,45.82,99436,1.1814642
730224447,158.13225,45.82,99440,1.1815116
730235445,158.13225,45.82,99440,1.1815116
730259646,158.55502,45.82,99435,1.1814523
730271967,159.23146,45.82,99426.99,1.1813571
730283485,158.72414,45.82,99432.99,1.1814284
730307525,158.80869,45.809998,99432,1.1814166
730320239,159.56967,45.809998,99423,1.1813097
730331485,158.72414,45.809998,99432.99,1.1814284
730355549,159.23146,45.809998,99426.99,1.1813571
730368526,159.31601,45.809998,99425.99,1.1813452
730379622,158.80869,45.809998,99432,1.1814166
730403564,158.80869,45.809998,99432,1.1814166
730417153,159.23146,45.809998,99426.99,1.1813571
730427621,158.80869,45.809998,99432,1.1814166
730451463,159.23146,45.809998,99426.99,1.1813571
730464445,158.9778,45.809998,99430,1.1813929
730475493,159.65424,45.809998,99422,1.1812978
730499531,158.9778,45.809998,99430,1.1813929
730512256,158.80869,45.809998,99432,1.1814166
730523546,158.38593,45.809998,99437,1.181476
730547526,158.55502,45.809998,99435,1.1814523
730560234,158.9778,45.809998,99430,1.1813929
730571711,159.06235,45.809998,99429,1.181381
730595547,158.72414,45.809998,99432.99,1.1814284
730608296,159.73878,45.809998,99421,1.181286
730619578,158.47047,45.809998,99436,1.1814642
730643502,158.89325,45.809998,99431,1.1814047
730656261,158.47047,45.809998,99436,1.1814642
730667525,158.72414,45.809998,99432.99,1.1814284
730691533,158.63959,45.809998,99434,1.1814404
730704236,158.63959,45.809998,99434,1.1814404
730715454,159.31601,45.809998,99425.99,1.1813452
730739590,159.06235,45.809998,99429,1.181381
730752239,159.14691,45.809998,99428,1.1813691
730763509,159.06235,45.809998,99429,1.181381
730787445,158.89325,45.809998,99431,1.1814047
730800283,159.06235,45.809998,99429,1.181381
730811490,158.89325,45.809998,99431,1.1814047
730835462,159.40057,45.809998,99425,1.1813334
730848566,158.89325,45.809998,99431,1.1814047
730859533,158.9778,45.809998,99430,1.1813929
730883448,158.38593,45.809998,99437,1.181476
730896272,158.47047,45.809998,99436,1.1814642
730907487,158.63959,45.809998,99434,1.1814404
730931557,158.89325,45.809998,99431,1.1814047
730943859,158.13225,45.809998,99440,1.1815116
730955444,159.48512,45.809998,99424,1.1813216
730979599,158.30136,45.809998,99438,1.1814879
730992254,159.06235,45.809998,99429,1.181381
731003556,158.55502,45.809998,99435,1.1814523
731027526,158.89325,45.809998,99431,1.1814047
731040322,158.47047,45.809998,99436,1.1814642
731051496,159.23146,45.809998,99426.99,1.1813571
731075541,159.06235,45.809998,99429,1.181381
731088347,159.65424,45.809998,99422,1.1812978
731099632,158.9778,45.809998,99430,1.1813929
731123533,158.89325,45.8,99431,1.1814047
731136302,158.63959,45.8,99434,1.1814404
731147654,159.06235,45.8,99429,1.181381
731171490,158.89325,45.8,99431,1.1814047
731184235,158.55502,45.8,99435,1.1814523
731195751,159.23146,45.8,99426.99,1.1813571
731219593,159.40057,45.809998,99425,1.1813334
731232218,159.82333,45.809998,99419.99,1.1812739
731243533,158.9778,45.809998,99430,1.1813929
731267619,158.38593,45.8,99437,1.181476
731280294,158.72414,45.8,99432.99,1.1814284
731291514,158.21681,45.8,99438.99,1.1814997
731315517,158.47047,45.809998,99436,1.1814642
731328314,159.23146,45.809998,99426.99,1.1813571
731339531,158.9778,45.809998,99430,1.1813929
731363521,158.80869,45.809998,99432,1.1814166
731376523,158.21681,45.809998,99438.99,1.1814997
731387501,158.9778,45.809998,99430,1.1813929
731411481,158.47047,45.809998,99436,1.1814642
731425122,159.14691,45.809998,99428,1.1813691
731435534,159.31601,45.809998,99425.99,1.1813452
731459523,158.80869,45.809998,99432,1.1814166
731472253,159.31601,45.809998,99425.99,1.1813452
731483505,158.89325,45.809998,99431,1.1814047
731507504,158.72414,45.809998,99432.99,1.1814284
731520306,158.55502,45.809998,99435,1.1814523
731531506,158.0477,45.809998,99441,1.1815236
731555516,158.55502,45.809998,99435,1.1814523
731568252,158.47047,45.809998,99436,1.1814642
731579598,158.80869,45.809998,99432,1.1814166
731603552,159.14691,45.809998,99428,1.1813691
731616272,159.48512,45.809998,99424,1.1813216
731627508,159.56967,45.809998,99423,1.1813097
731651500,158.55502,45.809998,99435,1.1814523
731664450,158.63959,45.809998,99434,1.1814404
731675505,158.21681,45.809998,99438.99,1.1814997
731699541,158.0477,45.8,99441,1.1815236
731712256,158.89325,45.8,99431,1.1814047
731723464,158.63959,45.8,99434,1.1814404
731747506,159.06235,45.809998,99429,1.181381
731760289,158.63959,45.809998,99434,1.1814404
731771671,159.40057,45.809998,99425,1.1813334
731791716,158.47047,45.809998,99436,1.1814642
731803626,158.9778,45.809998,99430,1.1813929
731815677,158.55502,45.809998,99435,1.1814523
731836436,159.40057,45.809998,99425,1.1813334
731848356,158.21681,45.809998,99438.99,1.1814997
731859515,158.30136,45.809998,99438,1.1814879
731883562,158.30136,45.809998,99438,1.1814879
731896145,158.38593,45.809998,99437,1.181476
731907670,158.89325,45.809998,99431,1.1814047
731931525,158.80869,45.809998,99432,1.1814166
731944126,158.30136,45.809998,99438,1.1814879
731955572,159.31601,45.809998,99425.99,1.1813452
731977519,158.72414,45.809998,99432.99,1.1814284
731987545,159.48512,45.809998,99424,1.1813216
732000110,159.14691,45.809998,99428,1.1813691
732023895,158.21681,45.809998,99438.99,1.1814997
732035481,158.47047,45.809998,99436,1.1814642
732048153,158.63959,45.809998,99434,1.1814404
732071963,158.38593,45.809998,99437,1.181476
732083544,159.48512,45.809998,99424,1.1813216
732095950,159.40057,45.809998,99425,1.1813334
732119946,159.56967,45.809998,99423,1.1813097
732131597,159.23146,45.809998,99426.99,1.1813571
732143952,158.89325,45.809998,99431,1.1814047
732168193,159.31601,45.809998,99425.99,1.1813452
732179565,159.06235,45.809998,99429,1.181381
732192157,158.55502,45.809998,99435,1.1814523
732215967,158.38593,45.809998,99437,1.181476
732227492,159.40057,45.809998,99425,1.1813334
732240219,159.31601,45.809998,99425.99,1.1813452
732263964,159.14691,45.809998,99428,1.1813691
732275479,158.9778,45.809998,99430,1.1813929
732288254,159.23146,45.809998,99426.99,1.1813571
732312203,158.63959,45.809998,99434,1.1814404
732323467,159.06235,45.809998,99429,1.181381
732336149,158.89325,45.809998,99431,1.1814047
732359932,158.47047,45.809998,99436,1.1814642
732371557,158.55502,45.809998,99435,1.1814523
732383918,158.80869,45.809998,99432,1.1814166
732408127,159.14691,45.82,99428,1.1813691
732419555,158.89325,45.82,99431,1.1814047
732431968,158.55502,45.82,99435,1.1814523
732456188,158.63959,45.809998,99434,1.1814404
732467532,159.06235,45.809998,99429,1.181381
732480222,159.31601,45.809998,99425.99,1.1813452
732504126,159.23146,45.809998,99426.99,1.1813571
732515551,158.9778,45.809998,99430,1.1813929
732528232,158.47047,45.809998,99436,1.1814642
732551925,159.73878,45.809998,99421,1.181286
732563543,158.80869,45.809998,99432,1.1814166
732573494,159.23146,45.809998,99426.99,1.1813571
732595545,159.40057,45.809998,99425,1.1813334
732608137,158.9778,45.809998,99430,1.1813929
732619573,159.65424,45.809998,99422,1.1812978
732643582,158.72414,45.82,99432.99,1.1814284
732655875,159.73878,45.82,99421,1.181286
732667628,159.56967,45.82,99423,1.1813097
732691506,160.077,45.809998,99417,1.1812384
732703806,159.31601,45.809998,99425.99,1.1813452
732715550,159.06235,45.809998,99429,1.181381
732739496,159.48512,45.82,99424,1.1813216
732752092,158.47047,45.82,99436,1.1814642
732763494,158.72414,45.82,99432.99,1.1814284
732787495,158.9778,45.82,99430,1.1813929
732799894,159.48512,45.82,99424,1.1813216
732811559,159.48512,45.82,99424,1.1813216
732835560,159.14691,45.809998,99428,1.1813691
732847888,159.82333,45.809998,99419.99,1.1812739
732859646,159.31601,45.809998,99425.99,1.1813452
732883532,159.31601,45.82,99425.99,1.1813452
732895904,159.56967,45.82,99423,1.1813097
732907506,159.48512,45.82,99424,1.1813216
732931569,159.48512,45.82,99424,1.1813216
732943928,159.65424,45.82,99422,1.1812978
732955532,159.82333,45.82,99419.99,1.1812739
732979608,159.31601,45.82,99425.99,1.1813452
732991846,159.48512,45.82,99424,1.1813216
733003434,157.96315,45.82,99442,1.1815355
733027508,158.89325,45.82,99431,1.1814047
733039925,157.87859,45.82,99443,1.1815473
733051482,159.06235,45.82,99429,1.181381
733075438,158.9778,45.82,99430,1.1813929
733088125,159.40057,45.82,99425,1.1813334
733099509,159.40057,45.82,99425,1.1813334
733123640,158.9778,45.82,99430,1.1813929
733135896,158.72414,45.82,99432.99,1.1814284
733147683,159.14691,45.82,99428,1.1813691
733171531,158.9778,45.82,99430,1.1813929
733183879,158.80869,45.82,99432,1.1814166
733195540,159.48512,45.82,99424,1.1813216
733219534,158.55502,45.82,99435,1.1814523
733231887,158.9778,45.82,99430,1.1813929
733243483,159.06235,45.82,99429,1.181381
733267602,158.13225,45.82,99440,1.1815116
733280153,158.30136,45.82,99438,1.1814879
733291508,158.38593,45.82,99437,1.181476
733315509,158.47047,45.82,99436,1.1814642
733328359,158.80869,45.82,99432,1.1814166
733339469,158.47047,45.82,99436,1.1814642
733363492,159.31601,45.82,99425.99,1.1813452
733376326,159.23146,45.82,99426.99,1.1813571
733387611,159.06235,45.82,99429,1.181381
733411462,158.30136,45.82,99438,1.1814879
733424789,158.0477,45.82,99441,1.1815236
733435499,157.70949,45.82,99444.99,1.181571
733459525,158.72414,45.82,99432.99,1.1814284
733471844,158.72414,45.82,99432.99,1.1814284
733483608,158.89325,45.82,99431,1.1814047
733507660,158.47047,45.82,99436,1.1814642
733519851,158.89325,45.82,99431,1.1814047
733531554,159.14691,45.82,99428,1.1813691
733555555,159.14691,45.82,99428,1.1813691
733568164,158.47047,45.82,99436,1.1814642
733579591,158.80869,45.82,99432,1.1814166
733603573,158.30136,45.82,99438,1.1814879
733615921,158.47047,45.82,99436,1.1814642
733627654,158.55502,45.82,99435,1.1814523
733651685,159.31601,45.82,99425.99,1.1813452
733663827,159.40057,45.82,99425,1.1813334
733675544,159.23146,45.82,99426.99,1.1813571
733699602,158.89325,45.82,99431,1.1814047
733711923,158.55502,45.82,99435,1.1814523
733723557,158.80869,45.82,99432,1.1814166
733747489,158.72414,45.82,99432.99,1.1814284
733759907,159.23146,45.82,99426.99,1.1813571
733771758,158.30136,45.82,99438,1.1814879
733795458,158.80869,45.82,99432,1.1814166
733808228,159.31601,45.82,99425.99,1.1813452
733819572,159.48512,45.82,99424,1.1813216
733843461,158.80869,45.82,99432,1.1814166
733856144,158.30136,45.82,99438,1.1814879
733867493,158.89325,45.82,99431,1.1814047
733891444,159.23146,45.82,99426.99,1.1813571
733903873,158.9778,45.82,99430,1.1813929
733915508,158.80869,45.82,99432,1.1814166
733939495,158.89325,45.82,99431,1.1814047
733951892,159.06235,45.82,99429,1.181381
733963450,158.89325,45.82,99431,1.1814047
733987621,159.23146,45.82,99426.99,1.1813571
733999855,159.73878,45.82,99421,1.181286
734011573,158.55502,45.82,99435,1.1814523
734035578,159.23146,45.82,99426.99,1.1813571
734047879,159.14691,45.82,99428,1.1813691
734059507,158.80869,45.82,99432,1.1814166
734083506,159.06235,45.82,99429,1.181381
734095947,158.63959,45.82,99434,1.1814404
734107477,159.14691,45.82,99428,1.1813691
734131451,158.21681,45.82,99438.99,1.1814997
734144212,159.06235,45.82,99429,1.181381
734155559,158.63959,45.82,99434,1.1814404
734179526,158.72414,45.82,99432.99,1.1814284
734192138,158.89325,45.82,99431,1.1814047
734203522,158.63959,45.82,99434,1.1814404
734227464,158.30136,45.82,99438,1.1814879
734240154,158.89325,45.82,99431,1.1814047
734251512,159.31601,45.82,99425.99,1.1813452
734275568,158.21681,45.82,99438.99,1.1814997
734287964,158.80869,45.82,99432,1.1814166
734299590,158.89325,45.82,99431,1.1814047
734323588,158.13225,45.829998,99440,1.1815116
734335897,158.55502,45.829998,99435,1.1814523
734347505,159.23146,45.829998,99426.99,1.1813571
734371560,158.89325,45.82,99431,1.1814047
734384349,158.9778,45.82,99430,1.1813929
734395540,158.38593,45.82,99437,1.181476
734419512,158.89325,45.82,99431,1.1814047
734432975,159.31601,45.82,99425.99,1.1813452
734443671,158.72414,45.82,99432.99,1.1814284
734467702,158.38593,45.829998,99437,1.181476
734479919,158.47047,45.829998,99436,1.1814642
734491628,158.63959,45.829998,99434,1.1814404
734515536,158.30136,45.82,99438,1.1814879
734528139,159.06235,45.82,99429,1.181381
734539589,158.47047,45.82,99436,1.1814642
734563589,158.30136,45.82,99438,1.1814879
734576242,158.80869,45.82,99432,1.1814166
734587609,159.14691,45.82,99428,1.1813691
734609439,158.89325,45.82,99431,1.1814047
734621221,158.9778,45.82,99430,1.1813929
734631447,158.38593,45.82,99437,1.181476
734653482,158.21681,45.829998,99438.99,1.1814997
734665455,158.72414,45.829998,99432.99,1.1814284
734677446,158.47047,45.829998,99436,1.1814642
734701458,159.06235,45.829998,99429,1.181381
734713732,158.21681,45.829998,99438.99,1.1814997
734725476,158.13225,45.829998,99440,1.1815116
734749758,158.55502,45.829998,99435,1.1814523
734761837,159.14691,45.829998,99428,1.1813691
734773540,159.14691,45.829998,99428,1.1813691
734797760,159.06235,45.82,99429,1.181381
734809902,158.38593,45.82,99437,1.181476
734821482,158.80869,45.82,99432,1.1814166
734845455,158.9778,45.829998,99430,1.1813929
734857923,158.47047,45.829998,99436,1.1814642
734869216,159.40057,45.829998,99425,1.1813334
734889781,159.40057,45.829998,99425,1.1813334
734901096,159.40057,45.829998,99425,1.1813334
734911747,159.23146,45.829998,99426.99,1.1813571
734933116,159.14691,45.829998,99428,1.1813691
734943447,159.14691,45.829998,99428,1.1813691
734954525,159.23146,45.829998,99426.99,1.1813571
734975436,159.40057,45.829998,99425,1.1813334
734986513,159.48512,45.829998,99424,1.1813216
734997198,158.89325,45.829998,99431,1.1814047
735018169,159.40057,45.84,99425,1.1813334
735029215,158.38593,45.84,99437,1.181476
735039485,158.55502,45.84,99435,1.1814523
735061151,159.14691,45.84,99428,1.1813691
735071439,159.14691,45.84,99428,1.1813691
735081505,158.63959,45.84,99434,1.1814404
735103817,157.96315,45.84,99442,1.1815355
735114050,158.38593,45.84,99437,1.181476
735125166,158.80869,45.84,99432,1.1814166
735146536,158.0477,45.84,99441,1.1815236
735157436,158.72414,45.84,99432.99,1.1814284
735167436,157.87859,45.84,99443,1.1815473
735189210,158.72414,45.84,99432.99,1.1814284
735199762,158.0477,45.84,99441,1.1815236
735210080,158.80869,45.84,99432,1.1814166
735231467,158.47047,45.84,99436,1.1814642
735241749,158.72414,45.84,99432.99,1.1814284
735253185,158.55502,45.84,99435,1.1814523
735274527,158.9778,45.84,99430,1.1813929
735285189,158.72414,45.84,99432.99,1.1814284
735295770,158.13225,45.84,99440,1.1815116
735317268,158.63959,45.85,99434,1.1814404
735327436,158.38593,45.85,99437,1.181476
735337747,158.63959,45.85,99434,1.1814404
735359437,158.21681,45.84,99438.99,1.1814997
735370512,158.21681,45.84,99438.99,1.1814997
735381305,158.63959,45.84,99434,1.1814404
735402073,159.06235,45.84,99429,1.181381
735413157,159.14691,45.84,99428,1.1813691
735422520,158.9778,45.84,99430,1.1813929
735445179,158.13225,45.85,99440,1.1815116
735455529,158.63959,45.85,99434,1.1814404
735466507,158.89325,45.85,99431,1.1814047
735487436,159.40057,45.85,99425,1.1813334
735498116,158.47047,45.85,99436,1.1814642
735509230,158.47047,45.85,99436,1.1814642
735529436,159.65424,45.85,99422,1.1812978
735539518,158.63959,45.85,99434,1.1814404
735550842,159.06235,45.85,99429,1.181381
735573469,158.38593,45.85,99437,1.181476
735583436,158.63959,45.85,99434,1.1814404
735593765,158.9778,45.85,99430,1.1813929
735614506,158.13225,45.85,99440,1.1815116
735626312,158.47047,45.85,99436,1.1814642
735637181,158.9778,45.85,99430,1.1813929
735657970,158.47047,45.85,99436,1.1814642
735669160,158.63959,45.85,99434,1.1814404
735679450,158.80869,45.85,99432,1.1814166
735701245,157.96315,45.85,99442,1.1815355
735711751,159.31601,45.85,99425.99,1.1813452
735721794,158.80869,45.85,99432,1.1814166
735743439,157.70949,45.85,99444.99,1.181571
735753947,158.38593,45.85,99437,1.181476
735765087,158.55502,45.85,99435,1.1814523
735786541,158.47047,45.86,99436,1.1814642
735797172,158.13225,45.86,99440,1.1815116
735807797,158.13225,45.86,99440,1.1815116
735829398,158.38593,45.85,99437,1.181476
735839436,158.0477,45.85,99441,1.1815236
735849483,159.06235,45.85,99429,1.181381
735870564,158.38593,45.86,99437,1.181476
735881498,158.38593,45.86,99437,1.181476
735893159,158.63959,45.86,99434,1.1814404
735914539,158.9778,45.85,99430,1.1813929
735925456,157.87859,45.85,99443,1.1815473
735935436,158.55502,45.85,99435,1.1814523
735957194,158.80869,45.85,99432,1.1814166
735967797,158.89325,45.85,99431,1.1814047
735978192,158.0477,45.85,99441,1.1815236
735999452,158.38593,45.85,99437,1.181476
736010523,158.38593,45.85,99437,1.181476
736021440,158.47047,45.85,99436,1.1814642
736042539,158.47047,45.86,99436,1.1814642
736053153,158.55502,45.86,99435,1.1814523
736063748,158.9778,45.86,99430,1.1813929
736085076,158.9778,45.86,99430,1.1813929
736095445,158.47047,45.86,99436,1.1814642
736105498,158.80869,45.86,99432,1.1814166
736127465,158.63959,45.85,99434,1.1814404
736138515,158.9778,45.85,99430,1.1813929
736149220,158.30136,45.85,99438,1.1814879
736170115,158.30136,45.86,99438,1.1814879
736181169,158.38593,45.86,99437,1.181476
736190565,158.80869,45.86,99432,1.1814166
736213111,158.47047,45.86,99436,1.1814642
736223485,158.89325,45.86,99431,1.1814047
736234223,158.47047,45.86,99436,1.1814642
736255447,158.63959,45.86,99434,1.1814404
736265957,159.40057,45.86,99425,1.1813334
736277514,158.30136,45.86,99438,1.1814879
736301698,158.72414,45.86,99432.99,1.1814284
736313810,157.96315,45.86,99442,1.1815355
736325552,158.63959,45.86,99434,1.1814404
736349279,158.72414,45.85,99432.99,1.1814284
736359439,159.31601,45.85,99425.99,1.1813452
736369849,158.72414,45.85,99432.99,1.1814284
736391750,159.56967,45.85,99423,1.1813097
736401844,158.89325,45.85,99431,1.1814047
736413200,158.30136,45.85,99438,1.1814879
736434618,159.65424,45.86,99422,1.1812978
736445447,159.23146,45.86,99426.99,1.1813571
736455436,158.21681,45.86,99438.99,1.1814997
736477252,159.14691,45.85,99428,1.1813691
736487838,159.14691,45.85,99428,1.1813691
736497920,159.06235,45.85,99429,1.181381
736519456,158.21681,45.86,99438.99,1.1814997
736530511,158.55502,45.86,99435,1.1814523
736541440,158.80869,45.86,99432,1.1814166
736562563,159.23146,45.85,99426.99,1.1813571
736573192,159.31601,45.85,99425.99,1.1813452
736583755,158.80869,45.85,99432,1.1814166
736605459,158.38593,45.86,99437,1.181476
736615436,159.23146,45.86,99426.99,1.1813571
736626568,159.23146,45.86,99426.99,1.1813571
736647436,158.13225,45.86,99440,1.1815116
736658530,158.89325,45.86,99431,1.1814047
736669272,158.38593,45.86,99437,1.181476
736690044,158.30136,45.86,99438,1.1814879
736701186,158.63959,45.86,99434,1.1814404
736710543,158.63959,45.86,99434,1.1814404
736733178,158.80869,45.86,99432,1.1814166
736743500,158.9778,45.86,99430,1.1813929
