timestamp,magnetometer_ga[0],magnetometer_ga[1],magnetometer_ga[2]
7420436,-0.474713,-0.3012856,0.38482758
7442440,-0.474713,-0.3036078,0.3809539
7465505,-0.47351554,-0.3012856,0.3809539
7488500,-0.474713,-0.3001245,0.37837148
7510510,-0.47231808,-0.3036078,0.38353637
7532540,-0.47591045,-0.3036078,0.38224515
7556437,-0.474713,-0.2989634,0.38482758
7577475,-0.47351554,-0.3036078,0.3809539
7600129,-0.47231808,-0.3012856,0.38224515
7621447,-0.47112063,-0.3024467,0.38482758
7644449,-0.47231808,-0.3012856,0.3809539
7666463,-0.46752825,-0.3012856,0.3809539
7688439,-0.47112063,-0.29664123,0.37837148
7710477,-0.474713,-0.3012856,0.38224515
7732436,-0.47351554,-0.2989634,0.3861188
7754436,-0.47351554,-0.3036078,0.3809539
7776436,-0.47591045,-0.3012856,0.37708026
7798439,-0.47231808,-0.3024467,0.3796627
7820441,-0.47231808,-0.3001245,0.3796627
7841474,-0.46752825,-0.3024467,0.3796627
7864439,-0.47231808,-0.30593,0.3796627
7886446,-0.47351554,-0.30709106,0.38353637
7908439,-0.46992317,-0.30593,0.3809539
7930452,-0.47231808,-0.3047689,0.38353637
7952450,-0.47351554,-0.3036078,0.38482758
7974439,-0.474713,-0.3024467,0.38224515
7996578,-0.47231808,-0.3001245,0.38224515
8018436,-0.46992317,-0.3012856,0.3809539
8042572,-0.47351554,-0.29780233,0.3861188
8069408,-0.47112063,-0.3024467,0.3809539
8090446,-0.47231808,-0.30593,0.3796627
8114468,-0.4687257,-0.30593,0.37708026
8138510,-0.47231808,-0.30709106,0.3809539
8162436,-0.474713,-0.30709106,0.3796627
8186436,-0.46992317,-0.30593,0.37837148
8208447,-0.47231808,-0.30709106,0.3809539
8229436,-0.47231808,-0.3024467,0.38353637
8253469,-0.46992317,-0.3024467,0.38224515
8276672,-0.46992317,-0.3024467,0.3809539
8298449,-0.47351554,-0.3024467,0.37837148
8320450,-0.47112063,-0.30593,0.37837148
8340699,-0.474713,-0.30941325,0.37578905
8362435,-0.47351554,-0.30825216,0.3796627
8386514,-0.4687257,-0.30593,0.37708026
8410464,-0.47112063,-0.30709106,0.3809539
8434447,-0.47351554,-0.30709106,0.37837148
8456438,-0.47231808,-0.30593,0.37837148
8477164,-0.46992317,-0.30709106,0.3809539
8498436,-0.47112063,-0.3036078,0.3809539
8520171,-0.474713,-0.3024467,0.37708026
8544473,-0.46992317,-0.3024467,0.38224515
8565436,-0.47351554,-0.3036078,0.38224515
8589172,-0.4687257,-0.3036078,0.37837148
8610436,-0.47231808,-0.30593,0.38224515
8632463,-0.4663308,-0.3036078,0.3796627
8653465,-0.4687257,-0.3047689,0.3809539
8676965,-0.4687257,-0.3036078,0.38482758
8698450,-0.46752825,-0.3036078,0.3809539
8722499,-0.47231808,-0.3001245,0.37837148
8746447,-0.47231808,-0.3047689,0.3809539
8768167,-0.47231808,-0.3036078,0.38353637
8792469,-0.4687257,-0.3024467,0.38224515
8816447,-0.46992317,-0.3024467,0.38353637
8837435,-0.47231808,-0.3024467,0.3809539
8858448,-0.46992317,-0.3012856,0.3861188
8880056,-0.46992317,-0.3036078,0.38870123
8900525,-0.4687257,-0.3012856,0.38482758
8924665,-0.46992317,-0.2989634,0.38353637
8946448,-0.47112063,-0.3024467,0.38482758
8969588,-0.47231808,-0.3001245,0.38482758
8992352,-0.47231808,-0.2989634,0.38999245
9012633,-0.474713,-0.3001245,0.38482758
9034504,-0.474713,-0.3012856,0.38224515
9058449,-0.47950286,-0.3012856,0.38224515
9082447,-0.47112063,-0.2989634,0.38482758
9104440,-0.47231808,-0.3001245,0.38353637
9125477,-0.47231808,-0.3036078,0.3809539
9148957,-0.47112063,-0.3047689,0.3796627
9170448,-0.47231808,-0.3036078,0.38482758
9192454,-0.47112063,-0.3024467,0.38224515
9213459,-0.47710794,-0.2989634,0.37837148
9234440,-0.47351554,-0.29780233,0.3809539
9256444,-0.46992317,-0.3001245,0.37837148
9280443,-0.47710794,-0.3012856,0.38224515
9302504,-0.46992317,-0.3036078,0.38224515
9325270,-0.47591045,-0.29780233,0.3809539
9346483,-0.47351554,-0.3036078,0.38224515
9370499,-0.47112063,-0.3012856,0.3796627
9394435,-0.47591045,-0.2989634,0.3796627
9416411,-0.47112063,-0.3001245,0.38482758
9437556,-0.47351554,-0.29664123,0.3809539
9461446,-0.47231808,-0.3024467,0.3796627
9482439,-0.47231808,-0.3001245,0.37708026
9504508,-0.4783054,-0.3001245,0.3796627
9528445,-0.47112063,-0.2989634,0.3809539
9552120,-0.47351554,-0.2989634,0.38224515
9572571,-0.47351554,-0.3001245,0.3796627
9594497,-0.47112063,-0.3001245,0.38224515
9618504,-0.4687257,-0.3012856,0.38224515
9642482,-0.4687257,-0.3012856,0.38482758
9664482,-0.47351554,-0.3012856,0.3809539
9684763,-0.4687257,-0.3047689,0.37708026
9706515,-0.47112063,-0.3047689,0.37708026
9730448,-0.47351554,-0.3036078,0.37708026
9752372,-0.474713,-0.29664123,0.38353637
9776440,-0.47231808,-0.29780233,0.38353637
9798436,-0.4687257,-0.3001245,0.3809539
9821011,-0.47231808,-0.3001245,0.37837148
9845145,-0.47351554,-0.3012856,0.38224515
9866446,-0.4687257,-0.3012856,0.3809539
9888114,-0.47112063,-0.3012856,0.3809539
9910529,-0.47112063,-0.3001245,0.38224515
9934500,-0.46992317,-0.3036078,0.3796627
9956695,-0.47231808,-0.3024467,0.3796627
9978540,-0.47591045,-0.3036078,0.3796627
10002447,-0.47231808,-0.3024467,0.3796627
10026448,-0.47351554,-0.3001245,0.38224515
10049436,-0.47351554,-0.3024467,0.3796627
10072436,-0.474713,-0.3012856,0.3796627
10093448,-0.474713,-0.3001245,0.38224515
10117347,-0.47112063,-0.3001245,0.3796627
10138436,-0.47351554,-0.3024467,0.38482758
10160132,-0.47351554,-0.3012856,0.38353637
10182504,-0.47351554,-0.2989634,0.3796627
10206472,-0.47231808,-0.3012856,0.38353637
10229529,-0.47231808,-0.2989634,0.3809539
10253276,-0.474713,-0.3024467,0.3796627
10276972,-0.47231808,-0.3012856,0.3796627
10298449,-0.46992317,-0.3012856,0.38353637
10321483,-0.47231808,-0.3036078,0.3861188
10344338,-0.47351554,-0.3047689,0.38482758
10364660,-0.47591045,-0.3036078,0.38224515
10386465,-0.47112063,-0.3001245,0.3796627
10410439,-0.474713,-0.3001245,0.3796627
10434479,-0.47591045,-0.29780233,0.3809539
10458447,-0.46992317,-0.3024467,0.37837148
10481512,-0.47351554,-0.3036078,0.3796627
10504371,-0.47351554,-0.3001245,0.3809539
10528437,-0.474713,-0.3001245,0.3809539
10549450,-0.47710794,-0.3001245,0.38224515
10570478,-0.474713,-0.29780233,0.38353637
10594445,-0.47231808,-0.3024467,0.38482758
10616170,-0.47112063,-0.2989634,0.38353637
10637436,-0.474713,-0.3012856,0.38353637
10660956,-0.47591045,-0.3001245,0.38224515
10685160,-0.47351554,-0.2989634,0.38224515
10705446,-0.474713,-0.2989634,0.3796627
10728435,-0.474713,-0.3047689,0.38353637
10749447,-0.47112063,-0.3001245,0.3809539
10773194,-0.47710794,-0.3024467,0.38224515
10794436,-0.474713,-0.30593,0.3796627
10816495,-0.474713,-0.2989634,0.3809539
10840446,-0.474713,-0.3036078,0.37837148
10864954,-0.474713,-0.3036078,0.3796627
10887602,-0.47231808,-0.3047689,0.38224515
10909507,-0.47112063,-0.2989634,0.38353637
10931642,-0.47351554,-0.3012856,0.38224515
10955535,-0.47231808,-0.3036078,0.37837148
10979573,-0.4783054,-0.3047689,0.38482758
11002447,-0.474713,-0.3024467,0.37837148
11025960,-0.47112063,-0.3012856,0.3796627
11047726,-0.47112063,-0.3024467,0.3796627
11070445,-0.47112063,-0.3012856,0.3796627
11092436,-0.474713,-0.2989634,0.3809539
11116482,-0.474713,-0.3036078,0.3796627
11140437,-0.47112063,-0.3024467,0.38224515
11164498,-0.46992317,-0.3036078,0.37837148
11188446,-0.47231808,-0.3047689,0.3796627
11212436,-0.47231808,-0.3047689,0.37837148
11236494,-0.474713,-0.3036078,0.37837148
11260523,-0.4687257,-0.3047689,0.3809539
11284444,-0.474713,-0.3024467,0.37708026
11306452,-0.47351554,-0.3036078,0.37837148
11329436,-0.47710794,-0.3012856,0.3809539
11350436,-0.47710794,-0.3036078,0.38224515
11372446,-0.47231808,-0.3047689,0.3809539
11393445,-0.46992317,-0.3047689,0.37320665
11414436,-0.47112063,-0.3001245,0.37837148
11436375,-0.4687257,-0.3047689,0.3796627
11457428,-0.46992317,-0.3024467,0.38224515
11480543,-0.46752825,-0.3001245,0.3796627
11505245,-0.46752825,-0.3012856,0.38224515
11529127,-0.47112063,-0.30709106,0.37837148
11550446,-0.47351554,-0.3012856,0.3796627
11573165,-0.46992317,-0.3036078,0.3809539
11595635,-0.474713,-0.3036078,0.3796627
11618989,-0.47112063,-0.30593,0.3796627
11640498,-0.47231808,-0.3024467,0.37708026
11662559,-0.4687257,-0.3036078,0.3796627
11685757,-0.47231808,-0.3012856,0.3809539
11708436,-0.47231808,-0.3024467,0.3809539
11731815,-0.47112063,-0.3036078,0.3809539
11753448,-0.47231808,-0.30593,0.38482758
11776120,-0.47112063,-0.3024467,0.3796627
11797438,-0.47112063,-0.3001245,0.3809539
11818447,-0.47231808,-0.3012856,0.3796627
11842452,-0.4687257,-0.3012856,0.37837148
11864502,-0.474713,-0.30593,0.38353637
11887624,-0.47112063,-0.3012856,0.38224515
11910435,-0.46992317,-0.3047689,0.3809539
11933502,-0.47231808,-0.3024467,0.38353637
11955643,-0.47231808,-0.3024467,0.3861188
11979524,-0.47112063,-0.3012856,0.38224515
12003511,-0.46992317,-0.3047689,0.3796627
12027566,-0.47112063,-0.3047689,0.3809539
12054011,-0.47231808,-0.3047689,0.37708026
12077930,-0.47351554,-0.30593,0.3796627
12101757,-0.47351554,-0.3001245,0.3809539
12123538,-0.46992317,-0.3012856,0.38482758
12145759,-0.474713,-0.3024467,0.38353637
12168481,-0.47351554,-0.3001245,0.3809539
12190453,-0.47351554,-0.2989634,0.38224515
12213211,-0.474713,-0.3047689,0.3809539
12235573,-0.474713,-0.3047689,0.38482758
12257503,-0.47231808,-0.3012856,0.3796627
12279598,-0.47231808,-0.3047689,0.38482758
12303555,-0.474713,-0.3024467,0.38482758
12327541,-0.4783054,-0.3036078,0.3809539
12351618,-0.47112063,-0.3047689,0.38353637
12375616,-0.474713,-0.30593,0.3809539
12399601,-0.47351554,-0.3047689,0.3809539
12423542,-0.474713,-0.3024467,0.38482758
12446447,-0.47351554,-0.3001245,0.38353637
12469447,-0.47231808,-0.3012856,0.38482758
12491847,-0.474713,-0.3001245,0.38224515
12512478,-0.474713,-0.3047689,0.3809539
12536503,-0.4783054,-0.3024467,0.3861188
12559640,-0.47351554,-0.3036078,0.38353637
12582478,-0.47351554,-0.3024467,0.38224515
12604449,-0.47351554,-0.3036078,0.38353637
12627622,-0.47351554,-0.2989634,0.38353637
12649943,-0.474713,-0.3024467,0.38224515
12671615,-0.47591045,-0.3024467,0.38482758
12694436,-0.47710794,-0.3036078,0.3796627
12718746,-0.47112063,-0.3047689,0.3809539
12741439,-0.47351554,-0.3036078,0.38224515
12762439,-0.46992317,-0.3001245,0.3809539
12785436,-0.46992317,-0.3047689,0.38224515
12808513,-0.47112063,-0.3001245,0.38224515
12832358,-0.474713,-0.30593,0.38224515
12853506,-0.47351554,-0.3036078,0.38353637
12875573,-0.47112063,-0.3024467,0.3796627
12897440,-0.47112063,-0.3047689,0.3809539
12920436,-0.47591045,-0.3047689,0.3809539
12942447,-0.47231808,-0.30593,0.38224515
12964447,-0.474713,-0.3024467,0.38224515
12985436,-0.46992317,-0.3001245,0.3809539
13008436,-0.47351554,-0.3047689,0.3809539
13032472,-0.47112063,-0.30593,0.37837148
13055733,-0.46992317,-0.30593,0.37708026
13077439,-0.46992317,-0.3012856,0.38353637
13099590,-0.474713,-0.30593,0.37837148
13123601,-0.47112063,-0.30709106,0.38353637
13145571,-0.47231808,-0.3036078,0.37837148
13168454,-0.47112063,-0.3024467,0.3796627
13192436,-0.474713,-0.2989634,0.37837148
13215799,-0.47231808,-0.3001245,0.3809539
13239789,-0.4687257,-0.3036078,0.37837148
13261446,-0.47231808,-0.3024467,0.37708026
13285509,-0.47351554,-0.3036078,0.37837148
13308440,-0.46992317,-0.3036078,0.3796627
13331591,-0.47112063,-0.3036078,0.38224515
13353437,-0.47112063,-0.3047689,0.3809539
13374448,-0.47351554,-0.3012856,0.3809539
13400391,-0.47231808,-0.3036078,0.3809539
13421436,-0.4687257,-0.3024467,0.37708026
13443753,-0.47112063,-0.3047689,0.3796627
13464618,-0.4687257,-0.30709106,0.37708026
13488376,-0.47112063,-0.3024467,0.37708026
13509435,-0.47591045,-0.30593,0.3809539
13533508,-0.47231808,-0.3047689,0.3809539
13555700,-0.474713,-0.3047689,0.38482758
13577504,-0.47231808,-0.3012856,0.37837148
13600436,-0.474713,-0.3024467,0.37578905
13623956,-0.46992317,-0.30709106,0.37708026
13646437,-0.47231808,-0.30593,0.3796627
13671899,-0.474713,-0.30593,0.3796627
13693466,-0.4687257,-0.3012856,0.37578905
13715632,-0.47231808,-0.3047689,0.3796627
13737453,-0.47112063,-0.3024467,0.38224515
13759890,-0.47591045,-0.29780233,0.3796627
13783942,-0.47231808,-0.3036078,0.37837148
13805440,-0.46992317,-0.3047689,0.38224515
13827630,-0.47231808,-0.3012856,0.3796627
13849470,-0.47351554,-0.3012856,0.3809539
13872436,-0.474713,-0.30709106,0.37708026
13895812,-0.47351554,-0.30709106,0.38224515
13917446,-0.47231808,-0.3024467,0.3809539
13939656,-0.47351554,-0.3036078,0.37837148
13961447,-0.474713,-0.3047689,0.3861188
13983986,-0.47231808,-0.3047689,0.38224515
14005448,-0.47351554,-0.3001245,0.38224515
14029526,-0.47231808,-0.3036078,0.38224515
14052436,-0.46992317,-0.3047689,0.38224515
14075604,-0.47591045,-0.30593,0.3809539
14099637,-0.47591045,-0.3024467,0.38482758
14123757,-0.4783054,-0.3024467,0.38353637
14145491,-0.47710794,-0.3001245,0.38482758
14168502,-0.47351554,-0.3036078,0.38353637
14190552,-0.47351554,-0.3047689,0.38224515
14212498,-0.474713,-0.3012856,0.38353637
14233503,-0.47710794,-0.3024467,0.38353637
14255917,-0.47591045,-0.3024467,0.3861188
14279905,-0.47351554,-0.3024467,0.38353637
14301436,-0.47231808,-0.3024467,0.38353637
14323752,-0.4783054,-0.3024467,0.38353637
14345489,-0.474713,-0.3012856,0.38353637
14367907,-0.47231808,-0.3036078,0.38482758
14389448,-0.474713,-0.3047689,0.38224515
14411775,-0.47710794,-0.3036078,0.38224515
14433491,-0.47112063,-0.3047689,0.38353637
14456439,-0.47351554,-0.3047689,0.38353637
14478436,-0.474713,-0.3047689,0.38224515
14501435,-0.46992317,-0.3036078,0.38224515
14525436,-0.474713,-0.3047689,0.38224515
14547772,-0.474713,-0.30709106,0.38224515
14569462,-0.47351554,-0.30593,0.3796627
14592436,-0.474713,-0.3024467,0.3796627
14615858,-0.47591045,-0.3024467,0.37578905
14637440,-0.46992317,-0.3047689,0.3796627
14659662,-0.46992317,-0.3047689,0.3809539
14681436,-0.47112063,-0.3012856,0.3809539
14703969,-0.47351554,-0.30593,0.37837148
14725436,-0.4687257,-0.2989634,0.37837148
14747688,-0.474713,-0.3036078,0.3796627
14769445,-0.47231808,-0.30709106,0.37837148
14792439,-0.47231808,-0.30593,0.3809539
14816464,-0.46992317,-0.30709106,0.38353637
14837445,-0.47231808,-0.30593,0.3796627
14859689,-0.47112063,-0.3047689,0.37578905
14881436,-0.46752825,-0.3047689,0.37837148
14903986,-0.47351554,-0.3024467,0.3796627
14925439,-0.47231808,-0.3036078,0.3796627
14947593,-0.47351554,-0.30593,0.38224515
14971779,-0.47112063,-0.3024467,0.3796627
14993520,-0.46992317,-0.30709106,0.37578905
15016549,-0.46992317,-0.3024467,0.37837148
15039838,-0.47112063,-0.3001245,0.37708026
15061461,-0.46992317,-0.30941325,0.37837148
15083714,-0.47351554,-0.3047689,0.37449786
15105448,-0.4687257,-0.3036078,0.38353637
15127901,-0.47351554,-0.3036078,0.38224515
15149484,-0.47112063,-0.30593,0.3809539
15170482,-0.47231808,-0.3047689,0.3809539
15193448,-0.46992317,-0.3036078,0.3796627
15216443,-0.4687257,-0.3024467,0.38353637
15240443,-0.474713,-0.3036078,0.37837148
15263889,-0.46992317,-0.3024467,0.3796627
15285436,-0.46992317,-0.3036078,0.38353637
15307654,-0.47231808,-0.3047689,0.3796627
15329436,-0.474713,-0.3047689,0.3796627
15351889,-0.474713,-0.3036078,0.3796627
15373464,-0.46992317,-0.3012856,0.3796627
15395669,-0.47231808,-0.3036078,0.3809539
15416428,-0.47351554,-0.30709106,0.38224515
15436520,-0.47112063,-0.3036078,0.37837148
15459633,-0.47351554,-0.30709106,0.3796627
15480436,-0.474713,-0.3001245,0.38353637
15504436,-0.47591045,-0.30593,0.3796627
15527881,-0.47591045,-0.3047689,0.38482758
15549448,-0.474713,-0.3024467,0.38224515
15571693,-0.47710794,-0.3012856,0.38482758
15593451,-0.47112063,-0.3012856,0.38224515
15616971,-0.47351554,-0.3036078,0.3809539
15639975,-0.46992317,-0.3012856,0.38353637
15661481,-0.46992317,-0.30593,0.3796627
15683816,-0.47231808,-0.3012856,0.38224515
15705481,-0.47231808,-0.3036078,0.38353637
15727919,-0.474713,-0.3036078,0.38224515
15751936,-0.47351554,-0.3024467,0.38353637
15773436,-0.47112063,-0.3012856,0.38224515
15795692,-0.474713,-0.30593,0.38224515
15817436,-0.47710794,-0.3036078,0.38482758
15839904,-0.474713,-0.30593,0.38224515
15861466,-0.47231808,-0.3036078,0.38353637
15884551,-0.47112063,-0.3012856,0.3796627
15907546,-0.474713,-0.3024467,0.38353637
15930315,-0.47351554,-0.3047689,0.38482758
15951611,-0.47950286,-0.3036078,0.3809539
15974109,-0.4783054,-0.3024467,0.38482758
15997436,-0.47231808,-0.3047689,0.38224515
16020450,-0.47351554,-0.30593,0.38224515
16041436,-0.47351554,-0.3036078,0.38353637
16063655,-0.47112063,-0.3047689,0.3796627
16085436,-0.47591045,-0.3024467,0.38224515
16108486,-0.47351554,-0.3047689,0.38482758
16130436,-0.474713,-0.3047689,0.3809539
16153448,-0.47112063,-0.3012856,0.3796627
16175700,-0.46992317,-0.3036078,0.38353637
16199608,-0.47231808,-0.3036078,0.3796627
16221476,-0.47351554,-0.30593,0.38224515
16245470,-0.47231808,-0.3012856,0.3809539
16267921,-0.47112063,-0.3012856,0.3796627
16289482,-0.47112063,-0.3036078,0.37708026
16310525,-0.47112063,-0.3036078,0.3809539
16332476,-0.474713,-0.3036078,0.3796627
16354480,-0.474713,-0.3047689,0.38224515
16378448,-0.4687257,-0.3036078,0.3796627
16400447,-0.474713,-0.30593,0.37837148
16422479,-0.47591045,-0.3001245,0.37837148
16443995,-0.47351554,-0.3047689,0.3796627
16465450,-0.47231808,-0.3036078,0.3796627
16489469,-0.47231808,-0.30593,0.38224515
16511838,-0.474713,-0.3036078,0.3796627
16533475,-0.47231808,-0.3047689,0.38224515
16556469,-0.47231808,-0.3024467,0.3796627
16578436,-0.47112063,-0.30941325,0.38353637
16601513,-0.4687257,-0.3036078,0.3809539
16623781,-0.47112063,-0.30593,0.3809539
16645470,-0.47231808,-0.3047689,0.3796627
16667933,-0.47112063,-0.3036078,0.3809539
16689499,-0.47231808,-0.30709106,0.38224515
16711821,-0.4687257,-0.30593,0.3809539
16735774,-0.47231808,-0.3024467,0.3809539
16757481,-0.47351554,-0.3047689,0.3796627
16779902,-0.47351554,-0.3047689,0.3809539
16801500,-0.47351554,-0.3036078,0.3809539
16823541,-0.47231808,-0.3036078,0.37708026
16845598,-0.46992317,-0.3036078,0.3809539
16867659,-0.47231808,-0.30825216,0.3809539
16891535,-0.474713,-0.30593,0.3809539
16915617,-0.47231808,-0.3024467,0.3809539
16939544,-0.47231808,-0.3047689,0.3796627
16963583,-0.47231808,-0.3047689,0.3796627
16987546,-0.46992317,-0.30593,0.38224515
17011592,-0.47231808,-0.3024467,0.3809539
17035668,-0.47231808,-0.3012856,0.3809539
17062067,-0.46992317,-0.3001245,0.38224515
17083654,-0.47231808,-0.3036078,0.38353637
17107535,-0.47231808,-0.3024467,0.3796627
17130095,-0.47591045,-0.3012856,0.37837148
17151557,-0.47591045,-0.30593,0.38224515
17174552,-0.474713,-0.30593,0.37708026
17198436,-0.474713,-0.3036078,0.38353637
17222510,-0.47351554,-0.3024467,0.38353637
17244470,-0.47231808,-0.3036078,0.3796627
17268448,-0.47351554,-0.3047689,0.38482758
17291620,-0.474713,-0.3047689,0.38482758
17313507,-0.4783054,-0.3036078,0.38224515
17335929,-0.474713,-0.3012856,0.38224515
17357465,-0.474713,-0.3024467,0.38482758
17379688,-0.47710794,-0.30941325,0.38353637
17401464,-0.474713,-0.3036078,0.38741
17424439,-0.47351554,-0.3024467,0.38224515
17447865,-0.47112063,-0.3001245,0.38482758
17471972,-0.474713,-0.3024467,0.3809539
17495904,-0.47112063,-0.3036078,0.3809539
17517448,-0.47351554,-0.2989634,0.38353637
17539728,-0.47112063,-0.3024467,0.38224515
17560478,-0.474713,-0.3024467,0.3796627
17583992,-0.474713,-0.30709106,0.38224515
17605436,-0.47231808,-0.3012856,0.3809539
17627702,-0.47231808,-0.3012856,0.3796627
17648449,-0.474713,-0.3036078,0.3796627
17671955,-0.47351554,-0.3036078,0.38224515
17693437,-0.47112063,-0.29780233,0.37837148
17715703,-0.47591045,-0.3036078,0.38353637
17737453,-0.47351554,-0.3012856,0.38224515
17759957,-0.47351554,-0.3024467,0.37837148
17781439,-0.47351554,-0.30593,0.38224515
17803657,-0.47112063,-0.3024467,0.38224515
17825489,-0.47112063,-0.3047689,0.38353637
17848478,-0.474713,-0.3047689,0.37837148
17870448,-0.47231808,-0.3036078,0.3796627
17891680,-0.47112063,-0.3047689,0.3809539
17913436,-0.47112063,-0.30593,0.3796627
17936436,-0.47351554,-0.3036078,0.3796627
17957436,-0.47351554,-0.3024467,0.3796627
17981493,-0.47231808,-0.3001245,0.37837148
18003870,-0.47231808,-0.3012856,0.3796627
18025470,-0.47351554,-0.30709106,0.3809539
18049316,-0.47231808,-0.2989634,0.37837148
18072002,-0.47112063,-0.3012856,0.37837148
18093435,-0.4687257,-0.3012856,0.3809539
18115634,-0.47591045,-0.3024467,0.38224515
18137448,-0.47112063,-0.3036078,0.3796627
18158436,-0.47231808,-0.3047689,0.38224515
18180466,-0.4663308,-0.3047689,0.37708026
18202436,-0.47231808,-0.3012856,0.38224515
18224815,-0.47112063,-0.30593,0.38224515
18246470,-0.47112063,-0.3024467,0.37837148
18270486,-0.4687257,-0.3047689,0.37708026
18293303,-0.47231808,-0.3036078,0.38224515
18315564,-0.47231808,-0.3047689,0.38224515
18337547,-0.47231808,-0.3047689,0.3796627
18359513,-0.47351554,-0.3047689,0.37708026
18381447,-0.474713,-0.30825216,0.3809539
18404068,-0.46992317,-0.3012856,0.3809539
18425525,-0.474713,-0.3001245,0.3796627
18447669,-0.46992317,-0.30593,0.3796627
18469439,-0.47351554,-0.30593,0.37578905
18492047,-0.47112063,-0.30709106,0.3796627
18513436,-0.47351554,-0.3036078,0.37708026
18535650,-0.46992317,-0.3001245,0.3796627
18559791,-0.47351554,-0.3024467,0.3809539
18581465,-0.47351554,-0.3036078,0.38353637
18603982,-0.46992317,-0.3036078,0.37708026
18625465,-0.47112063,-0.3047689,0.37708026
18647626,-0.47351554,-0.3036078,0.37708026
18669465,-0.4687257,-0.3036078,0.3809539
18691972,-0.47112063,-0.3012856,0.38224515
18715886,-0.474713,-0.3036078,0.3796627
18737444,-0.46992317,-0.3047689,0.38353637
18759576,-0.474713,-0.3036078,0.3809539
18782473,-0.47351554,-0.3047689,0.38741
18805539,-0.47710794,-0.3001245,0.38482758
18827554,-0.47231808,-0.29664123,0.38353637
18851557,-0.47231808,-0.3012856,0.38224515
18873441,-0.46992317,-0.3024467,0.38353637
18895551,-0.47351554,-0.3012856,0.38353637
18917436,-0.47591045,-0.3047689,0.38224515
18939586,-0.47710794,-0.3024467,0.38353637
18961478,-0.47591045,-0.3012856,0.38482758
18984436,-0.47351554,-0.3024467,0.3809539
19006462,-0.4687257,-0.30593,0.38353637
19027660,-0.474713,-0.3024467,0.3796627
19051715,-0.47591045,-0.3024467,0.38224515
19073445,-0.47351554,-0.30593,0.38482758
19096436,-0.474713,-0.3012856,0.38353637
19120694,-0.474713,-0.3047689,0.37837148
19144793,-0.47950286,-0.3024467,0.38224515
19168759,-0.474713,-0.3012856,0.38224515
19190549,-0.47351554,-0.30709106,0.3796627
19214436,-0.47112063,-0.3036078,0.3809539
19238447,-0.47231808,-0.3036078,0.38224515
19260578,-0.474713,-0.30593,0.3809539
19284604,-0.47112063,-0.3024467,0.38224515
19308491,-0.474713,-0.30709106,0.3809539
19330445,-0.47591045,-0.3012856,0.38353637
19354436,-0.47112063,-0.3036078,0.38482758
19376715,-0.46992317,-0.3036078,0.37708026
19400645,-0.47351554,-0.30593,0.37837148
19425436,-0.47112063,-0.30593,0.3809539
19447599,-0.47351554,-0.3024467,0.37708026
19471619,-0.47351554,-0.3036078,0.37837148
19494560,-0.47231808,-0.3047689,0.3809539
19517263,-0.474713,-0.3024467,0.37708026
19538508,-0.47112063,-0.3024467,0.38224515
19563051,-0.474713,-0.3036078,0.3809539
19585437,-0.47231808,-0.3024467,0.38353637
19607533,-0.474713,-0.30593,0.3809539
19630865,-0.46992317,-0.30593,0.37837148
19653448,-0.46992317,-0.3047689,0.3796627
19675523,-0.46992317,-0.3024467,0.37837148
19697488,-0.47591045,-0.3047689,0.38224515
19721498,-0.46992317,-0.3024467,0.38482758
19744445,-0.47231808,-0.3047689,0.38224515
19766884,-0.46992317,-0.30593,0.3809539
19788436,-0.47231808,-0.3036078,0.3796627
19809436,-0.47231808,-0.3024467,0.38224515
19835157,-0.47112063,-0.3036078,0.3809539
19856449,-0.47231808,-0.3047689,0.3796627
19877447,-0.47112063,-0.30709106,0.38353637
19900446,-0.47231808,-0.3012856,0.37708026
19923094,-0.474713,-0.3047689,0.37837148
19947047,-0.474713,-0.3047689,0.3796627
19969557,-0.474713,-0.3036078,0.38224515
19993509,-0.474713,-0.30593,0.37837148
20015577,-0.47591045,-0.3036078,0.37837148
20038831,-0.47231808,-0.3047689,0.37837148
20061447,-0.47351554,-0.3036078,0.3809539
20086803,-0.47231808,-0.3012856,0.37837148
20108448,-0.4687257,-0.3024467,0.3809539
20131561,-0.47351554,-0.3036078,0.37708026
20153436,-0.47112063,-0.30825216,0.37837148
20176604,-0.47351554,-0.3012856,0.38224515
20198955,-0.474713,-0.3024467,0.3809539
20222914,-0.474713,-0.3047689,0.3809539
20245467,-0.474713,-0.3024467,0.3796627
20268447,-0.47351554,-0.3036078,0.3809539
20291096,-0.46992317,-0.3036078,0.38224515
20313448,-0.474713,-0.3024467,0.38224515
20336439,-0.47231808,-0.3047689,0.3796627
20358875,-0.4783054,-0.3036078,0.38224515
20380448,-0.46992317,-0.3024467,0.38224515
20403237,-0.474713,-0.3047689,0.3809539
20425448,-0.47591045,-0.3024467,0.3809539
20448505,-0.474713,-0.3024467,0.38224515
20472436,-0.47112063,-0.3012856,0.38224515
20494933,-0.47710794,-0.3012856,0.38353637
20516436,-0.47231808,-0.3036078,0.38353637
20539597,-0.474713,-0.3024467,0.3809539
20561436,-0.474713,-0.3001245,0.38353637
20584436,-0.47710794,-0.3001245,0.38482758
20606826,-0.47351554,-0.3036078,0.38353637
20629436,-0.47231808,-0.30709106,0.38353637
20651574,-0.47591045,-0.3036078,0.3809539
20672439,-0.47351554,-0.3001245,0.3809539
20694923,-0.474713,-0.3036078,0.3796627
20716449,-0.47591045,-0.30709106,0.3809539
20739552,-0.47231808,-0.3024467,0.38353637
20761436,-0.47112063,-0.3036078,0.38353637
20784518,-0.47710794,-0.3036078,0.38482758
20806891,-0.47591045,-0.3047689,0.3796627
20828517,-0.47112063,-0.3024467,0.38224515
20851790,-0.47351554,-0.3036078,0.38224515
20873517,-0.47231808,-0.3036078,0.37708026
20896463,-0.47351554,-0.3024467,0.37708026
20918901,-0.47112063,-0.3012856,0.38224515
20940449,-0.47710794,-0.3024467,0.3809539
20963154,-0.46992317,-0.3001245,0.3796627
20984455,-0.46752825,-0.3024467,0.38353637
21006882,-0.47231808,-0.3036078,0.3796627
21028456,-0.46992317,-0.3047689,0.3861188
21051549,-0.474713,-0.3036078,0.3809539
21075134,-0.47351554,-0.3024467,0.3796627
21097494,-0.46992317,-0.3036078,0.3809539
21118949,-0.47231808,-0.3036078,0.3796627
21141439,-0.46752825,-0.3036078,0.38353637
21163511,-0.47231808,-0.3047689,0.3809539
21185447,-0.47112063,-0.3047689,0.3796627
21209447,-0.46992317,-0.3024467,0.3796627
21232468,-0.46992317,-0.30593,0.3796627
21254915,-0.4687257,-0.3036078,0.37708026
21277436,-0.4687257,-0.3047689,0.3796627
21299522,-0.46992317,-0.3024467,0.37837148
21321436,-0.4687257,-0.3036078,0.37708026
21344505,-0.4687257,-0.3012856,0.37837148
21366911,-0.47231808,-0.3024467,0.38353637
21388499,-0.47231808,-0.30593,0.38353637
21411710,-0.47112063,-0.30825216,0.3809539
21435570,-0.474713,-0.3047689,0.37578905
21459550,-0.47351554,-0.3001245,0.3796627
21481448,-0.47351554,-0.30709106,0.38353637
21504436,-0.47231808,-0.30709106,0.38353637
21526802,-0.47351554,-0.3012856,0.37837148
21548489,-0.474713,-0.3001245,0.38482758
21569436,-0.47112063,-0.3047689,0.3809539
21591669,-0.46992317,-0.3036078,0.3796627
21613436,-0.47112063,-0.3047689,0.37837148
21635552,-0.47591045,-0.30825216,0.3796627
21657446,-0.4687257,-0.3047689,0.3809539
21679603,-0.46992317,-0.3047689,0.3809539
21702852,-0.47231808,-0.3036078,0.3796627
21725506,-0.47351554,-0.30593,0.38353637
21747636,-0.47112063,-0.3024467,0.3809539
21769546,-0.47351554,-0.3036078,0.37837148
21792447,-0.47112063,-0.30593,0.37708026
21814917,-0.474713,-0.3036078,0.37837148
21836436,-0.47112063,-0.3024467,0.3809539
21859118,-0.47231808,-0.3012856,0.38353637
21879620,-0.4687257,-0.3001245,0.37837148
21902933,-0.47112063,-0.3036078,0.38482758
21924446,-0.474713,-0.3001245,0.3809539
21948436,-0.47351554,-0.3024467,0.37708026
21971535,-0.47591045,-0.3001245,0.37837148
21995641,-0.474713,-0.3024467,0.37708026
22017436,-0.46992317,-0.3036078,0.3809539
22039537,-0.474713,-0.3024467,0.38224515
22061436,-0.47231808,-0.30593,0.3809539
22083208,-0.47351554,-0.30709106,0.38353637
22105447,-0.47591045,-0.3047689,0.38224515
22127541,-0.47351554,-0.3036078,0.38482758
22149439,-0.474713,-0.3036078,0.3861188
22171564,-0.47351554,-0.3012856,0.38353637
22193436,-0.47351554,-0.30709106,0.38482758
22217513,-0.47351554,-0.3024467,0.38353637
22241436,-0.47591045,-0.3047689,0.38482758
22263603,-0.47591045,-0.3012856,0.3809539
22286835,-0.47351554,-0.3047689,0.38224515
22310949,-0.474713,-0.3024467,0.38353637
22332447,-0.474713,-0.3012856,0.3809539
22355177,-0.47351554,-0.3012856,0.38353637
22376457,-0.474713,-0.3024467,0.38224515
22398872,-0.47351554,-0.2989634,0.3796627
22420448,-0.47351554,-0.30593,0.3796627
22444556,-0.47351554,-0.3001245,0.38353637
22467151,-0.47112063,-0.3024467,0.38224515
22488508,-0.47351554,-0.3012856,0.37837148
22510981,-0.47231808,-0.3047689,0.38224515
22532520,-0.474713,-0.30593,0.3809539
22555184,-0.47112063,-0.3012856,0.3796627
22576538,-0.474713,-0.3024467,0.3796627
22598921,-0.47231808,-0.3047689,0.3796627
22619764,-0.47231808,-0.3036078,0.37837148
22641557,-0.47231808,-0.3036078,0.3809539
22663620,-0.47351554,-0.3036078,0.38224515
22685511,-0.47231808,-0.3036078,0.38224515
22707621,-0.47351554,-0.3024467,0.3809539
22731513,-0.47112063,-0.3047689,0.38224515
22755539,-0.47112063,-0.3036078,0.38482758
22779209,-0.47351554,-0.3024467,0.37837148
22800439,-0.47231808,-0.30593,0.3809539
22822935,-0.47231808,-0.3036078,0.37708026
22844448,-0.47231808,-0.3047689,0.38224515
22865436,-0.46992317,-0.3001245,0.3796627
22887565,-0.47231808,-0.3036078,0.3796627
22909447,-0.47351554,-0.3024467,0.37708026
22933556,-0.47351554,-0.3024467,0.3809539
22955636,-0.47351554,-0.3036078,0.3809539
22979548,-0.47112063,-0.3047689,0.3809539
23001469,-0.4687257,-0.3047689,0.3809539
23024446,-0.47231808,-0.30709106,0.38224515
23046858,-0.47351554,-0.3012856,0.3809539
23068451,-0.47231808,-0.3036078,0.3796627
23091165,-0.46752825,-0.3024467,0.38224515
23113448,-0.474713,-0.3047689,0.3809539
23135590,-0.47351554,-0.3024467,0.3809539
23156494,-0.47351554,-0.3012856,0.3809539
23180458,-0.47112063,-0.30825216,0.3796627
23203557,-0.46992317,-0.29780233,0.37708026
23225451,-0.46992317,-0.30709106,0.3809539
23247583,-0.46992317,-0.3024467,0.38224515
23269463,-0.47112063,-0.3036078,0.37578905
23291582,-0.47351554,-0.30825216,0.37837148
23313436,-0.46992317,-0.3036078,0.37578905
23336514,-0.47112063,-0.3024467,0.37578905
23358836,-0.474713,-0.3036078,0.37837148
23380517,-0.47351554,-0.3036078,0.3809539
23403541,-0.47591045,-0.30593,0.3809539
23428436,-0.47231808,-0.3047689,0.3796627
23451545,-0.47112063,-0.30709106,0.38224515
23473436,-0.47231808,-0.3012856,0.3796627
23495580,-0.47591045,-0.3036078,0.38224515
23517436,-0.47231808,-0.3047689,0.37708026
23540436,-0.474713,-0.3047689,0.3809539
23561436,-0.47351554,-0.3036078,0.3809539
23584526,-0.474713,-0.3047689,0.38224515
23606917,-0.474713,-0.3024467,0.38482758
23628625,-0.47351554,-0.3036078,0.37837148
23651197,-0.474713,-0.3024467,0.38482758
23675537,-0.47591045,-0.3012856,0.38224515
23697445,-0.47591045,-0.30709106,0.38224515
23720436,-0.46992317,-0.3012856,0.38224515
23742822,-0.474713,-0.3036078,0.38353637
23765436,-0.474713,-0.3036078,0.38482758
23787556,-0.47710794,-0.3024467,0.38482758
23809436,-0.474713,-0.30593,0.3796627
23833557,-0.47710794,-0.3036078,0.37837148
23855615,-0.474713,-0.3036078,0.38482758
23878968,-0.47710794,-0.3047689,0.38353637
23900543,-0.47231808,-0.3036078,0.38353637
23924436,-0.47591045,-0.30709106,0.38224515
23947558,-0.4783054,-0.3012856,0.3809539
23969439,-0.47710794,-0.3036078,0.38224515
23992459,-0.47231808,-0.3036078,0.38353637
24014990,-0.47112063,-0.3012856,0.38224515
24036436,-0.47591045,-0.3036078,0.3796627
24059578,-0.4687257,-0.30709106,0.37708026
24083302,-0.47231808,-0.3024467,0.37708026
24107214,-0.47351554,-0.3047689,0.3809539
24128508,-0.47710794,-0.3024467,0.3796627
24151603,-0.47231808,-0.3047689,0.38224515
24174962,-0.47351554,-0.3012856,0.38224515
24197436,-0.47231808,-0.3012856,0.3796627
24220571,-0.47112063,-0.3036078,0.3796627
24243589,-0.47112063,-0.3047689,0.3796627
24265462,-0.47351554,-0.3001245,0.37837148
24288567,-0.474713,-0.30709106,0.3796627
24311155,-0.46992317,-0.3047689,0.3796627
24332517,-0.47351554,-0.3036078,0.3796627
24355517,-0.4687257,-0.30593,0.3809539
24379206,-0.47231808,-0.30709106,0.37837148
24401454,-0.47112063,-0.30941325,0.3796627
24425436,-0.46992317,-0.3024467,0.38224515
24448479,-0.47112063,-0.2989634,0.3809539
24470957,-0.46992317,-0.3047689,0.3809539
24492481,-0.474713,-0.3047689,0.3809539
24513478,-0.47231808,-0.3036078,0.3809539
24536512,-0.47231808,-0.3036078,0.37708026
24558954,-0.47112063,-0.30593,0.3809539
24580477,-0.4687257,-0.3047689,0.3809539
24603189,-0.47112063,-0.30709106,0.3809539
24625449,-0.47112063,-0.30593,0.37837148
24651108,-0.47231808,-0.3047689,0.3809539
24675593,-0.47351554,-0.3047689,0.37837148
24697503,-0.47591045,-0.30593,0.3809539
24719560,-0.46992317,-0.3012856,0.3796627
24742920,-0.47231808,-0.3001245,0.3809539
24764478,-0.47591045,-0.30593,0.37837148
24788510,-0.474713,-0.3024467,0.38224515
24809506,-0.47112063,-0.3036078,0.37837148
24831624,-0.47351554,-0.3047689,0.38224515
24855049,-0.4783054,-0.3036078,0.38353637
24877436,-0.474713,-0.3024467,0.38224515
24899535,-0.47351554,-0.3047689,0.38353637
24923582,-0.474713,-0.3024467,0.38353637
24947564,-0.47351554,-0.30825216,0.37837148
24969450,-0.47231808,-0.3024467,0.37837148
24993564,-0.46992317,-0.3024467,0.3809539
25017448,-0.46992317,-0.3012856,0.3809539
25043672,-0.4687257,-0.3047689,0.3796627
25065447,-0.474713,-0.3047689,0.38353637
25089509,-0.47112063,-0.3012856,0.38224515
25112436,-0.47112063,-0.3012856,0.3809539
25135058,-0.47591045,-0.2989634,0.38353637
25156465,-0.47351554,-0.3036078,0.3796627
25179570,-0.474713,-0.3036078,0.37837148
25203226,-0.4687257,-0.3047689,0.38224515
25225499,-0.47112063,-0.3012856,0.3796627
25248741,-0.46752825,-0.3036078,0.3796627
25270499,-0.47591045,-0.3036078,0.3809539
25294462,-0.474713,-0.3012856,0.38482758
25317758,-0.47591045,-0.3036078,0.38353637
25340436,-0.47710794,-0.3024467,0.38224515
25364449,-0.4663308,-0.3047689,0.38224515
25387574,-0.46752825,-0.3036078,0.3796627
25409492,-0.47231808,-0.30593,0.3796627
25433548,-0.46992317,-0.3024467,0.38224515
25455648,-0.47351554,-0.3024467,0.38224515
25477545,-0.47351554,-0.3036078,0.3809539
25503541,-0.47710794,-0.3024467,0.38482758
25525436,-0.474713,-0.29780233,0.3809539
25549445,-0.47591045,-0.3001245,0.3809539
25573499,-0.47112063,-0.3012856,0.38224515
25597496,-0.47231808,-0.3024467,0.3796627
25621483,-0.4687257,-0.3047689,0.3796627
25645448,-0.474713,-0.3047689,0.3796627
25668504,-0.4687257,-0.30593,0.37837148
25692436,-0.47112063,-0.30593,0.3809539
25715110,-0.47351554,-0.30593,0.3809539
25736448,-0.47231808,-0.3047689,0.38224515
25759530,-0.474713,-0.3036078,0.37578905
25781445,-0.474713,-0.3036078,0.3796627
25804436,-0.47231808,-0.30593,0.37837148
25826937,-0.47231808,-0.30593,0.38224515
25849519,-0.47351554,-0.30709106,0.3809539
25872437,-0.474713,-0.3047689,0.3809539
25894461,-0.46992317,-0.30709106,0.38224515
25916436,-0.46992317,-0.3024467,0.3796627
25939777,-0.47351554,-0.3024467,0.38224515
25960431,-0.47351554,-0.3024467,0.3809539
25984339,-0.474713,-0.3024467,0.3809539
26008326,-0.474713,-0.3024467,0.38224515
26032151,-0.47591045,-0.30825216,0.3796627
26053504,-0.47112063,-0.3047689,0.3796627
26075822,-0.47351554,-0.3001245,0.38353637
26097507,-0.474713,-0.3012856,0.3796627
26121450,-0.47351554,-0.3012856,0.3809539
26144883,-0.47351554,-0.3001245,0.38482758
26168865,-0.47351554,-0.3024467,0.38224515
26192901,-0.47351554,-0.3024467,0.37837148
26214452,-0.4687257,-0.30593,0.3796627
26236450,-0.47351554,-0.3036078,0.38353637
26258487,-0.47112063,-0.3047689,0.3796627
26280657,-0.47351554,-0.3024467,0.3796627
26304666,-0.474713,-0.2989634,0.38353637
26328629,-0.474713,-0.3012856,0.38224515
26350458,-0.47591045,-0.3024467,0.38224515
26374562,-0.47351554,-0.3036078,0.38224515
26396436,-0.474713,-0.3001245,0.38353637
26419654,-0.47112063,-0.3012856,0.38353637
26443039,-0.47591045,-0.3012856,0.38353637
26464499,-0.474713,-0.2989634,0.3861188
26487535,-0.47231808,-0.3024467,0.38353637
26509436,-0.4783054,-0.3012856,0.38482758
26532010,-0.47231808,-0.3047689,0.38224515
26553456,-0.474713,-0.3036078,0.38353637
26576316,-0.47351554,-0.3012856,0.38353637
26600437,-0.47351554,-0.3012856,0.38353637
26626436,-0.47231808,-0.3036078,0.38224515
26648820,-0.47231808,-0.3036078,0.37708026
26671692,-0.47591045,-0.3036078,0.37837148
26696436,-0.47351554,-0.30593,0.38353637
26720440,-0.47231808,-0.3036078,0.3796627
26742995,-0.474713,-0.3012856,0.38224515
26765439,-0.47351554,-0.30709106,0.3809539
26788317,-0.47351554,-0.3036078,0.38353637
26810437,-0.47351554,-0.30593,0.38353637
26832591,-0.474713,-0.3024467,0.38224515
26856518,-0.47112063,-0.3036078,0.3796627
26880572,-0.4687257,-0.3047689,0.3809539
26904645,-0.47351554,-0.3036078,0.38353637
26928572,-0.47351554,-0.3036078,0.38224515
26952553,-0.47351554,-0.3047689,0.37837148
26976605,-0.47112063,-0.3036078,0.3809539
27000545,-0.46992317,-0.3024467,0.37449786
27023541,-0.47231808,-0.3024467,0.3809539
27046809,-0.47231808,-0.30593,0.3796627
27070773,-0.4687257,-0.3047689,0.37708026
27094908,-0.47231808,-0.30593,0.3809539
27118817,-0.47351554,-0.3047689,0.37708026
27140439,-0.474713,-0.3036078,0.3796627
27163538,-0.47112063,-0.3047689,0.3809539
27186216,-0.46992317,-0.3036078,0.38353637
27210311,-0.47231808,-0.3024467,0.3796627
27230530,-0.47351554,-0.3047689,0.3809539
27252506,-0.4687257,-0.3047689,0.38353637
27276472,-0.474713,-0.30593,0.37837148
27300436,-0.47351554,-0.3024467,0.37708026
27324445,-0.47351554,-0.3036078,0.3796627
27348509,-0.4687257,-0.30593,0.37837148
27371567,-0.474713,-0.30825216,0.3796627
27394436,-0.47112063,-0.3024467,0.3809539
27418449,-0.47710794,-0.3024467,0.37837148
27442439,-0.47231808,-0.3047689,0.37837148
27466441,-0.47112063,-0.3012856,0.38224515
27490451,-0.47112063,-0.30593,0.3809539
27512491,-0.46992317,-0.3024467,0.37837148
27534771,-0.47231808,-0.3036078,0.3809539
27556505,-0.47351554,-0.3024467,0.3809539
27580495,-0.47351554,-0.3036078,0.37578905
27604447,-0.47351554,-0.3036078,0.3809539
27627665,-0.46992317,-0.3036078,0.3796627
27650449,-0.47591045,-0.3047689,0.37837148
27671548,-0.47351554,-0.3047689,0.3809539
27694525,-0.47112063,-0.30593,0.3861188
27716448,-0.47351554,-0.3024467,0.3809539
27740539,-0.47112063,-0.30593,0.3861188
27764436,-0.47591045,-0.3047689,0.3809539
27788491,-0.47351554,-0.30593,0.38224515
27812442,-0.47351554,-0.3036078,0.38353637
27836504,-0.47591045,-0.3047689,0.38224515
27860452,-0.47112063,-0.30593,0.37837148
27884447,-0.47591045,-0.3047689,0.37837148
27908436,-0.474713,-0.3024467,0.3796627
27932544,-0.47351554,-0.3036078,0.3861188
27955626,-0.474713,-0.3024467,0.38482758
27979511,-0.47710794,-0.3024467,0.3796627
28002435,-0.47591045,-0.3012856,0.38353637
28026487,-0.47591045,-0.3024467,0.38482758
28050210,-0.474713,-0.3036078,0.38353637
28072507,-0.474713,-0.3047689,0.38224515
28096436,-0.47710794,-0.3024467,0.38482758
28119617,-0.47351554,-0.3036078,0.3796627
28142443,-0.47351554,-0.30593,0.3809539
28166438,-0.474713,-0.30593,0.38224515
28188449,-0.47591045,-0.3047689,0.38353637
28211619,-0.47231808,-0.3036078,0.3809539
28235535,-0.47112063,-0.3024467,0.38353637
28258447,-0.47351554,-0.3024467,0.38224515
28282472,-0.47710794,-0.29780233,0.3796627
28306491,-0.474713,-0.3024467,0.3809539
28330471,-0.47231808,-0.3012856,0.38224515
28354435,-0.47112063,-0.3001245,0.3796627
28378446,-0.47351554,-0.3036078,0.37837148
28402450,-0.47112063,-0.3012856,0.37837148
28426436,-0.47112063,-0.3012856,0.3796627
28450465,-0.474713,-0.3024467,0.38224515
28474486,-0.47351554,-0.30593,0.3796627
28498496,-0.474713,-0.3047689,0.37837148
28522446,-0.46992317,-0.3036078,0.38353637
28546446,-0.47231808,-0.3047689,0.38224515
28570436,-0.46992317,-0.3047689,0.38224515
28594443,-0.47112063,-0.3047689,0.3796627
28618529,-0.4687257,-0.3047689,0.37837148
28643569,-0.47351554,-0.3036078,0.3809539
28666480,-0.47112063,-0.3036078,0.37578905
28690436,-0.47351554,-0.29780233,0.38353637
28714448,-0.47351554,-0.3012856,0.38482758
28738436,-0.47231808,-0.3047689,0.38224515
28762488,-0.47112063,-0.3047689,0.38482758
28786439,-0.474713,-0.30593,0.3809539
28810446,-0.4687257,-0.3024467,0.3796627
28831522,-0.47112063,-0.3001245,0.3809539
28854747,-0.46992317,-0.3024467,0.3796627
28876468,-0.4687257,-0.3036078,0.3809539
28900504,-0.46992317,-0.3047689,0.38353637
28924436,-0.474713,-0.3047689,0.3796627
28948450,-0.46992317,-0.30709106,0.3796627
28971589,-0.47351554,-0.3036078,0.37708026
28994448,-0.47231808,-0.30825216,0.37837148
29018447,-0.4687257,-0.30593,0.38482758
29042437,-0.47351554,-0.3036078,0.38482758
29064447,-0.47112063,-0.3047689,0.3796627
29088528,-0.47231808,-0.3047689,0.37837148
29112436,-0.4687257,-0.3001245,0.3796627
29135579,-0.47231808,-0.29780233,0.3809539
29158495,-0.47112063,-0.3047689,0.3809539
29182493,-0.47112063,-0.30593,0.37837148
29204436,-0.46992317,-0.3047689,0.38224515
29228519,-0.47231808,-0.3036078,0.37578905
29252436,-0.474713,-0.3036078,0.3796627
29278997,-0.47591045,-0.3047689,0.3809539
29300447,-0.47231808,-0.3024467,0.38482758
29323565,-0.47231808,-0.3024467,0.3809539
29346265,-0.47591045,-0.30593,0.3809539
29368540,-0.47710794,-0.3036078,0.3809539
29390509,-0.47231808,-0.3036078,0.38224515
29412508,-0.46992317,-0.3047689,0.3809539
29436440,-0.474713,-0.3012856,0.3809539
29460447,-0.47231808,-0.3024467,0.3796627
29484439,-0.47112063,-0.3036078,0.3796627
29508565,-0.47231808,-0.3024467,0.38353637
29532493,-0.4783054,-0.3012856,0.3796627
29556447,-0.47351554,-0.3024467,0.38224515
29580436,-0.47710794,-0.30709106,0.3796627
29603604,-0.474713,-0.3047689,0.3809539
29626298,-0.47351554,-0.2989634,0.3809539
29646512,-0.474713,-0.3001245,0.38224515
29668498,-0.47112063,-0.30593,0.38353637
29692436,-0.47231808,-0.3036078,0.38353637
29716465,-0.47351554,-0.3001245,0.3809539
29739560,-0.47351554,-0.2989634,0.3809539
29762343,-0.474713,-0.3036078,0.38482758
29786248,-0.474713,-0.3024467,0.3809539
29808515,-0.47112063,-0.3024467,0.37578905
29832436,-0.47231808,-0.3047689,0.3809539
29855562,-0.47351554,-0.3036078,0.38224515
29878445,-0.474713,-0.3047689,0.38353637
29900436,-0.47112063,-0.30593,0.38482758
29924448,-0.474713,-0.3024467,0.38353637
29948583,-0.4687257,-0.3036078,0.38224515
29972446,-0.474713,-0.3024467,0.38353637
29996439,-0.474713,-0.3047689,0.38224515
30020449,-0.47351554,-0.3047689,0.38353637
30044513,-0.47351554,-0.3036078,0.3796627
30068436,-0.46992317,-0.3036078,0.37837148
30092481,-0.47231808,-0.3024467,0.38224515
30116436,-0.47710794,-0.30593,0.38224515
30140498,-0.47591045,-0.3024467,0.38224515
30163511,-0.47351554,-0.30709106,0.38224515
30186439,-0.47112063,-0.3047689,0.3796627
30210460,-0.47231808,-0.3012856,0.38224515
30234443,-0.47231808,-0.3047689,0.3809539
30258484,-0.47231808,-0.30709106,0.37708026
30282436,-0.47112063,-0.3024467,0.37708026
30306435,-0.47351554,-0.30593,0.3809539
30330446,-0.47351554,-0.30593,0.3796627
30354436,-0.47351554,-0.3024467,0.3796627
30378237,-0.47231808,-0.3036078,0.3796627
30400504,-0.47231808,-0.3047689,0.3796627
30424495,-0.47112063,-0.3001245,0.3796627
30447578,-0.47351554,-0.3036078,0.38353637
30470493,-0.46992317,-0.30593,0.38224515
30492436,-0.47351554,-0.30593,0.37837148
30516451,-0.47112063,-0.30593,0.38224515
30540499,-0.47231808,-0.3036078,0.3809539
30564436,-0.47351554,-0.30709106,0.37837148
30588436,-0.47231808,-0.3036078,0.3809539
30612439,-0.4687257,-0.3047689,0.37708026
30636514,-0.47351554,-0.3047689,0.3796627
30659538,-0.47351554,-0.30593,0.37837148
30682462,-0.47112063,-0.31057435,0.3796627
30706450,-0.47231808,-0.3001245,0.37578905
30730446,-0.47112063,-0.3047689,0.37708026
30754484,-0.46992317,-0.3036078,0.37708026
30778180,-0.47112063,-0.3047689,0.3796627
30800501,-0.46992317,-0.3012856,0.3796627
30824436,-0.46992317,-0.3047689,0.38224515
30847553,-0.46992317,-0.3024467,0.3796627
30870478,-0.47351554,-0.3036078,0.3796627
30892469,-0.47231808,-0.3024467,0.38224515
30916449,-0.4687257,-0.3024467,0.38353637
30940563,-0.47351554,-0.3001245,0.3796627
30964447,-0.47231808,-0.3036078,0.38353637
30988436,-0.47112063,-0.30709106,0.38353637
31012436,-0.47231808,-0.3047689,0.38224515
31036512,-0.474713,-0.3047689,0.3809539
31060467,-0.47112063,-0.3036078,0.3809539
31087008,-0.474713,-0.3024467,0.38353637
31108445,-0.47710794,-0.3012856,0.38482758
31132506,-0.47591045,-0.3047689,0.3809539
31155762,-0.474713,-0.3036078,0.38224515
31178246,-0.47950286,-0.3024467,0.38353637
31198527,-0.474713,-0.3024467,0.3861188
31220519,-0.474713,-0.3024467,0.3809539
31244436,-0.47231808,-0.3036078,0.38224515
31268447,-0.474713,-0.3012856,0.38353637
31292488,-0.474713,-0.30709106,0.3809539
31316498,-0.47591045,-0.3024467,0.3796627
31340439,-0.47710794,-0.3036078,0.38353637
31364447,-0.47351554,-0.3024467,0.38224515
31388451,-0.46992317,-0.3047689,0.3861188
31412504,-0.474713,-0.3036078,0.3809539
31436496,-0.474713,-0.3012856,0.38224515
31460436,-0.47351554,-0.3036078,0.37837148
31484435,-0.47112063,-0.3024467,0.38224515
31507597,-0.47231808,-0.3047689,0.38353637
31530298,-0.47351554,-0.3047689,0.3861188
31554442,-0.47351554,-0.3024467,0.37837148
31578442,-0.47112063,-0.3047689,0.38353637
31602493,-0.474713,-0.30709106,0.37837148
31626436,-0.474713,-0.3047689,0.37708026
31650446,-0.47112063,-0.3036078,0.3796627
31674436,-0.47231808,-0.30593,0.3809539
31698436,-0.47351554,-0.30593,0.38353637
31722448,-0.47112063,-0.3036078,0.38353637
31746439,-0.47351554,-0.3036078,0.38482758
31770488,-0.46992317,-0.3036078,0.37837148
31794446,-0.47351554,-0.30593,0.3796627
31818443,-0.46992317,-0.3012856,0.3796627
31842463,-0.4687257,-0.3047689,0.3809539
31866436,-0.4687257,-0.3036078,0.3809539
31888445,-0.47351554,-0.3012856,0.37708026
31912558,-0.47231808,-0.30593,0.3809539
31936436,-0.47231808,-0.30709106,0.37837148
31959580,-0.47112063,-0.3024467,0.3796627
31982482,-0.46992317,-0.2989634,0.3796627
32006701,-0.47351554,-0.3024467,0.37837148
32028450,-0.47351554,-0.3047689,0.37837148
32051573,-0.47351554,-0.3036078,0.3809539
32074329,-0.4687257,-0.3036078,0.3809539
32094747,-0.46992317,-0.3047689,0.38224515
32116499,-0.47351554,-0.3047689,0.3796627
32140451,-0.47231808,-0.30593,0.3809539
32163642,-0.47591045,-0.30825216,0.3796627
32186180,-0.47231808,-0.30593,0.3809539
32208600,-0.47112063,-0.30593,0.37708026
32232436,-0.47351554,-0.3036078,0.37837148
32256448,-0.47351554,-0.30709106,0.3796627
32279556,-0.4783054,-0.30825216,0.37837148
32302436,-0.47112063,-0.3036078,0.37837148
32324436,-0.47231808,-0.3047689,0.3809539
32348507,-0.47231808,-0.30593,0.3809539
32372450,-0.47351554,-0.3047689,0.3796627
32395511,-0.46992317,-0.3036078,0.37837148
32418213,-0.47351554,-0.3036078,0.37708026
32440447,-0.47351554,-0.3001245,0.37837148
32463511,-0.47351554,-0.3047689,0.3809539
32485436,-0.47591045,-0.30709106,0.3809539
32508436,-0.47112063,-0.3036078,0.38353637
32530971,-0.47710794,-0.3047689,0.3796627
32553558,-0.47351554,-0.30709106,0.3796627
32575608,-0.47112063,-0.3047689,0.3796627
32599511,-0.47231808,-0.30593,0.3796627
32623513,-0.46992317,-0.3024467,0.3796627
32647557,-0.474713,-0.3047689,0.37837148
32671665,-0.47112063,-0.3047689,0.3796627
32693504,-0.47231808,-0.3024467,0.38482758
32717445,-0.474713,-0.3047689,0.37837148
32741489,-0.47351554,-0.30593,0.38224515
32764436,-0.47231808,-0.3001245,0.3809539
32786997,-0.47231808,-0.3047689,0.38224515
32808549,-0.47231808,-0.30593,0.38353637
32832107,-0.474713,-0.3001245,0.38224515
32853442,-0.47351554,-0.30593,0.3809539
32877504,-0.4687257,-0.3036078,0.37578905
32901434,-0.47591045,-0.3024467,0.3809539
32922508,-0.47112063,-0.3012856,0.38224515
32944504,-0.47591045,-0.3012856,0.3809539
32968436,-0.47231808,-0.3001245,0.38353637
32990972,-0.47231808,-0.3047689,0.38482758
33012481,-0.47351554,-0.3036078,0.3809539
33036075,-0.47351554,-0.3047689,0.38482758
33057440,-0.474713,-0.3024467,0.3809539
33079721,-0.47710794,-0.3047689,0.38224515
33101436,-0.474713,-0.3012856,0.38224515
33125439,-0.47351554,-0.3036078,0.38224515
33148436,-0.47950286,-0.3036078,0.38482758
33169479,-0.47591045,-0.3036078,0.38224515
33191749,-0.47351554,-0.3024467,0.3809539
33213436,-0.47231808,-0.3036078,0.37837148
33236489,-0.4687257,-0.3036078,0.38353637
33259878,-0.47231808,-0.30709106,0.37708026
33281435,-0.4687257,-0.3036078,0.38224515
33303778,-0.46992317,-0.3012856,0.3809539
33325436,-0.474713,-0.3012856,0.37578905
33348436,-0.47112063,-0.3036078,0.37837148
33371969,-0.47351554,-0.3036078,0.3796627
33393460,-0.46992317,-0.3047689,0.3809539
33414436,-0.47112063,-0.30709106,0.38353637
33438470,-0.47112063,-0.3036078,0.3809539
33462435,-0.47231808,-0.3047689,0.3796627
33485581,-0.47231808,-0.3036078,0.3809539
33507528,-0.47231808,-0.3047689,0.37837148
33531566,-0.47351554,-0.3047689,0.3809539
33555545,-0.47231808,-0.30709106,0.3796627
33579594,-0.47710794,-0.3012856,0.37837148
33602541,-0.47112063,-0.3036078,0.3809539
33626435,-0.47112063,-0.3036078,0.38353637
33647522,-0.47112063,-0.3024467,0.37837148
33669447,-0.46992317,-0.3036078,0.3796627
33692475,-0.46992317,-0.3047689,0.38353637
33715561,-0.47231808,-0.3012856,0.3796627
33738436,-0.474713,-0.2989634,0.3796627
33761752,-0.46752825,-0.3036078,0.38224515
33785652,-0.47351554,-0.3024467,0.3809539
33807511,-0.47351554,-0.3036078,0.3796627
33831643,-0.46992317,-0.3036078,0.3861188
33855562,-0.47231808,-0.3024467,0.38224515
33879550,-0.47710794,-0.3047689,0.38224515
33902113,-0.47231808,-0.3036078,0.38482758
33923529,-0.47591045,-0.3001245,0.38224515
33946517,-0.47591045,-0.3047689,0.38353637
33968437,-0.47710794,-0.30593,0.3861188
33992465,-0.47231808,-0.3047689,0.38224515
34016581,-0.47591045,-0.3024467,0.38482758
34040450,-0.47591045,-0.3012856,0.3861188
34064436,-0.47591045,-0.3024467,0.3796627
34088436,-0.47710794,-0.3036078,0.38353637
34112506,-0.47710794,-0.3047689,0.3796627
34138762,-0.474713,-0.3012856,0.37837148
34162935,-0.47591045,-0.30593,0.38224515
34184453,-0.474713,-0.3036078,0.38224515
34208501,-0.46752825,-0.30593,0.3809539
34232436,-0.47231808,-0.3024467,0.38224515
34256436,-0.47112063,-0.3036078,0.3796627
34280439,-0.47112063,-0.30593,0.3861188
34304532,-0.47351554,-0.30825216,0.38482758
34328535,-0.47351554,-0.3047689,0.38353637
34349481,-0.474713,-0.3047689,0.3809539
34372436,-0.47591045,-0.3047689,0.38224515
34396436,-0.47112063,-0.3047689,0.3796627
34419531,-0.47231808,-0.3036078,0.3796627
34441491,-0.46992317,-0.3047689,0.3809539
34465499,-0.46992317,-0.30593,0.3796627
34487557,-0.47351554,-0.3036078,0.3809539
34509510,-0.474713,-0.3047689,0.37837148
34531592,-0.46992317,-0.3047689,0.3809539
34553502,-0.474713,-0.3036078,0.37837148
34576436,-0.47351554,-0.3036078,0.37837148
34599043,-0.47231808,-0.3036078,0.37837148
34619559,-0.47351554,-0.3036078,0.37837148
34643496,-0.46992317,-0.30593,0.3809539
34667506,-0.47231808,-0.3036078,0.3796627
34689447,-0.46992317,-0.3036078,0.3809539
34712556,-0.47351554,-0.30709106,0.38224515
34735036,-0.47112063,-0.3036078,0.37837148
34756530,-0.46992317,-0.3047689,0.3796627
34780436,-0.47112063,-0.3047689,0.37837148
34802446,-0.47351554,-0.3024467,0.3796627
34828043,-0.47231808,-0.3036078,0.3796627
34849449,-0.474713,-0.3001245,0.3809539
34871531,-0.47231808,-0.3012856,0.38353637
34895621,-0.47112063,-0.3036078,0.38224515
34919517,-0.47950286,-0.3024467,0.37837148
34942436,-0.46992317,-0.3024467,0.37837148
34965601,-0.47231808,-0.3012856,0.3809539
34987554,-0.47231808,-0.30709106,0.37837148
35011625,-0.46992317,-0.30709106,0.3809539
35035511,-0.4687257,-0.3036078,0.3796627
35059562,-0.47112063,-0.30593,0.3796627
35083550,-0.47231808,-0.3036078,0.3796627
35107552,-0.46992317,-0.3036078,0.38482758
35131576,-0.474713,-0.3047689,0.37837148
35155588,-0.47112063,-0.3001245,0.38224515
35179594,-0.47231808,-0.3047689,0.3796627
35203522,-0.47231808,-0.3047689,0.38224515
35227511,-0.4783054,-0.30593,0.3796627
35251588,-0.47112063,-0.2989634,0.3796627
35275563,-0.4687257,-0.3036078,0.38482758
35299538,-0.4687257,-0.3012856,0.3796627
35323613,-0.46992317,-0.3036078,0.3796627
35350357,-0.47351554,-0.3012856,0.3809539
35371549,-0.47351554,-0.3047689,0.38482758
35395511,-0.47351554,-0.30593,0.3796627
35419522,-0.47351554,-0.3001245,0.3809539
35443578,-0.474713,-0.3047689,0.3809539
35466436,-0.47351554,-0.3012856,0.38224515
35489423,-0.47351554,-0.3024467,0.3809539
35513341,-0.474713,-0.3024467,0.38224515
35535619,-0.47591045,-0.3024467,0.38224515
35559511,-0.474713,-0.3047689,0.3809539
35581536,-0.47351554,-0.3024467,0.38353637
35603530,-0.47112063,-0.3036078,0.38353637
35627547,-0.47351554,-0.3024467,0.3796627
35651532,-0.47231808,-0.30593,0.38353637
35677580,-0.474713,-0.3024467,0.38224515
35701964,-0.474713,-0.30593,0.38224515
35723604,-0.47710794,-0.3047689,0.38482758
35747554,-0.474713,-0.3036078,0.3861188
35771558,-0.47351554,-0.3024467,0.38741
35795511,-0.4687257,-0.30825216,0.38224515
35819580,-0.47591045,-0.3024467,0.3796627
35843545,-0.47112063,-0.3024467,0.38224515
35866529,-0.47591045,-0.3036078,0.3809539
35889436,-0.47351554,-0.3024467,0.38353637
35910435,-0.474713,-0.3047689,0.38224515
35933942,-0.47591045,-0.3036078,0.38353637
35957690,-0.474713,-0.3047689,0.38224515
35981697,-0.47591045,-0.3047689,0.38224515
36003487,-0.47351554,-0.30709106,0.38224515
36027564,-0.47351554,-0.3036078,0.37837148
36051505,-0.47231808,-0.30593,0.37708026
36075487,-0.47591045,-0.3047689,0.37708026
36099562,-0.47112063,-0.3024467,0.3809539
36123596,-0.47231808,-0.3012856,0.38224515
36147530,-0.47231808,-0.3047689,0.3809539
36171498,-0.47351554,-0.3047689,0.3796627
36198321,-0.47231808,-0.3024467,0.37837148
36219505,-0.474713,-0.3047689,0.38224515
36243549,-0.47351554,-0.3047689,0.37708026
36267532,-0.47112063,-0.3036078,0.37708026
36291549,-0.4687257,-0.3001245,0.3809539
36315525,-0.47112063,-0.30593,0.37837148
36339591,-0.47591045,-0.3036078,0.37708026
36363563,-0.47351554,-0.3047689,0.3796627
36387532,-0.47231808,-0.3012856,0.37708026
36411532,-0.47231808,-0.30825216,0.37837148
36435517,-0.46992317,-0.3024467,0.3796627
36459612,-0.47351554,-0.3036078,0.38224515
36483561,-0.47231808,-0.3024467,0.37837148
36507513,-0.47112063,-0.3024467,0.3796627
36531653,-0.47351554,-0.30709106,0.38224515
36555530,-0.47112063,-0.3001245,0.38224515
36579528,-0.47231808,-0.3012856,0.37837148
36603517,-0.47112063,-0.30593,0.37578905
36627632,-0.46992317,-0.3012856,0.37837148
36651551,-0.47231808,-0.3024467,0.37837148
36678324,-0.47351554,-0.3024467,0.37708026
36702148,-0.47112063,-0.2989634,0.3809539
36726436,-0.474713,-0.3024467,0.3796627
36750060,-0.47112063,-0.2989634,0.37837148
36771529,-0.474713,-0.3012856,0.3809539
36795569,-0.47231808,-0.30709106,0.37708026
36819611,-0.47591045,-0.3047689,0.37578905
36843523,-0.47351554,-0.3047689,0.37837148
36867550,-0.47112063,-0.3036078,0.38224515
36891529,-0.47112063,-0.30593,0.3796627
36915628,-0.46752825,-0.3012856,0.3809539
36939521,-0.474713,-0.3036078,0.38224515
36963549,-0.47591045,-0.3036078,0.38224515
36987522,-0.47351554,-0.30825216,0.37837148
37011586,-0.4687257,-0.3012856,0.3809539
37035537,-0.47351554,-0.3012856,0.38224515
37059531,-0.47112063,-0.3036078,0.38353637
37083553,-0.47351554,-0.30593,0.38224515
37107589,-0.474713,-0.3012856,0.38353637
37131560,-0.47231808,-0.3024467,0.38224515
37158207,-0.474713,-0.3024467,0.38482758
37179511,-0.474713,-0.3024467,0.38353637
37202851,-0.47112063,-0.3047689,0.38482758
37225467,-0.47591045,-0.3036078,0.3809539
37249439,-0.474713,-0.3036078,0.38353637
37270436,-0.47351554,-0.3001245,0.38224515
37294441,-0.47591045,-0.3024467,0.38224515
37317583,-0.4783054,-0.3012856,0.38224515
37339591,-0.47710794,-0.3012856,0.38482758
37363624,-0.4783054,-0.3024467,0.3796627
37387524,-0.474713,-0.3047689,0.38224515
37411491,-0.47591045,-0.3012856,0.3809539
37435496,-0.474713,-0.30593,0.38353637
37459588,-0.47112063,-0.3024467,0.38482758
37483496,-0.47351554,-0.3024467,0.3809539
37510450,-0.46992317,-0.3012856,0.3809539
37534172,-0.47112063,-0.3036078,0.3809539
37555554,-0.4783054,-0.3036078,0.38224515
37579500,-0.47231808,-0.30825216,0.38353637
37603498,-0.47231808,-0.3047689,0.3809539
37630438,-0.47351554,-0.3036078,0.38353637
37654099,-0.47112063,-0.3012856,0.3809539
37675632,-0.47591045,-0.3001245,0.37708026
37699498,-0.47112063,-0.30593,0.3796627
37723487,-0.474713,-0.3047689,0.3809539
37747511,-0.47351554,-0.3036078,0.38224515
37774236,-0.47710794,-0.30593,0.3796627
37798866,-0.47112063,-0.3024467,0.3796627
37822836,-0.47231808,-0.30825216,0.3809539
37846539,-0.47591045,-0.30593,0.38224515
37870783,-0.47231808,-0.3047689,0.37837148
37895530,-0.47231808,-0.3024467,0.37837148
37919521,-0.474713,-0.3024467,0.3809539
37942741,-0.4687257,-0.3047689,0.37578905
37964447,-0.47591045,-0.3047689,0.37837148
37988504,-0.47231808,-0.3047689,0.37708026
38011007,-0.47112063,-0.3047689,0.3809539
38034917,-0.46992317,-0.3024467,0.3796627
38057437,-0.4663308,-0.30593,0.37837148
38079943,-0.474713,-0.3024467,0.37837148
38102442,-0.47351554,-0.30593,0.3796627
38125452,-0.47351554,-0.3047689,0.3809539
38147584,-0.47351554,-0.3036078,0.3809539
38170438,-0.47351554,-0.3024467,0.37837148
38194217,-0.47351554,-0.3012856,0.3809539
38214439,-0.47112063,-0.3024467,0.3796627
38237458,-0.47112063,-0.3024467,0.3809539
38258441,-0.474713,-0.3036078,0.3809539
38282218,-0.46992317,-0.3024467,0.37837148
38306144,-0.46992317,-0.3024467,0.37708026
38330375,-0.47351554,-0.2989634,0.38224515
38354302,-0.47351554,-0.2989634,0.38353637
38375689,-0.47351554,-0.3036078,0.3796627
38399523,-0.47710794,-0.30593,0.3796627
38422446,-0.47231808,-0.3024467,0.3809539
38445440,-0.47112063,-0.30593,0.37708026
38467536,-0.47231808,-0.30709106,0.37837148
38490156,-0.474713,-0.3024467,0.38224515
38513570,-0.47351554,-0.3036078,0.37837148
38535578,-0.47112063,-0.3036078,0.38224515
38559620,-0.474713,-0.3001245,0.3796627
38583555,-0.47591045,-0.3047689,0.3809539
38607522,-0.47112063,-0.3024467,0.37708026
38631540,-0.47351554,-0.3047689,0.38224515
38655603,-0.47710794,-0.3047689,0.38224515
38679523,-0.46992317,-0.3024467,0.37837148
38706344,-0.47351554,-0.3036078,0.3809539
38730861,-0.47231808,-0.3012856,0.38482758
38754573,-0.474713,-0.3012856,0.38224515
38778436,-0.47351554,-0.30709106,0.3796627
38802439,-0.47351554,-0.3024467,0.38353637
38825714,-0.47351554,-0.3024467,0.38224515
38847525,-0.47591045,-0.3036078,0.3861188
38871635,-0.4783054,-0.3024467,0.38482758
38895487,-0.47710794,-0.3036078,0.38482758
38919600,-0.4783054,-0.3036078,0.38224515
38946770,-0.474713,-0.30593,0.38482758
38970824,-0.474713,-0.3036078,0.3796627
38994436,-0.47351554,-0.3036078,0.38224515
39018436,-0.47231808,-0.30709106,0.38224515
39042077,-0.47710794,-0.3036078,0.3796627
39065990,-0.47591045,-0.2989634,0.38224515
39090037,-0.47231808,-0.30593,0.38353637
39114045,-0.47591045,-0.3012856,0.37837148
39135548,-0.474713,-0.3036078,0.38224515
39159615,-0.47591045,-0.3047689,0.38353637
39182287,-0.47112063,-0.3001245,0.3796627
39203003,-0.46992317,-0.3024467,0.37837148
39224501,-0.47351554,-0.3024467,0.3796627
39248524,-0.47231808,-0.3047689,0.37837148
39272445,-0.47351554,-0.30593,0.3809539
39296435,-0.47231808,-0.3012856,0.3796627
39319622,-0.47591045,-0.3036078,0.3809539
39342267,-0.4687257,-0.3036078,0.3796627
39363629,-0.47351554,-0.3024467,0.3796627
39386436,-0.47231808,-0.3047689,0.37837148
39408445,-0.47112063,-0.3047689,0.3809539
39432439,-0.47351554,-0.30593,0.37837148
39456492,-0.46992317,-0.30593,0.38224515
39480560,-0.47231808,-0.30593,0.38224515
39504446,-0.47231808,-0.30709106,0.38224515
39526981,-0.4687257,-0.3036078,0.3809539
39548436,-0.47231808,-0.3047689,0.3809539
39573559,-0.47112063,-0.3024467,0.37837148
39597549,-0.474713,-0.30825216,0.38224515
39621655,-0.474713,-0.3036078,0.37708026
39644449,-0.46992317,-0.30593,0.3796627
39668549,-0.46992317,-0.3024467,0.3809539
39692450,-0.47112063,-0.3036078,0.3796627
39719091,-0.46992317,-0.3036078,0.3796627
39742838,-0.47231808,-0.3036078,0.37837148
39764511,-0.47112063,-0.3036078,0.37837148
39788446,-0.47231808,-0.30709106,0.3809539
39812620,-0.4687257,-0.3036078,0.38224515
39836573,-0.47231808,-0.3047689,0.38224515
39860588,-0.4687257,-0.3036078,0.37708026
39881595,-0.47351554,-0.3036078,0.37708026
39903575,-0.46992317,-0.3024467,0.3809539
39927541,-0.474713,-0.3001245,0.38224515
39951603,-0.47231808,-0.30593,0.38224515
39975585,-0.47231808,-0.30593,0.38224515
39999559,-0.47112063,-0.30593,0.38224515
40023581,-0.474713,-0.30593,0.37708026
40047618,-0.47231808,-0.30593,0.37708026
40071614,-0.47112063,-0.3047689,0.3796627
40098437,-0.4687257,-0.30825216,0.3796627
40122059,-0.47351554,-0.3012856,0.37837148
40143544,-0.474713,-0.3036078,0.3809539
