timestamp,baro_alt_meter,baro_temp_celcius,baro_pressure_pa,rho
7434911,213.05287,42.26,98792.0,1.1738124
7456784,212.9683,42.26,98793.0,1.1738243
7466573,212.28923,42.26,98800.99,1.1739192
7477495,212.9683,42.26,98793.0,1.1738243
7499929,212.5429,42.26,98798.0,1.1738837
7510446,212.88376,42.26,98794.0,1.1738361
7521446,212.6301,42.26,98797.0,1.1738718
7542475,212.28923,42.27,98800.99,1.1739192
7553489,212.6301,42.27,98797.0,1.1738718
7564368,212.9683,42.27,98793.0,1.1738243
7585436,212.6301,42.27,98797.0,1.1738718
7596442,212.71465,42.27,98796.0,1.17386
7608123,212.88376,42.27,98794.0,1.1738361
7628452,212.3738,42.27,98800.0,1.1739074
7638439,212.45834,42.27,98799.0,1.1738956
7648440,212.5429,42.27,98798.0,1.1738837
7669436,212.6301,42.27,98797.0,1.1738718
7680802,212.79921,42.27,98794.99,1.1738479
7692150,212.5429,42.27,98798.0,1.1738837
7713436,212.79921,42.27,98794.99,1.1738479
7724779,213.22462,42.27,98790.0,1.1737887
7736147,212.6301,42.27,98797.0,1.1738718
7757441,212.71465,42.27,98796.0,1.17386
7768766,212.79921,42.27,98794.99,1.1738479
7780137,212.5429,42.27,98798.0,1.1738837
7801471,212.28923,42.28,98800.99,1.1739192
7812750,212.3738,42.28,98800.0,1.1739074
7824447,212.6301,42.28,98797.0,1.1738718
7846436,212.45834,42.28,98799.0,1.1738956
7856603,212.6301,42.28,98797.0,1.1738718
7868148,213.14006,42.28,98791.0,1.1738005
7889436,212.3738,42.28,98800.0,1.1739074
7900802,212.45834,42.28,98799.0,1.1738956
7912185,212.6301,42.28,98797.0,1.1738718
7933438,212.71465,42.28,98796.0,1.17386
7944749,212.71465,42.28,98796.0,1.17386
7956123,212.45834,42.28,98799.0,1.1738956
7977436,212.79921,42.28,98794.99,1.1738479
7989246,212.88376,42.28,98794.0,1.1738361
7999769,211.94838,42.28,98805.0,1.1739669
8021163,212.79921,42.27,98794.99,1.1738479
8032133,212.79921,42.27,98794.99,1.1738479
8042504,212.3738,42.27,98800.0,1.1739074
8064475,212.79921,42.28,98794.99,1.1738479
8074436,212.28923,42.28,98800.99,1.1739192
8085438,212.12013,42.28,98803.0,1.173943
8106859,212.12013,42.29,98803.0,1.173943
8117397,212.12013,42.29,98803.0,1.173943
8128100,212.28923,42.29,98800.99,1.1739192
8149492,212.6301,42.28,98797.0,1.1738718
8160439,212.5429,42.28,98798.0,1.1738837
8170463,212.5429,42.28,98798.0,1.1738837
8192506,212.5429,42.28,98798.0,1.1738837
8202445,212.20468,42.28,98801.99,1.1739311
8212812,212.6301,42.28,98797.0,1.1738718
8234436,212.28923,42.29,98800.99,1.1739192
8245511,212.71465,42.29,98796.0,1.17386
8256437,212.6301,42.29,98797.0,1.1738718
8280162,212.5429,42.28,98798.0,1.1738837
8290811,213.14006,42.28,98791.0,1.1738005
8301435,212.71465,42.28,98796.0,1.17386
8322436,212.03293,42.28,98804.0,1.173955
8333365,212.79921,42.28,98794.99,1.1738479
8344340,212.5429,42.28,98798.0,1.1738837
8364749,212.79921,42.28,98794.99,1.1738479
8376092,212.20468,42.28,98801.99,1.1739311
8386446,212.3738,42.28,98800.0,1.1739074
8408132,212.71465,42.28,98796.0,1.17386
8418436,212.28923,42.28,98800.99,1.1739192
8429439,212.45834,42.28,98799.0,1.1738956
8450439,212.03293,42.28,98804.0,1.173955
8461163,212.9683,42.28,98793.0,1.1738243
8473573,212.79921,42.28,98794.99,1.1738479
8496148,212.6301,42.28,98797.0,1.1738718
8506468,212.6301,42.28,98797.0,1.1738718
8516733,212.5429,42.28,98798.0,1.1738837
8538446,212.5429,42.28,98798.0,1.1738837
8548542,211.77927,42.28,98807.0,1.1739906
8560130,212.03293,42.28,98804.0,1.173955
8581161,212.79921,42.28,98794.99,1.1738479
8592172,212.5429,42.28,98798.0,1.1738837
8602849,212.45834,42.28,98799.0,1.1738956
8624670,212.45834,42.28,98799.0,1.1738956
8636659,212.5429,42.28,98798.0,1.1738837
8648314,212.28923,42.28,98800.99,1.1739192
8669153,212.3738,42.28,98800.0,1.1739074
8680147,212.45834,42.28,98799.0,1.1738956
8690838,212.6301,42.28,98797.0,1.1738718
8712089,212.3738,42.28,98800.0,1.1739074
8722436,212.6301,42.28,98797.0,1.1738718
8733436,212.3738,42.28,98800.0,1.1739074
8754448,212.71465,42.27,98796.0,1.17386
8765198,212.88376,42.27,98794.0,1.1738361
8776104,212.20468,42.27,98801.99,1.1739311
8796499,212.5429,42.28,98798.0,1.1738837
8808502,212.71465,42.28,98796.0,1.17386
8820877,212.3738,42.28,98800.0,1.1739074
8840502,212.03293,42.28,98804.0,1.173955
8850811,212.71465,42.28,98796.0,1.17386
8861502,212.6301,42.28,98797.0,1.1738718
8882502,212.88376,42.28,98794.0,1.1738361
8894007,212.6301,42.28,98797.0,1.1738718
8904524,212.20468,42.28,98801.99,1.1739311
8928131,212.5429,42.28,98798.0,1.1738837
8938866,212.28923,42.28,98800.99,1.1739192
8949436,212.5429,42.28,98798.0,1.1738837
8969436,212.45834,42.28,98799.0,1.1738956
8980510,212.71465,42.28,98796.0,1.17386
8992126,212.20468,42.28,98801.99,1.1739311
9012523,212.5429,42.27,98798.0,1.1738837
9024335,212.5429,42.27,98798.0,1.1738837
9034436,212.03293,42.27,98804.0,1.173955
9056445,212.3738,42.28,98800.0,1.1739074
9066439,212.3738,42.28,98800.0,1.1739074
9077439,212.3738,42.28,98800.0,1.1739074
9098436,212.03293,42.27,98804.0,1.173955
9109289,212.20468,42.27,98801.99,1.1739311
9120118,212.3738,42.27,98800.0,1.1739074
9141252,212.5429,42.27,98798.0,1.1738837
9152114,212.5429,42.27,98798.0,1.1738837
9162867,212.5429,42.27,98798.0,1.1738837
9184743,212.3738,42.28,98800.0,1.1739074
9196961,212.20468,42.28,98801.99,1.1739311
9208141,212.03293,42.28,98804.0,1.173955
9229435,212.20468,42.27,98801.99,1.1739311
9240443,212.71465,42.27,98796.0,1.17386
9250436,212.45834,42.27,98799.0,1.1738956
9272642,212.6301,42.27,98797.0,1.1738718
9284735,211.61015,42.27,98809.0,1.1740143
9294786,212.28923,42.27,98800.99,1.1739192
9317282,212.71465,42.27,98796.0,1.17386
9328165,212.3738,42.27,98800.0,1.1739074
9338786,211.86382,42.27,98806.0,1.1739787
9360146,212.45834,42.27,98799.0,1.1738956
9370436,212.12013,42.27,98803.0,1.173943
9381452,212.71465,42.27,98796.0,1.17386
9404826,211.86382,42.27,98806.0,1.1739787
9416132,211.86382,42.27,98806.0,1.1739787
9426487,212.03293,42.27,98804.0,1.173955
9448068,212.45834,42.27,98799.0,1.1738956
9458439,212.28923,42.27,98800.99,1.1739192
9468754,212.45834,42.27,98799.0,1.1738956
9490436,212.28923,42.27,98800.99,1.1739192
9500549,212.45834,42.27,98799.0,1.1738956
9512125,212.12013,42.27,98803.0,1.173943
9532556,212.12013,42.27,98803.0,1.173943
9544775,212.79921,42.27,98794.99,1.1738479
9554542,212.03293,42.27,98804.0,1.173955
9576343,212.03293,42.26,98804.0,1.173955
9586892,212.28923,42.26,98800.99,1.1739192
9596663,212.28923,42.26,98800.99,1.1739192
9618436,212.45834,42.27,98799.0,1.1738956
9629647,212.3738,42.27,98800.0,1.1739074
9640481,212.5429,42.27,98798.0,1.1738837
9664409,212.20468,42.27,98801.99,1.1739311
9674436,212.20468,42.27,98801.99,1.1739311
9684695,212.03293,42.27,98804.0,1.173955
9706447,212.03293,42.26,98804.0,1.173955
9717440,212.3738,42.26,98800.0,1.1739074
9728439,212.5429,42.26,98798.0,1.1738837
9752152,212.12013,42.27,98803.0,1.173943
9762436,212.03293,42.27,98804.0,1.173955
9773439,212.03293,42.27,98804.0,1.173955
9793436,212.03293,42.26,98804.0,1.173955
9804589,212.20468,42.26,98801.99,1.1739311
9816129,212.45834,42.26,98799.0,1.1738956
9837130,212.20468,42.26,98801.99,1.1739311
9848111,212.5429,42.26,98798.0,1.1738837
9858855,212.12013,42.26,98803.0,1.173943
9880780,212.20468,42.26,98801.99,1.1739311
9890548,212.20468,42.26,98801.99,1.1739311
9900798,212.03293,42.26,98804.0,1.173955
9920451,212.28923,42.26,98800.99,1.1739192
9933192,212.6301,42.26,98797.0,1.1738718
9944421,212.45834,42.26,98799.0,1.1738956
9968142,212.12013,42.26,98803.0,1.173943
9978448,212.12013,42.26,98803.0,1.173943
9988753,212.45834,42.26,98799.0,1.1738956
10010436,212.12013,42.26,98803.0,1.173943
10021436,211.94838,42.26,98805.0,1.1739669
10032442,212.9683,42.26,98793.0,1.1738243
10056134,212.03293,42.26,98804.0,1.173955
10066436,212.20468,42.26,98801.99,1.1739311
10076760,212.03293,42.26,98804.0,1.173955
10098446,212.20468,42.26,98801.99,1.1739311
10108789,212.3738,42.26,98800.0,1.1739074
10120129,212.3738,42.26,98800.0,1.1739074
10141526,212.03293,42.26,98804.0,1.173955
10152750,212.88376,42.26,98794.0,1.1738361
10162436,212.5429,42.26,98798.0,1.1738837
10182436,212.03293,42.26,98804.0,1.173955
10192444,212.3738,42.26,98800.0,1.1739074
10204647,212.20468,42.26,98801.99,1.1739311
10226594,212.03293,42.26,98804.0,1.173955
10237360,212.3738,42.26,98800.0,1.1739074
10248323,212.28923,42.26,98800.99,1.1739192
10268943,212.03293,42.26,98804.0,1.173955
10280212,212.5429,42.26,98798.0,1.1738837
10290811,212.20468,42.26,98801.99,1.1739311
10312163,212.28923,42.25,98800.99,1.1739192
10321436,212.20468,42.25,98801.99,1.1739311
10332609,212.28923,42.25,98800.99,1.1739192
10354464,212.20468,42.26,98801.99,1.1739311
10364625,212.79921,42.26,98794.99,1.1738479
10376163,212.3738,42.26,98800.0,1.1739074
10397441,212.45834,42.26,98799.0,1.1738956
10408451,212.71465,42.26,98796.0,1.17386
10418436,212.5429,42.26,98798.0,1.1738837
10440115,212.5429,42.26,98798.0,1.1738837
10450835,211.94838,42.26,98805.0,1.1739669
10461436,212.5429,42.26,98798.0,1.1738837
10481436,212.45834,42.26,98799.0,1.1738956
10493352,212.3738,42.26,98800.0,1.1739074
10504337,211.77927,42.26,98807.0,1.1739906
10525436,212.45834,42.26,98799.0,1.1738956
10536202,212.28923,42.26,98800.99,1.1739192
10546436,212.20468,42.26,98801.99,1.1739311
10568157,212.45834,42.26,98799.0,1.1738956
10580782,211.94838,42.26,98805.0,1.1739669
10592119,212.20468,42.26,98801.99,1.1739311
10612586,212.6301,42.25,98797.0,1.1738718
10623828,212.5429,42.25,98798.0,1.1738837
10634439,211.77927,42.25,98807.0,1.1739906
10656154,212.71465,42.25,98796.0,1.17386
10666469,212.20468,42.25,98801.99,1.1739311
10677382,212.5429,42.25,98798.0,1.1738837
10698861,212.6301,42.25,98797.0,1.1738718
10708937,212.45834,42.25,98799.0,1.1738956
10720621,212.45834,42.25,98799.0,1.1738956
10744428,212.6301,42.25,98797.0,1.1738718
10754510,212.5429,42.25,98798.0,1.1738837
10765383,212.45834,42.25,98799.0,1.1738956
10786843,212.03293,42.25,98804.0,1.173955
10797470,212.12013,42.25,98803.0,1.173943
10808600,212.6301,42.25,98797.0,1.1738718
10832594,212.20468,42.25,98801.99,1.1739311
10844792,212.12013,42.25,98803.0,1.173943
10856618,212.03293,42.25,98804.0,1.173955
10877989,212.20468,42.25,98801.99,1.1739311
10887568,212.03293,42.25,98804.0,1.173955
10898536,212.3738,42.25,98800.0,1.1739074
10921166,212.5429,42.25,98798.0,1.1738837
10931607,212.71465,42.25,98796.0,1.17386
10942494,211.94838,42.25,98805.0,1.1739669
10963626,212.20468,42.239998,98801.99,1.1739311
10974491,212.20468,42.239998,98801.99,1.1739311
10984964,212.12013,42.239998,98803.0,1.173943
11004539,212.3738,42.25,98800.0,1.1739074
11015578,212.20468,42.25,98801.99,1.1739311
11025895,212.9683,42.25,98793.0,1.1738243
11047692,212.5429,42.25,98798.0,1.1738837
11057752,212.12013,42.25,98803.0,1.173943
11068500,211.77927,42.25,98807.0,1.1739906
11089911,212.28923,42.25,98800.99,1.1739192
11099609,212.12013,42.25,98803.0,1.173943
11110502,212.28923,42.25,98800.99,1.1739192
11132885,212.28923,42.25,98800.99,1.1739192
11143068,212.12013,42.25,98803.0,1.173943
11154040,212.03293,42.25,98804.0,1.173955
11175671,212.71465,42.239998,98796.0,1.17386
11186469,212.3738,42.239998,98800.0,1.1739074
11196465,211.86382,42.239998,98806.0,1.1739787
11217908,211.5256,42.25,98810.0,1.1740263
11228781,212.45834,42.25,98799.0,1.1738956
11239165,211.77927,42.25,98807.0,1.1739906
11260488,212.45834,42.25,98799.0,1.1738956
11271588,212.12013,42.25,98803.0,1.173943
11282803,212.03293,42.25,98804.0,1.173955
11304687,212.20468,42.239998,98801.99,1.1739311
11316141,212.6301,42.239998,98797.0,1.1738718
11326475,212.28923,42.239998,98800.99,1.1739192
11348160,212.12013,42.239998,98803.0,1.173943
11358484,212.3738,42.239998,98800.0,1.1739074
11369467,212.20468,42.239998,98801.99,1.1739311
11390473,212.12013,42.239998,98803.0,1.173943
11400664,212.28923,42.239998,98800.99,1.1739192
11412345,212.03293,42.239998,98804.0,1.173955
11433321,212.79921,42.239998,98794.99,1.1738479
11444557,212.6301,42.239998,98797.0,1.1738718
11457349,212.5429,42.239998,98798.0,1.1738837
11478520,212.71465,42.239998,98796.0,1.17386
11489333,212.03293,42.239998,98804.0,1.173955
11500138,212.6301,42.239998,98797.0,1.1738718
11521266,212.03293,42.239998,98804.0,1.173955
11531642,212.28923,42.239998,98800.99,1.1739192
11542912,212.12013,42.239998,98803.0,1.173943
11565432,212.3738,42.25,98800.0,1.1739074
11575622,211.94838,42.25,98805.0,1.1739669
11585533,212.12013,42.25,98803.0,1.173943
11606524,211.61015,42.239998,98809.0,1.1740143
11618955,212.79921,42.239998,98794.99,1.1738479
11629770,212.28923,42.239998,98800.99,1.1739192
11651608,212.3738,42.239998,98800.0,1.1739074
11662473,211.77927,42.239998,98807.0,1.1739906
11674475,212.6301,42.239998,98797.0,1.1738718
11696537,212.45834,42.239998,98799.0,1.1738956
11706493,212.20468,42.239998,98801.99,1.1739311
11717978,212.5429,42.239998,98798.0,1.1738837
11739844,212.20468,42.239998,98801.99,1.1739311
11750493,212.3738,42.239998,98800.0,1.1739074
11760488,212.45834,42.239998,98799.0,1.1738956
11784359,212.12013,42.239998,98803.0,1.173943
11794470,212.71465,42.239998,98796.0,1.17386
11804665,212.12013,42.239998,98803.0,1.173943
11826469,212.28923,42.239998,98800.99,1.1739192
11837481,211.77927,42.239998,98807.0,1.1739906
11848475,212.45834,42.239998,98799.0,1.1738956
11868592,212.12013,42.239998,98803.0,1.173943
11879911,212.6301,42.239998,98797.0,1.1738718
11890479,212.12013,42.239998,98803.0,1.173943
11913485,212.3738,42.239998,98800.0,1.1739074
11923614,212.03293,42.239998,98804.0,1.173955
11933468,212.3738,42.239998,98800.0,1.1739074
11955608,212.28923,42.239998,98800.99,1.1739192
11966136,212.20468,42.239998,98801.99,1.1739311
11976941,212.45834,42.239998,98799.0,1.1738956
11998851,212.28923,42.239998,98800.99,1.1739192
12008949,212.12013,42.239998,98803.0,1.173943
12019927,211.86382,42.239998,98806.0,1.1739787
12041475,212.6301,42.239998,98797.0,1.1738718
12051555,211.77927,42.239998,98807.0,1.1739906
12062473,212.03293,42.239998,98804.0,1.173955
12083584,212.28923,42.25,98800.99,1.1739192
12094343,211.94838,42.25,98805.0,1.1739669
12105221,212.45834,42.25,98799.0,1.1738956
12126539,212.6301,42.239998,98797.0,1.1738718
12138401,212.71465,42.239998,98796.0,1.17386
12148511,212.3738,42.239998,98800.0,1.1739074
12171684,211.94838,42.239998,98805.0,1.1739669
12182868,212.6301,42.239998,98797.0,1.1738718
12193519,212.71465,42.239998,98796.0,1.17386
12215544,212.20468,42.239998,98801.99,1.1739311
12226194,212.45834,42.239998,98799.0,1.1738956
12235539,212.03293,42.239998,98804.0,1.173955
12257469,211.77927,42.239998,98807.0,1.1739906
12269136,212.12013,42.239998,98803.0,1.173943
12279564,212.5429,42.239998,98798.0,1.1738837
12301509,212.20468,42.239998,98801.99,1.1739311
12311646,212.12013,42.239998,98803.0,1.173943
12322469,212.03293,42.239998,98804.0,1.173955
12343908,212.5429,42.239998,98798.0,1.1738837
12354327,212.71465,42.239998,98796.0,1.17386
12364955,212.45834,42.239998,98799.0,1.1738956
12386469,211.94838,42.239998,98805.0,1.1739669
12397503,212.20468,42.239998,98801.99,1.1739311
12407571,212.12013,42.239998,98803.0,1.173943
12429922,212.12013,42.239998,98803.0,1.173943
12440480,212.20468,42.239998,98801.99,1.1739311
12452701,211.69472,42.239998,98807.99,1.1740024
12474470,212.28923,42.239998,98800.99,1.1739192
12485479,212.5429,42.239998,98798.0,1.1738837
12496492,212.03293,42.239998,98804.0,1.173955
12520126,212.12013,42.23,98803.0,1.173943
12530469,212.03293,42.23,98804.0,1.173955
12540660,212.03293,42.23,98804.0,1.173955
12562505,212.6301,42.23,98797.0,1.1738718
12574823,212.28923,42.23,98800.99,1.1739192
12585923,212.6301,42.23,98797.0,1.1738718
12607621,212.71465,42.23,98796.0,1.17386
12617767,212.28923,42.23,98800.99,1.1739192
12627587,212.20468,42.23,98801.99,1.1739311
12649909,211.69472,42.23,98807.99,1.1740024
12660470,212.45834,42.23,98799.0,1.1738956
12671581,212.5429,42.23,98798.0,1.1738837
12692475,212.45834,42.23,98799.0,1.1738956
12703583,212.6301,42.23,98797.0,1.1738718
12714487,212.45834,42.23,98799.0,1.1738956
12735778,212.6301,42.23,98797.0,1.1738718
12746539,212.9683,42.23,98793.0,1.1738243
12757475,212.6301,42.23,98797.0,1.1738718
12779569,212.28923,42.23,98800.99,1.1739192
12790500,212.20468,42.23,98801.99,1.1739311
12800466,212.20468,42.23,98801.99,1.1739311
12823841,212.20468,42.23,98801.99,1.1739311
12834469,212.79921,42.23,98794.99,1.1738479
12845776,212.5429,42.23,98798.0,1.1738837
12867956,212.28923,42.239998,98800.99,1.1739192
12878499,212.5429,42.239998,98798.0,1.1738837
12889959,212.12013,42.239998,98803.0,1.173943
12912952,212.12013,42.23,98803.0,1.173943
12923616,212.5429,42.23,98798.0,1.1738837
12936482,212.6301,42.23,98797.0,1.1738718
12958500,212.6301,42.23,98797.0,1.1738718
12969470,212.28923,42.23,98800.99,1.1739192
12980493,212.12013,42.23,98803.0,1.173943
13002470,211.94838,42.239998,98805.0,1.1739669
13013469,212.71465,42.239998,98796.0,1.17386
13024696,212.03293,42.239998,98804.0,1.173955
13048387,212.20468,42.23,98801.99,1.1739311
13058480,212.03293,42.23,98804.0,1.173955
13069911,212.28923,42.23,98800.99,1.1739192
13091944,211.77927,42.23,98807.0,1.1739906
13102469,212.3738,42.23,98800.0,1.1739074
13112620,212.5429,42.23,98798.0,1.1738837
13134531,212.20468,42.23,98801.99,1.1739311
13145536,211.61015,42.23,98809.0,1.1740143
13156528,212.79921,42.23,98794.99,1.1738479
13177484,212.45834,42.23,98799.0,1.1738956
13187690,212.6301,42.23,98797.0,1.1738718
13198468,212.5429,42.23,98798.0,1.1738837
13220470,212.45834,42.23,98799.0,1.1738956
13231863,211.77927,42.23,98807.0,1.1739906
13242470,212.28923,42.23,98800.99,1.1739192
13264347,212.3738,42.23,98800.0,1.1739074
13274514,212.71465,42.23,98796.0,1.17386
13285474,211.61015,42.23,98809.0,1.1740143
13306483,212.79921,42.23,98794.99,1.1738479
13317500,212.71465,42.23,98796.0,1.17386
13328465,212.45834,42.23,98799.0,1.1738956
13350492,212.6301,42.23,98797.0,1.1738718
13361332,212.5429,42.23,98798.0,1.1738837
13371768,212.6301,42.23,98797.0,1.1738718
13391965,212.12013,42.23,98803.0,1.173943
13402526,211.94838,42.23,98805.0,1.1739669
13413936,212.45834,42.23,98799.0,1.1738956
13436002,212.12013,42.239998,98803.0,1.173943
13446481,212.20468,42.239998,98801.99,1.1739311
13457911,212.03293,42.239998,98804.0,1.173955
13480409,212.20468,42.23,98801.99,1.1739311
13490473,212.6301,42.23,98797.0,1.1738718
13501927,212.6301,42.23,98797.0,1.1738718
13522480,212.45834,42.23,98799.0,1.1738956
13533474,211.86382,42.23,98806.0,1.1739787
13544469,212.28923,42.23,98800.99,1.1739192
13566470,212.45834,42.23,98799.0,1.1738956
13577469,212.20468,42.23,98801.99,1.1739311
13587640,212.12013,42.23,98803.0,1.173943
13609500,212.71465,42.239998,98796.0,1.17386
13620479,212.79921,42.239998,98794.99,1.1738479
13632763,212.3738,42.239998,98800.0,1.1739074
13653584,212.88376,42.23,98794.0,1.1738361
13663929,212.6301,42.23,98797.0,1.1738718
13674551,212.28923,42.23,98800.99,1.1739192
13695924,212.12013,42.239998,98803.0,1.173943
13707670,212.3738,42.239998,98800.0,1.1739074
13718469,212.71465,42.239998,98796.0,1.17386
13740479,212.45834,42.23,98799.0,1.1738956
13752445,212.3738,42.23,98800.0,1.1739074
13763905,211.77927,42.23,98807.0,1.1739906
13786481,212.20468,42.23,98801.99,1.1739311
13797947,211.94838,42.23,98805.0,1.1739669
13808522,212.45834,42.23,98799.0,1.1738956
13830469,212.3738,42.23,98800.0,1.1739074
13841904,212.5429,42.23,98798.0,1.1738837
13852465,212.71465,42.23,98796.0,1.17386
13875627,212.03293,42.23,98804.0,1.173955
13887929,211.86382,42.23,98806.0,1.1739787
13898507,211.86382,42.23,98806.0,1.1739787
13919934,211.94838,42.23,98805.0,1.1739669
13931717,212.5429,42.23,98798.0,1.1738837
13942474,212.5429,42.23,98798.0,1.1738837
13964479,212.3738,42.23,98800.0,1.1739074
13976558,212.3738,42.23,98800.0,1.1739074
13986464,212.6301,42.23,98797.0,1.1738718
14007986,212.20468,42.23,98801.99,1.1739311
14018481,211.94838,42.23,98805.0,1.1739669
14029491,212.45834,42.23,98799.0,1.1738956
14050518,211.86382,42.23,98806.0,1.1739787
14061470,212.6301,42.23,98797.0,1.1738718
14072509,212.45834,42.23,98799.0,1.1738956
14093509,212.28923,42.23,98800.99,1.1739192
14104608,212.12013,42.23,98803.0,1.173943
14115719,212.5429,42.23,98798.0,1.1738837
14137880,212.03293,42.23,98804.0,1.173955
14148483,212.12013,42.23,98803.0,1.173943
14158480,212.03293,42.23,98804.0,1.173955
14179729,212.28923,42.23,98800.99,1.1739192
14190518,212.88376,42.23,98794.0,1.1738361
14201465,213.30917,42.23,98788.99,1.1737766
14222482,212.28923,42.23,98800.99,1.1739192
14233469,212.28923,42.23,98800.99,1.1739192
14244465,212.28923,42.23,98800.99,1.1739192
14266470,212.28923,42.23,98800.99,1.1739192
14277469,212.5429,42.23,98798.0,1.1738837
14288566,212.28923,42.23,98800.99,1.1739192
14310512,211.86382,42.23,98806.0,1.1739787
14321479,212.3738,42.23,98800.0,1.1739074
14331910,212.71465,42.23,98796.0,1.17386
14353469,212.28923,42.23,98800.99,1.1739192
14364471,212.20468,42.23,98801.99,1.1739311
14376029,212.79921,42.23,98794.99,1.1738479
14397480,212.12013,42.23,98803.0,1.173943
14408525,212.3738,42.23,98800.0,1.1739074
14419662,212.03293,42.23,98804.0,1.173955
14441511,211.86382,42.23,98806.0,1.1739787
14452470,212.71465,42.23,98796.0,1.17386
14462477,212.5429,42.23,98798.0,1.1738837
14484476,212.03293,42.23,98804.0,1.173955
14496017,212.28923,42.23,98800.99,1.1739192
14506475,212.71465,42.23,98796.0,1.17386
14528492,212.03293,42.23,98804.0,1.173955
14539994,211.86382,42.23,98806.0,1.1739787
14550476,212.28923,42.23,98800.99,1.1739192
14572481,212.03293,42.23,98804.0,1.173955
14584577,212.45834,42.23,98799.0,1.1738956
14595666,212.3738,42.23,98800.0,1.1739074
14618569,211.86382,42.23,98806.0,1.1739787
14629917,212.28923,42.23,98800.99,1.1739192
14639966,212.5429,42.23,98798.0,1.1738837
14662481,212.5429,42.23,98798.0,1.1738837
14673963,212.45834,42.23,98799.0,1.1738956
14684464,211.94838,42.23,98805.0,1.1739669
14706480,212.12013,42.23,98803.0,1.173943
14717978,212.12013,42.23,98803.0,1.173943
14728464,212.20468,42.23,98801.99,1.1739311
14750474,212.03293,42.23,98804.0,1.173955
14761962,212.12013,42.23,98803.0,1.173943
14772465,212.71465,42.23,98796.0,1.17386
14795734,212.3738,42.23,98800.0,1.1739074
14808109,212.45834,42.23,98799.0,1.1738956
14818477,212.03293,42.23,98804.0,1.173955
14840494,212.3738,42.23,98800.0,1.1739074
14852038,212.28923,42.23,98800.99,1.1739192
14862513,211.77927,42.23,98807.0,1.1739906
14883826,212.45834,42.23,98799.0,1.1738956
14896100,212.45834,42.23,98799.0,1.1738956
14906464,212.6301,42.23,98797.0,1.1738718
14928480,211.77927,42.23,98807.0,1.1739906
14940011,211.5256,42.23,98810.0,1.1740263
14950476,212.03293,42.23,98804.0,1.173955
14971745,212.45834,42.23,98799.0,1.1738956
14982470,212.28923,42.23,98800.99,1.1739192
14993485,212.79921,42.23,98794.99,1.1738479
15016514,212.20468,42.23,98801.99,1.1739311
15026512,212.12013,42.23,98803.0,1.173943
15037480,212.79921,42.23,98794.99,1.1738479
15058544,212.3738,42.23,98800.0,1.1739074
15069480,212.71465,42.23,98796.0,1.17386
15080511,212.3738,42.23,98800.0,1.1739074
15102470,212.03293,42.23,98804.0,1.173955
15113469,212.20468,42.23,98801.99,1.1739311
15124470,212.28923,42.23,98800.99,1.1739192
15146500,212.03293,42.23,98804.0,1.173955
15157478,212.03293,42.23,98804.0,1.173955
15168465,211.94838,42.23,98805.0,1.1739669
15190524,211.69472,42.23,98807.99,1.1740024
15201470,212.20468,42.23,98801.99,1.1739311
15212473,212.5429,42.23,98798.0,1.1738837
15232487,212.28923,42.23,98800.99,1.1739192
15243779,212.12013,42.23,98803.0,1.173943
15255981,212.3738,42.23,98800.0,1.1739074
15277942,212.28923,42.23,98800.99,1.1739192
15288470,212.79921,42.23,98794.99,1.1738479
15299991,211.94838,42.23,98805.0,1.1739669
15321917,212.5429,42.23,98798.0,1.1738837
15332530,212.45834,42.23,98799.0,1.1738956
15344378,212.12013,42.23,98803.0,1.173943
15365932,212.45834,42.23,98799.0,1.1738956
15375981,212.71465,42.23,98796.0,1.17386
15387774,212.3738,42.23,98800.0,1.1739074
15409915,212.03293,42.23,98804.0,1.173955
15420469,212.28923,42.23,98800.99,1.1739192
15432458,212.45834,42.23,98799.0,1.1738956
15453470,212.03293,42.23,98804.0,1.173955
15464480,212.20468,42.23,98801.99,1.1739311
15475755,212.45834,42.23,98799.0,1.1738956
15496602,212.45834,42.23,98799.0,1.1738956
15507676,212.3738,42.23,98800.0,1.1739074
15520098,212.3738,42.23,98800.0,1.1739074
15541959,212.3738,42.23,98800.0,1.1739074
15552470,212.3738,42.23,98800.0,1.1739074
15563977,212.45834,42.23,98799.0,1.1738956
15585948,212.3738,42.23,98800.0,1.1739074
15596470,212.45834,42.23,98799.0,1.1738956
15608398,212.71465,42.23,98796.0,1.17386
15631969,212.28923,42.23,98800.99,1.1739192
15642490,212.12013,42.23,98803.0,1.173943
15653771,212.20468,42.23,98801.99,1.1739311
15676046,212.79921,42.23,98794.99,1.1738479
15686436,212.28923,42.23,98800.99,1.1739192
15697748,212.9683,42.23,98793.0,1.1738243
15720535,212.5429,42.219997,98798.0,1.1738837
15731729,212.6301,42.219997,98797.0,1.1738718
15744001,212.03293,42.219997,98804.0,1.173955
15765899,212.28923,42.219997,98800.99,1.1739192
15776450,212.6301,42.219997,98797.0,1.1738718
15787691,212.6301,42.219997,98797.0,1.1738718
15809766,211.61015,42.23,98809.0,1.1740143
15820436,212.5429,42.23,98798.0,1.1738837
15832166,212.20468,42.23,98801.99,1.1739311
15853799,212.20468,42.23,98801.99,1.1739311
15864735,212.12013,42.23,98803.0,1.173943
15876829,212.20468,42.23,98801.99,1.1739311
15899913,212.6301,42.23,98797.0,1.1738718
15909469,212.5429,42.23,98798.0,1.1738837
15919633,212.6301,42.23,98797.0,1.1738718
15940467,212.20468,42.23,98801.99,1.1739311
15951576,212.28923,42.23,98800.99,1.1739192
15962479,212.45834,42.23,98799.0,1.1738956
15984460,212.45834,42.23,98799.0,1.1738956
15995535,212.12013,42.23,98803.0,1.173943
16006446,212.45834,42.23,98799.0,1.1738956
16029380,212.5429,42.23,98798.0,1.1738837
16039666,212.12013,42.23,98803.0,1.173943
16050436,212.28923,42.23,98800.99,1.1739192
16072436,212.71465,42.23,98796.0,1.17386
16083932,211.77927,42.23,98807.0,1.1739906
16094488,212.3738,42.23,98800.0,1.1739074
16116450,212.5429,42.23,98798.0,1.1738837
16127706,212.12013,42.23,98803.0,1.173943
16137467,212.79921,42.23,98794.99,1.1738479
16159693,212.28923,42.23,98800.99,1.1739192
16170436,212.20468,42.23,98801.99,1.1739311
16181436,212.28923,42.23,98800.99,1.1739192
16202436,212.03293,42.23,98804.0,1.173955
16213793,212.6301,42.23,98797.0,1.1738718
16223800,212.12013,42.23,98803.0,1.173943
16245435,212.20468,42.23,98801.99,1.1739311
16256436,212.20468,42.23,98801.99,1.1739311
16267886,212.28923,42.23,98800.99,1.1739192
16289447,212.6301,42.239998,98797.0,1.1738718
16300130,212.12013,42.239998,98803.0,1.173943
16310490,212.45834,42.239998,98799.0,1.1738956
16332442,212.28923,42.239998,98800.99,1.1739192
16343768,212.71465,42.239998,98796.0,1.17386
16354446,212.71465,42.239998,98796.0,1.17386
16375689,212.03293,42.23,98804.0,1.173955
16386450,211.94838,42.23,98805.0,1.1739669
16397448,212.28923,42.23,98800.99,1.1739192
16419829,212.28923,42.23,98800.99,1.1739192
16430441,212.45834,42.23,98799.0,1.1738956
16441436,212.9683,42.23,98793.0,1.1738243
16463782,212.03293,42.23,98804.0,1.173955
16473436,212.20468,42.23,98801.99,1.1739311
16484483,212.20468,42.23,98801.99,1.1739311
16505503,211.61015,42.23,98809.0,1.1740143
16516448,212.20468,42.23,98801.99,1.1739311
16527610,212.03293,42.23,98804.0,1.173955
16548790,211.94838,42.23,98805.0,1.1739669
16559682,212.3738,42.23,98800.0,1.1739074
16572390,212.71465,42.23,98796.0,1.17386
16591736,212.5429,42.23,98798.0,1.1738837
16601436,212.45834,42.23,98799.0,1.1738956
16612727,212.6301,42.23,98797.0,1.1738718
16634475,212.5429,42.23,98798.0,1.1738837
16645436,212.3738,42.23,98800.0,1.1739074
16656436,212.5429,42.23,98798.0,1.1738837
16678436,212.28923,42.23,98800.99,1.1739192
16689464,212.28923,42.23,98800.99,1.1739192
16700440,212.28923,42.23,98800.99,1.1739192
16722436,212.28923,42.23,98800.99,1.1739192
16732491,212.5429,42.23,98798.0,1.1738837
16743612,212.71465,42.23,98796.0,1.17386
16765436,212.3738,42.23,98800.0,1.1739074
16776436,212.45834,42.23,98799.0,1.1738956
16788129,211.94838,42.23,98805.0,1.1739669
16808471,212.3738,42.23,98800.0,1.1739074
16818445,212.3738,42.23,98800.0,1.1739074
16829448,212.6301,42.23,98797.0,1.1738718
16851522,212.03293,42.239998,98804.0,1.173955
16862467,212.45834,42.239998,98799.0,1.1738956
16873280,212.12013,42.239998,98803.0,1.173943
16893675,212.20468,42.239998,98801.99,1.1739311
16905243,212.71465,42.239998,98796.0,1.17386
16915583,212.20468,42.239998,98801.99,1.1739311
16937478,211.69472,42.23,98807.99,1.1740024
16949935,212.12013,42.23,98803.0,1.173943
16961258,212.5429,42.23,98798.0,1.1738837
16982436,212.3738,42.23,98800.0,1.1739074
16993232,211.69472,42.23,98807.99,1.1740024
17003859,212.6301,42.23,98797.0,1.1738718
17025246,212.3738,42.23,98800.0,1.1739074
17035633,212.3738,42.23,98800.0,1.1739074
17045533,212.20468,42.23,98801.99,1.1739311
17067553,212.28923,42.239998,98800.99,1.1739192
17078436,212.3738,42.239998,98800.0,1.1739074
17089261,212.3738,42.239998,98800.0,1.1739074
17110501,212.12013,42.23,98803.0,1.173943
17122342,211.94838,42.23,98805.0,1.1739669
17132436,212.3738,42.23,98800.0,1.1739074
17154447,212.03293,42.239998,98804.0,1.173955
17164447,212.20468,42.239998,98801.99,1.1739311
17174469,212.12013,42.239998,98803.0,1.173943
17195535,212.3738,42.239998,98800.0,1.1739074
17207164,211.86382,42.239998,98806.0,1.1739787
17218024,212.71465,42.239998,98796.0,1.17386
17238435,212.12013,42.239998,98803.0,1.173943
17250009,212.45834,42.239998,98799.0,1.1738956
17260747,212.12013,42.239998,98803.0,1.173943
17282044,211.43842,42.239998,98811.0,1.1740382
17291586,211.86382,42.239998,98806.0,1.1739787
17302436,212.45834,42.239998,98799.0,1.1738956
17324438,212.28923,42.23,98800.99,1.1739192
17335853,212.03293,42.23,98804.0,1.173955
17346458,212.45834,42.23,98799.0,1.1738956
17368467,212.20468,42.239998,98801.99,1.1739311
17379655,212.5429,42.239998,98798.0,1.1738837
17390436,212.03293,42.239998,98804.0,1.173955
17412440,212.3738,42.239998,98800.0,1.1739074
17422436,212.12013,42.239998,98803.0,1.173943
17433445,211.94838,42.239998,98805.0,1.1739669
17455972,212.20468,42.23,98801.99,1.1739311
17466442,212.12013,42.23,98803.0,1.173943
17476436,211.94838,42.23,98805.0,1.1739669
17498490,212.12013,42.239998,98803.0,1.173943
17509761,212.5429,42.239998,98798.0,1.1738837
17519954,212.3738,42.239998,98800.0,1.1739074
17542446,212.28923,42.23,98800.99,1.1739192
17553774,212.45834,42.23,98799.0,1.1738956
17563814,212.20468,42.23,98801.99,1.1739311
17586447,212.5429,42.23,98798.0,1.1738837
17597929,212.28923,42.23,98800.99,1.1739192
17608446,212.12013,42.23,98803.0,1.173943
17630445,211.94838,42.239998,98805.0,1.1739669
17641947,212.03293,42.239998,98804.0,1.173955
17651686,211.5256,42.239998,98810.0,1.1740263
17674439,212.5429,42.23,98798.0,1.1738837
17685762,212.71465,42.23,98796.0,1.17386
17696447,212.6301,42.23,98797.0,1.1738718
17718439,212.45834,42.239998,98799.0,1.1738956
17729789,212.5429,42.239998,98798.0,1.1738837
17740436,212.3738,42.239998,98800.0,1.1739074
17762436,212.45834,42.23,98799.0,1.1738956
17773795,212.9683,42.23,98793.0,1.1738243
17784479,212.3738,42.23,98800.0,1.1739074
17806447,211.94838,42.239998,98805.0,1.1739669
17817761,212.12013,42.239998,98803.0,1.173943
17828437,211.61015,42.239998,98809.0,1.1740143
17851774,212.28923,42.23,98800.99,1.1739192
17864358,212.71465,42.23,98796.0,1.17386
17873518,212.3738,42.23,98800.0,1.1739074
17894492,212.3738,42.23,98800.0,1.1739074
17905762,212.12013,42.23,98803.0,1.173943
17916436,212.3738,42.23,98800.0,1.1739074
17939792,212.6301,42.23,98797.0,1.1738718
17949946,212.3738,42.23,98800.0,1.1739074
17960172,212.79921,42.23,98794.99,1.1738479
17981459,212.12013,42.239998,98803.0,1.173943
17992435,212.5429,42.239998,98798.0,1.1738837
18003836,212.6301,42.239998,98797.0,1.1738718
18025436,212.12013,42.239998,98803.0,1.173943
18036448,212.3738,42.239998,98800.0,1.1739074
18049282,212.28923,42.239998,98800.99,1.1739192
18069447,212.03293,42.23,98804.0,1.173955
18080439,212.12013,42.23,98803.0,1.173943
18091725,212.28923,42.23,98800.99,1.1739192
18112480,212.28923,42.239998,98800.99,1.1739192
18123632,212.12013,42.239998,98803.0,1.173943
18134464,212.79921,42.239998,98794.99,1.1738479
18156382,212.79921,42.23,98794.99,1.1738479
18166463,212.3738,42.23,98800.0,1.1739074
18177439,212.12013,42.23,98803.0,1.173943
18200632,212.6301,42.23,98797.0,1.1738718
18212448,213.05287,42.23,98792.0,1.1738124
18224781,212.6301,42.23,98797.0,1.1738718
18246436,212.45834,42.23,98799.0,1.1738956
18256585,212.6301,42.23,98797.0,1.1738718
18267526,212.28923,42.23,98800.99,1.1739192
18289562,212.20468,42.23,98801.99,1.1739311
18301279,212.45834,42.23,98799.0,1.1738956
18310436,212.5429,42.23,98798.0,1.1738837
18333234,212.9683,42.23,98793.0,1.1738243
18343554,211.69472,42.23,98807.99,1.1740024
18353457,212.12013,42.23,98803.0,1.173943
18375622,212.20468,42.239998,98801.99,1.1739311
18386447,211.86382,42.239998,98806.0,1.1739787
18396447,212.3738,42.239998,98800.0,1.1739074
18417961,212.28923,42.239998,98800.99,1.1739192
18428448,212.20468,42.239998,98801.99,1.1739311
18439981,212.45834,42.239998,98799.0,1.1738956
18461747,212.28923,42.23,98800.99,1.1739192
18472436,212.45834,42.23,98799.0,1.1738956
18484538,212.79921,42.23,98794.99,1.1738479
18505761,212.5429,42.239998,98798.0,1.1738837
18516448,212.03293,42.239998,98804.0,1.173955
18527995,212.03293,42.239998,98804.0,1.173955
18548486,212.3738,42.239998,98800.0,1.1739074
18559756,212.6301,42.239998,98797.0,1.1738718
18570445,212.5429,42.239998,98798.0,1.1738837
18592436,211.69472,42.239998,98807.99,1.1740024
18603948,212.12013,42.239998,98803.0,1.173943
18614439,212.20468,42.239998,98801.99,1.1739311
18636447,212.20468,42.239998,98801.99,1.1739311
18647592,212.5429,42.239998,98798.0,1.1738837
18658447,212.3738,42.239998,98800.0,1.1739074
18680436,212.3738,42.239998,98800.0,1.1739074
18691937,211.69472,42.239998,98807.99,1.1740024
18701471,211.69472,42.239998,98807.99,1.1740024
18724400,212.3738,42.239998,98800.0,1.1739074
18735556,212.5429,42.239998,98798.0,1.1738837
18746436,212.20468,42.239998,98801.99,1.1739311
18769186,211.77927,42.23,98807.0,1.1739906
18779583,212.45834,42.23,98799.0,1.1738956
18789433,212.88376,42.23,98794.0,1.1738361
18811580,212.45834,42.23,98799.0,1.1738956
18822446,212.3738,42.23,98800.0,1.1739074
18833310,212.20468,42.23,98801.99,1.1739311
18855052,212.28923,42.23,98800.99,1.1739192
18865759,212.6301,42.23,98797.0,1.1738718
18876436,212.71465,42.23,98796.0,1.17386
18898873,212.28923,42.239998,98800.99,1.1739192
18909747,211.94838,42.239998,98805.0,1.1739669
18920479,212.28923,42.239998,98800.99,1.1739192
18942441,212.28923,42.239998,98800.99,1.1739192
18953783,212.20468,42.239998,98801.99,1.1739311
18964467,212.28923,42.239998,98800.99,1.1739192
18987648,212.6301,42.23,98797.0,1.1738718
19000418,212.6301,42.23,98797.0,1.1738718
19011713,212.20468,42.23,98801.99,1.1739311
19033436,211.94838,42.23,98805.0,1.1739669
19043792,211.94838,42.23,98805.0,1.1739669
19054447,212.12013,42.23,98803.0,1.173943
19076442,212.3738,42.239998,98800.0,1.1739074
19088597,212.3738,42.239998,98800.0,1.1739074
19099628,212.45834,42.239998,98799.0,1.1738956
19121645,212.12013,42.23,98803.0,1.173943
19132465,212.20468,42.23,98801.99,1.1739311
19144695,212.5429,42.23,98798.0,1.1738837
19168691,212.45834,42.23,98799.0,1.1738956
19180416,212.20468,42.23,98801.99,1.1739311
19190436,212.20468,42.23,98801.99,1.1739311
19212429,212.20468,42.239998,98801.99,1.1739311
19224702,212.79921,42.239998,98794.99,1.1738479
19236460,212.3738,42.239998,98800.0,1.1739074
19260470,212.6301,42.23,98797.0,1.1738718
19272670,212.12013,42.23,98803.0,1.173943
19284537,212.28923,42.23,98800.99,1.1739192
19305485,212.12013,42.23,98803.0,1.173943
19316452,212.28923,42.23,98800.99,1.1739192
19328668,212.20468,42.23,98801.99,1.1739311
19352695,212.12013,42.239998,98803.0,1.173943
19364671,212.03293,42.239998,98804.0,1.173955
19376647,212.45834,42.239998,98799.0,1.1738956
19398439,212.5429,42.23,98798.0,1.1738837
19408877,212.3738,42.23,98800.0,1.1739074
19420407,212.6301,42.23,98797.0,1.1738718
19442453,212.9683,42.23,98793.0,1.1738243
19453492,212.28923,42.23,98800.99,1.1739192
19463901,212.71465,42.23,98796.0,1.17386
19483536,212.03293,42.23,98804.0,1.173955
19494497,212.20468,42.23,98801.99,1.1739311
19505459,212.71465,42.23,98796.0,1.17386
19527546,212.28923,42.23,98800.99,1.1739192
19538440,212.03293,42.23,98804.0,1.173955
19549190,212.28923,42.23,98800.99,1.1739192
19569644,212.5429,42.23,98798.0,1.1738837
19581280,212.20468,42.23,98801.99,1.1739311
19591511,212.12013,42.23,98803.0,1.173943
19613439,212.28923,42.239998,98800.99,1.1739192
19624436,212.5429,42.239998,98798.0,1.1738837
19635545,211.94838,42.239998,98805.0,1.1739669
19656436,212.3738,42.239998,98800.0,1.1739074
19667317,212.3738,42.239998,98800.0,1.1739074
19676488,211.94838,42.239998,98805.0,1.1739669
19697454,212.12013,42.239998,98803.0,1.173943
19708448,212.20468,42.239998,98801.99,1.1739311
19719532,212.3738,42.239998,98800.0,1.1739074
19742925,212.3738,42.239998,98800.0,1.1739074
19753448,212.71465,42.239998,98796.0,1.17386
19763634,212.20468,42.239998,98801.99,1.1739311
19785447,212.28923,42.239998,98800.99,1.1739192
19795521,212.20468,42.239998,98801.99,1.1739311
19806832,212.12013,42.239998,98803.0,1.173943
19828448,211.94838,42.239998,98805.0,1.1739669
19839533,211.77927,42.239998,98807.0,1.1739906
19851100,211.5256,42.239998,98810.0,1.1740263
19872435,212.5429,42.239998,98798.0,1.1738837
19883512,212.3738,42.239998,98800.0,1.1739074
19894853,212.45834,42.239998,98799.0,1.1738956
19916446,212.03293,42.239998,98804.0,1.173955
19927589,212.45834,42.239998,98799.0,1.1738956
19939016,211.86382,42.239998,98806.0,1.1739787
19958836,212.03293,42.239998,98804.0,1.173955
19969491,212.5429,42.239998,98798.0,1.1738837
19980451,212.45834,42.239998,98799.0,1.1738956
20001447,212.28923,42.239998,98800.99,1.1739192
20012436,212.20468,42.239998,98801.99,1.1739311
20022818,212.12013,42.239998,98803.0,1.173943
20044446,211.94838,42.239998,98805.0,1.1739669
20055552,212.71465,42.239998,98796.0,1.17386
20067265,212.45834,42.239998,98799.0,1.1738956
20089446,211.94838,42.239998,98805.0,1.1739669
20100796,212.3738,42.239998,98800.0,1.1739074
20111584,212.71465,42.239998,98796.0,1.17386
20134944,212.3738,42.239998,98800.0,1.1739074
20145778,212.3738,42.239998,98800.0,1.1739074
20155547,212.3738,42.239998,98800.0,1.1739074
20176536,212.28923,42.239998,98800.99,1.1739192
20187544,211.94838,42.239998,98805.0,1.1739669
20198887,212.3738,42.239998,98800.0,1.1739074
20220445,212.20468,42.239998,98801.99,1.1739311
20231596,212.45834,42.239998,98799.0,1.1738956
20243119,212.71465,42.239998,98796.0,1.17386
20263547,212.6301,42.239998,98797.0,1.1738718
20275325,212.03293,42.239998,98804.0,1.173955
20285435,212.45834,42.239998,98799.0,1.1738956
20307586,211.94838,42.25,98805.0,1.1739669
20318879,211.86382,42.25,98806.0,1.1739787
20328790,212.12013,42.25,98803.0,1.173943
20351180,212.12013,42.239998,98803.0,1.173943
20361478,212.6301,42.239998,98797.0,1.1738718
20372751,212.5429,42.239998,98798.0,1.1738837
20395354,212.45834,42.239998,98799.0,1.1738956
20406852,212.79921,42.239998,98794.99,1.1738479
20418090,212.28923,42.239998,98800.99,1.1739192
20438785,212.12013,42.239998,98803.0,1.173943
20448439,212.12013,42.239998,98803.0,1.173943
20459539,212.45834,42.239998,98799.0,1.1738956
20481448,212.03293,42.239998,98804.0,1.173955
20492448,211.86382,42.239998,98806.0,1.1739787
20503533,212.20468,42.239998,98801.99,1.1739311
20525487,212.5429,42.239998,98798.0,1.1738837
20536439,212.28923,42.239998,98800.99,1.1739192
20547540,212.71465,42.239998,98796.0,1.17386
20568435,212.03293,42.239998,98804.0,1.173955
20579584,212.03293,42.239998,98804.0,1.173955
20590941,212.12013,42.239998,98803.0,1.173943
20612446,212.28923,42.239998,98800.99,1.1739192
20623623,212.5429,42.239998,98798.0,1.1738837
20635164,212.45834,42.239998,98799.0,1.1738956
20656436,212.45834,42.239998,98799.0,1.1738956
20667597,212.45834,42.239998,98799.0,1.1738956
20678817,212.71465,42.239998,98796.0,1.17386
20699543,212.71465,42.239998,98796.0,1.17386
20710942,212.3738,42.239998,98800.0,1.1739074
20721442,212.71465,42.239998,98796.0,1.17386
20742901,212.12013,42.25,98803.0,1.173943
20753776,212.12013,42.25,98803.0,1.173943
20764448,212.45834,42.25,98799.0,1.1738956
20784449,212.45834,42.239998,98799.0,1.1738956
20795747,212.12013,42.239998,98803.0,1.173943
20806823,212.12013,42.239998,98803.0,1.173943
20828449,212.28923,42.239998,98800.99,1.1739192
20839613,212.6301,42.239998,98797.0,1.1738718
20851722,212.03293,42.239998,98804.0,1.173955
20873449,211.94838,42.239998,98805.0,1.1739669
20883557,211.86382,42.239998,98806.0,1.1739787
20894858,212.20468,42.239998,98801.99,1.1739311
20915602,212.20468,42.239998,98801.99,1.1739311
20926981,212.12013,42.239998,98803.0,1.173943
20937436,211.94838,42.239998,98805.0,1.1739669
20959628,212.71465,42.239998,98796.0,1.17386
20971353,212.28923,42.239998,98800.99,1.1739192
20982821,212.28923,42.239998,98800.99,1.1739192
21004475,212.28923,42.239998,98800.99,1.1739192
21015555,211.94838,42.239998,98805.0,1.1739669
21027059,212.03293,42.239998,98804.0,1.173955
21048436,212.12013,42.239998,98803.0,1.173943
21059582,212.03293,42.239998,98804.0,1.173955
21072334,212.3738,42.239998,98800.0,1.1739074
21094922,212.3738,42.239998,98800.0,1.1739074
21105448,212.12013,42.239998,98803.0,1.173943
21116448,211.94838,42.239998,98805.0,1.1739669
21139157,212.28923,42.239998,98800.99,1.1739192
21149436,212.20468,42.239998,98801.99,1.1739311
21160436,212.5429,42.239998,98798.0,1.1738837
21182939,212.03293,42.239998,98804.0,1.173955
21193436,212.88376,42.239998,98794.0,1.1738361
21204439,212.3738,42.239998,98800.0,1.1739074
21227069,212.20468,42.239998,98801.99,1.1739311
21237447,212.6301,42.239998,98797.0,1.1738718
21248447,212.20468,42.239998,98801.99,1.1739311
21269761,212.5429,42.239998,98798.0,1.1738837
21280453,212.71465,42.239998,98796.0,1.17386
21291824,211.86382,42.239998,98806.0,1.1739787
21313775,212.28923,42.239998,98800.99,1.1739192
21324436,212.12013,42.239998,98803.0,1.173943
21334931,212.03293,42.239998,98804.0,1.173955
21355620,211.94838,42.239998,98805.0,1.1739669
21366848,212.5429,42.239998,98798.0,1.1738837
21377436,212.6301,42.239998,98797.0,1.1738718
21399519,211.94838,42.239998,98805.0,1.1739669
21411648,212.6301,42.239998,98797.0,1.1738718
21422821,212.12013,42.239998,98803.0,1.173943
21443661,212.5429,42.239998,98798.0,1.1738837
21453477,212.03293,42.239998,98804.0,1.173955
21464441,212.03293,42.239998,98804.0,1.173955
21486806,212.20468,42.239998,98801.99,1.1739311
21496762,212.5429,42.239998,98798.0,1.1738837
21507579,212.20468,42.239998,98801.99,1.1739311
21529492,212.45834,42.239998,98799.0,1.1738956
21540786,212.12013,42.239998,98803.0,1.173943
21550933,212.20468,42.239998,98801.99,1.1739311
21572435,212.20468,42.239998,98801.99,1.1739311
21583877,211.94838,42.239998,98805.0,1.1739669
21595075,211.86382,42.239998,98806.0,1.1739787
21616436,211.43842,42.25,98811.0,1.1740382
21627854,212.03293,42.25,98804.0,1.173955
21638778,212.3738,42.25,98800.0,1.1739074
21660436,212.03293,42.25,98804.0,1.173955
21671911,212.20468,42.25,98801.99,1.1739311
21683164,212.6301,42.25,98797.0,1.1738718
21705442,212.3738,42.239998,98800.0,1.1739074
21715599,212.28923,42.239998,98800.99,1.1739192
21725438,212.45834,42.239998,98799.0,1.1738956
21747562,212.28923,42.239998,98800.99,1.1739192
21758881,212.45834,42.239998,98799.0,1.1738956
21769436,212.28923,42.239998,98800.99,1.1739192
21790841,212.3738,42.239998,98800.0,1.1739074
21800436,212.45834,42.239998,98799.0,1.1738956
21811550,212.12013,42.239998,98803.0,1.173943
21833436,212.12013,42.25,98803.0,1.173943
21844436,212.45834,42.25,98799.0,1.1738956
21855555,212.5429,42.25,98798.0,1.1738837
21877478,211.94838,42.239998,98805.0,1.1739669
21888436,212.3738,42.239998,98800.0,1.1739074
21899578,212.20468,42.239998,98801.99,1.1739311
21921436,212.20468,42.239998,98801.99,1.1739311
21932441,212.3738,42.239998,98800.0,1.1739074
21943547,211.94838,42.239998,98805.0,1.1739669
21965458,212.20468,42.239998,98801.99,1.1739311
21976436,212.03293,42.239998,98804.0,1.173955
21987560,212.5429,42.239998,98798.0,1.1738837
22010118,212.12013,42.25,98803.0,1.173943
22020489,211.94838,42.25,98805.0,1.1739669
22031928,212.3738,42.25,98800.0,1.1739074
22053771,212.28923,42.25,98800.99,1.1739192
22064447,212.28923,42.25,98800.99,1.1739192
22075924,212.5429,42.25,98798.0,1.1738837
22097762,212.20468,42.239998,98801.99,1.1739311
22108487,211.86382,42.239998,98806.0,1.1739787
22119899,212.6301,42.239998,98797.0,1.1738718
22141764,212.3738,42.25,98800.0,1.1739074
22152435,211.94838,42.25,98805.0,1.1739669
22163986,212.3738,42.25,98800.0,1.1739074
22186166,212.45834,42.239998,98799.0,1.1738956
22195531,212.71465,42.239998,98796.0,1.17386
22206916,212.03293,42.239998,98804.0,1.173955
22227581,212.12013,42.239998,98803.0,1.173943
22238846,212.20468,42.239998,98801.99,1.1739311
22249436,212.20468,42.239998,98801.99,1.1739311
22271585,211.61015,42.239998,98809.0,1.1740143
22281476,212.3738,42.239998,98800.0,1.1739074
22292436,212.71465,42.239998,98796.0,1.17386
22313436,211.86382,42.25,98806.0,1.1739787
22324813,212.3738,42.25,98800.0,1.1739074
22335540,211.77927,42.25,98807.0,1.1739906
22357436,211.61015,42.25,98809.0,1.1740143
22368748,212.12013,42.25,98803.0,1.173943
22379561,212.28923,42.25,98800.99,1.1739192
22401440,212.03293,42.25,98804.0,1.173955
22412340,212.45834,42.25,98799.0,1.1738956
22422884,212.3738,42.25,98800.0,1.1739074
22444487,212.03293,42.25,98804.0,1.173955
22455562,212.20468,42.25,98801.99,1.1739311
22467076,212.79921,42.25,98794.99,1.1738479
22488436,212.28923,42.239998,98800.99,1.1739192
22499580,212.45834,42.239998,98799.0,1.1738956
22510883,212.71465,42.239998,98796.0,1.17386
22532452,212.03293,42.25,98804.0,1.173955
22543535,212.45834,42.25,98799.0,1.1738956
22555117,212.12013,42.25,98803.0,1.173943
22576467,212.03293,42.25,98804.0,1.173955
22587607,212.3738,42.25,98800.0,1.1739074
22598807,212.45834,42.25,98799.0,1.1738956
22619696,212.12013,42.25,98803.0,1.173943
22630923,212.5429,42.25,98798.0,1.1738837
22641447,212.28923,42.25,98800.99,1.1739192
22663511,212.28923,42.25,98800.99,1.1739192
22675344,212.28923,42.25,98800.99,1.1739192
22685443,211.77927,42.25,98807.0,1.1739906
22707511,211.94838,42.25,98805.0,1.1739669
22718867,212.28923,42.25,98800.99,1.1739192
22728436,212.5429,42.25,98798.0,1.1738837
22749436,211.77927,42.25,98807.0,1.1739906
22760436,212.3738,42.25,98800.0,1.1739074
22771530,211.69472,42.25,98807.99,1.1740024
22792790,212.12013,42.25,98803.0,1.173943
22803546,212.28923,42.25,98800.99,1.1739192
22815191,212.5429,42.25,98798.0,1.1738837
22836747,212.03293,42.25,98804.0,1.173955
22846907,212.28923,42.25,98800.99,1.1739192
22857766,212.45834,42.25,98799.0,1.1738956
22879839,212.03293,42.25,98804.0,1.173955
22891067,212.20468,42.25,98801.99,1.1739311
22901761,212.6301,42.25,98797.0,1.1738718
22923302,212.28923,42.239998,98800.99,1.1739192
22933463,212.71465,42.239998,98796.0,1.17386
22944436,212.45834,42.239998,98799.0,1.1738956
22966819,211.69472,42.25,98807.99,1.1740024
22977436,212.20468,42.25,98801.99,1.1739311
22988436,212.45834,42.25,98799.0,1.1738956
23011590,211.69472,42.25,98807.99,1.1740024
23022780,212.03293,42.25,98804.0,1.173955
23032479,211.77927,42.25,98807.0,1.1739906
23054834,212.6301,42.25,98797.0,1.1738718
23065436,212.03293,42.25,98804.0,1.173955
23076435,212.88376,42.25,98794.0,1.1738361
23097436,212.28923,42.25,98800.99,1.1739192
23108439,212.45834,42.25,98799.0,1.1738956
23118824,212.03293,42.25,98804.0,1.173955
23140436,212.03293,42.25,98804.0,1.173955
23151552,211.86382,42.25,98806.0,1.1739787
23161436,212.45834,42.25,98799.0,1.1738956
23183544,212.3738,42.25,98800.0,1.1739074
23195762,212.28923,42.25,98800.99,1.1739192
23206907,211.86382,42.25,98806.0,1.1739787
23228445,212.3738,42.25,98800.0,1.1739074
23239893,212.5429,42.25,98798.0,1.1738837
23251112,212.28923,42.25,98800.99,1.1739192
23272443,212.03293,42.25,98804.0,1.173955
23283894,211.94838,42.25,98805.0,1.1739669
23294859,212.12013,42.25,98803.0,1.173943
23315565,212.03293,42.239998,98804.0,1.173955
23326847,212.45834,42.239998,98799.0,1.1738956
23336446,211.94838,42.239998,98805.0,1.1739669
23358768,212.28923,42.25,98800.99,1.1739192
23369445,211.86382,42.25,98806.0,1.1739787
23380449,212.71465,42.25,98796.0,1.17386
23401479,212.5429,42.25,98798.0,1.1738837
23412436,212.3738,42.25,98800.0,1.1739074
23422907,212.03293,42.25,98804.0,1.173955
23443551,212.28923,42.25,98800.99,1.1739192
23454876,212.28923,42.25,98800.99,1.1739192
23466111,212.28923,42.25,98800.99,1.1739192
23487901,211.61015,42.25,98809.0,1.1740143
23499018,212.45834,42.25,98799.0,1.1738956
23509751,212.6301,42.25,98797.0,1.1738718
23532538,212.20468,42.25,98801.99,1.1739311
23543630,212.5429,42.25,98798.0,1.1738837
23553771,212.28923,42.25,98800.99,1.1739192
23574876,212.12013,42.25,98803.0,1.173943
23584463,212.88376,42.25,98794.0,1.1738361
23595542,212.71465,42.25,98796.0,1.17386
23617436,212.6301,42.26,98797.0,1.1738718
23628562,212.6301,42.26,98797.0,1.1738718
23639539,212.3738,42.26,98800.0,1.1739074
23661436,212.12013,42.25,98803.0,1.173943
23672436,212.03293,42.25,98804.0,1.173955
23683801,212.28923,42.25,98800.99,1.1739192
23705436,212.28923,42.25,98800.99,1.1739192
23715539,212.6301,42.25,98797.0,1.1738718
23726913,211.86382,42.25,98806.0,1.1739787
23748449,212.45834,42.25,98799.0,1.1738956
23759559,211.94838,42.25,98805.0,1.1739669
23771808,212.3738,42.25,98800.0,1.1739074
23792489,212.28923,42.25,98800.99,1.1739192
23803542,212.3738,42.25,98800.0,1.1739074
23813491,211.94838,42.25,98805.0,1.1739669
23833489,212.12013,42.25,98803.0,1.173943
23844465,212.3738,42.25,98800.0,1.1739074
23855548,212.20468,42.25,98801.99,1.1739311
23878900,212.20468,42.25,98801.99,1.1739311
23889488,212.12013,42.25,98803.0,1.173943
23900475,211.94838,42.25,98805.0,1.1739669
23923151,212.3738,42.25,98800.0,1.1739074
23933447,212.79921,42.25,98794.99,1.1738479
23944436,212.28923,42.25,98800.99,1.1739192
23966957,211.94838,42.25,98805.0,1.1739669
23976482,211.94838,42.25,98805.0,1.1739669
23987578,212.03293,42.25,98804.0,1.173955
24008436,211.86382,42.25,98806.0,1.1739787
24019540,212.5429,42.25,98798.0,1.1738837
24030915,212.45834,42.25,98799.0,1.1738956
24051583,211.77927,42.25,98807.0,1.1739906
24062988,212.6301,42.25,98797.0,1.1738718
24075157,212.79921,42.25,98794.99,1.1738479
24096388,212.6301,42.25,98797.0,1.1738718
24107151,211.94838,42.25,98805.0,1.1739669
24117447,212.45834,42.25,98799.0,1.1738956
24139514,211.77927,42.25,98807.0,1.1739906
24149447,212.28923,42.25,98800.99,1.1739192
24160482,211.77927,42.25,98807.0,1.1739906
24183011,212.3738,42.25,98800.0,1.1739074
24192445,211.94838,42.25,98805.0,1.1739669
24203571,211.94838,42.25,98805.0,1.1739669
24225490,212.28923,42.25,98800.99,1.1739192
24235606,211.77927,42.25,98807.0,1.1739906
24247024,211.86382,42.25,98806.0,1.1739787
24267530,212.6301,42.25,98797.0,1.1738718
24278880,212.5429,42.25,98798.0,1.1738837
24288500,212.6301,42.25,98797.0,1.1738718
24311087,212.28923,42.26,98800.99,1.1739192
24321450,211.86382,42.26,98806.0,1.1739787
24332450,212.71465,42.26,98796.0,1.17386
24353436,212.28923,42.26,98800.99,1.1739192
24364436,212.12013,42.26,98803.0,1.173943
24375533,212.71465,42.26,98796.0,1.17386
24396444,212.20468,42.26,98801.99,1.1739311
24406969,212.5429,42.26,98798.0,1.1738837
24417756,211.77927,42.26,98807.0,1.1739906
24438993,212.12013,42.25,98803.0,1.173943
24448445,212.3738,42.25,98800.0,1.1739074
24459662,212.6301,42.25,98797.0,1.1738718
24481436,212.12013,42.25,98803.0,1.173943
24492447,212.12013,42.25,98803.0,1.173943
24502876,211.94838,42.25,98805.0,1.1739669
24523552,211.86382,42.26,98806.0,1.1739787
24534888,212.20468,42.26,98801.99,1.1739311
24545448,212.88376,42.26,98794.0,1.1738361
24567548,211.94838,42.26,98805.0,1.1739669
24577479,212.3738,42.26,98800.0,1.1739074
24588457,212.3738,42.26,98800.0,1.1739074
24612616,212.6301,42.25,98797.0,1.1738718
24623549,212.3738,42.25,98800.0,1.1739074
24633447,212.5429,42.25,98798.0,1.1738837
24655592,212.28923,42.25,98800.99,1.1739192
24667567,211.77927,42.25,98807.0,1.1739906
24678902,212.5429,42.25,98798.0,1.1738837
24700436,212.28923,42.26,98800.99,1.1739192
24711869,212.3738,42.26,98800.0,1.1739074
24723556,211.5256,42.26,98810.0,1.1740263
24745436,212.3738,42.25,98800.0,1.1739074
24756790,212.12013,42.25,98803.0,1.173943
24766972,211.94838,42.25,98805.0,1.1739669
24788442,212.28923,42.25,98800.99,1.1739192
24798833,212.45834,42.25,98799.0,1.1738956
24809439,212.28923,42.25,98800.99,1.1739192
24831553,212.03293,42.25,98804.0,1.173955
24843571,212.03293,42.25,98804.0,1.173955
24854981,212.45834,42.25,98799.0,1.1738956
24875574,212.28923,42.25,98800.99,1.1739192
24886997,211.77927,42.25,98807.0,1.1739906
24897435,212.5429,42.25,98798.0,1.1738837
24918920,212.20468,42.25,98801.99,1.1739311
24929510,212.79921,42.25,98794.99,1.1738479
24939741,211.69472,42.25,98807.99,1.1740024
24961761,211.18475,42.26,98813.99,1.1740737
24971701,212.28923,42.26,98800.99,1.1739192
24983079,212.20468,42.26,98801.99,1.1739311
25004436,212.3738,42.25,98800.0,1.1739074
25015541,211.86382,42.25,98806.0,1.1739787
25025448,212.12013,42.25,98803.0,1.173943
25047134,212.28923,42.26,98800.99,1.1739192
25057747,211.86382,42.26,98806.0,1.1739787
25067967,211.94838,42.26,98805.0,1.1739669
25089441,212.20468,42.25,98801.99,1.1739311
25099536,212.20468,42.25,98801.99,1.1739311
25111067,212.3738,42.25,98800.0,1.1739074
25131598,212.20468,42.26,98801.99,1.1739311
25143114,211.86382,42.26,98806.0,1.1739787
25153436,212.3738,42.26,98800.0,1.1739074
25175553,212.20468,42.26,98801.99,1.1739311
25185446,212.5429,42.26,98798.0,1.1738837
25195737,212.20468,42.26,98801.99,1.1739311
25215813,212.12013,42.26,98803.0,1.173943
25225436,212.03293,42.26,98804.0,1.173955
25236442,212.03293,42.26,98804.0,1.173955
25261192,212.12013,42.25,98803.0,1.173943
25270436,212.28923,42.25,98800.99,1.1739192
25280589,212.45834,42.25,98799.0,1.1738956
25304662,212.20468,42.26,98801.99,1.1739311
25315537,212.5429,42.26,98798.0,1.1738837
25326911,212.5429,42.26,98798.0,1.1738837
25347606,212.12013,42.26,98803.0,1.173943
25358446,212.45834,42.26,98799.0,1.1738956
25368481,212.28923,42.26,98800.99,1.1739192
25391273,212.5429,42.26,98798.0,1.1738837
25401748,212.5429,42.26,98798.0,1.1738837
25411880,212.3738,42.26,98800.0,1.1739074
25433436,212.79921,42.26,98794.99,1.1738479
25444436,212.28923,42.26,98800.99,1.1739192
25455580,212.5429,42.26,98798.0,1.1738837
25477447,212.3738,42.26,98800.0,1.1739074
25488439,212.5429,42.26,98798.0,1.1738837
25499022,212.3738,42.26,98800.0,1.1739074
25520446,212.79921,42.26,98794.99,1.1738479
25530955,212.12013,42.26,98803.0,1.173943
25541760,212.3738,42.26,98800.0,1.1739074
25563172,212.9683,42.26,98793.0,1.1738243
25573436,211.94838,42.26,98805.0,1.1739669
25583559,212.45834,42.26,98799.0,1.1738956
25605436,212.03293,42.26,98804.0,1.173955
25616467,212.28923,42.26,98800.99,1.1739192
25627058,212.03293,42.26,98804.0,1.173955
25648053,212.45834,42.26,98799.0,1.1738956
25659012,211.69472,42.26,98807.99,1.1740024
25668436,212.88376,42.26,98794.0,1.1738361
25691028,211.69472,42.26,98807.99,1.1740024
25701493,212.20468,42.26,98801.99,1.1739311
25712443,212.3738,42.26,98800.0,1.1739074
25733439,212.12013,42.26,98803.0,1.173943
25743825,212.3738,42.26,98800.0,1.1739074
25753436,211.94838,42.26,98805.0,1.1739669
25775539,211.77927,42.26,98807.0,1.1739906
25785496,212.3738,42.26,98800.0,1.1739074
25796786,212.45834,42.26,98799.0,1.1738956
25819304,212.5429,42.26,98798.0,1.1738837
25829452,212.88376,42.26,98794.0,1.1738361
25839604,212.5429,42.26,98798.0,1.1738837
25860438,212.45834,42.26,98799.0,1.1738956
25870449,211.94838,42.26,98805.0,1.1739669
25881482,211.94838,42.26,98805.0,1.1739669
25902436,212.12013,42.26,98803.0,1.173943
25913436,212.45834,42.26,98799.0,1.1738956
25924436,212.45834,42.26,98799.0,1.1738956
25945436,211.86382,42.26,98806.0,1.1739787
25956435,212.20468,42.26,98801.99,1.1739311
25966436,211.77927,42.26,98807.0,1.1739906
25988436,212.12013,42.26,98803.0,1.173943
25999999,212.3738,42.26,98800.0,1.1739074
26010436,211.77927,42.26,98807.0,1.1739906
26032076,212.28923,42.26,98800.99,1.1739192
26042436,212.20468,42.26,98801.99,1.1739311
26053436,212.03293,42.26,98804.0,1.173955
26075754,212.12013,42.26,98803.0,1.173943
26086452,212.3738,42.26,98800.0,1.1739074
26097439,212.03293,42.26,98804.0,1.173955
26118439,212.45834,42.26,98799.0,1.1738956
26129258,211.86382,42.26,98806.0,1.1739787
26140621,212.6301,42.26,98797.0,1.1738718
26164654,211.86382,42.26,98806.0,1.1739787
26177265,212.5429,42.26,98798.0,1.1738837
26188668,212.12013,42.26,98803.0,1.173943
26211598,211.86382,42.26,98806.0,1.1739787
26222436,211.94838,42.26,98805.0,1.1739669
26233436,212.12013,42.26,98803.0,1.173943
26255821,212.5429,42.26,98798.0,1.1738837
26266435,212.20468,42.26,98801.99,1.1739311
26276911,212.12013,42.26,98803.0,1.173943
26300927,212.20468,42.26,98801.99,1.1739311
26312536,212.03293,42.26,98804.0,1.173955
26324889,212.5429,42.26,98798.0,1.1738837
26346447,212.45834,42.25,98799.0,1.1738956
26356452,212.5429,42.25,98798.0,1.1738837
26367111,212.3738,42.25,98800.0,1.1739074
26388764,212.3738,42.26,98800.0,1.1739074
26398815,212.5429,42.26,98798.0,1.1738837
26409443,212.6301,42.26,98797.0,1.1738718
26431648,212.12013,42.25,98803.0,1.173943
26442976,212.5429,42.25,98798.0,1.1738837
26453488,212.28923,42.25,98800.99,1.1739192
26475001,212.45834,42.26,98799.0,1.1738956
26485481,212.5429,42.26,98798.0,1.1738837
26496453,212.03293,42.26,98804.0,1.173955
26517439,212.45834,42.26,98799.0,1.1738956
26528436,212.20468,42.26,98801.99,1.1739311
26539808,212.45834,42.26,98799.0,1.1738956
26561454,212.20468,42.26,98801.99,1.1739311
26572436,212.20468,42.26,98801.99,1.1739311
26584117,212.28923,42.26,98800.99,1.1739192
26605436,212.20468,42.25,98801.99,1.1739311
26618846,212.45834,42.25,98799.0,1.1738956
26629538,212.5429,42.25,98798.0,1.1738837
26651610,212.12013,42.26,98803.0,1.173943
26662196,212.28923,42.26,98800.99,1.1739192
26671624,212.5429,42.26,98798.0,1.1738837
26694205,212.79921,42.26,98794.99,1.1738479
26704483,212.45834,42.26,98799.0,1.1738956
26715602,212.3738,42.26,98800.0,1.1739074
26737450,212.20468,42.26,98801.99,1.1739311
26748442,211.86382,42.26,98806.0,1.1739787
26759587,212.03293,42.26,98804.0,1.173955
26781436,212.20468,42.26,98801.99,1.1739311
26792481,212.71465,42.26,98796.0,1.17386
26802881,212.03293,42.26,98804.0,1.173955
26824966,212.03293,42.26,98804.0,1.173955
26836798,212.20468,42.26,98801.99,1.1739311
26849151,212.20468,42.26,98801.99,1.1739311
26872952,212.03293,42.25,98804.0,1.173955
26884877,211.94838,42.25,98805.0,1.1739669
26896969,212.12013,42.25,98803.0,1.173943
26920902,212.28923,42.25,98800.99,1.1739192
26933172,211.94838,42.25,98805.0,1.1739669
26945153,212.12013,42.25,98803.0,1.173943
26968939,212.20468,42.25,98801.99,1.1739311
26981467,212.12013,42.25,98803.0,1.173943
26992854,212.20468,42.25,98801.99,1.1739311
27016047,211.86382,42.25,98806.0,1.1739787
27026447,211.94838,42.25,98805.0,1.1739669
27036436,212.5429,42.25,98798.0,1.1738837
27058179,212.3738,42.26,98800.0,1.1739074
27068436,212.03293,42.26,98804.0,1.173955
27079556,212.12013,42.26,98803.0,1.173943
27100492,212.28923,42.25,98800.99,1.1739192
27111175,212.88376,42.25,98794.0,1.1738361
27123800,212.12013,42.25,98803.0,1.173943
27144481,211.94838,42.25,98805.0,1.1739669
27155872,212.71465,42.25,98796.0,1.17386
27166795,212.71465,42.25,98796.0,1.17386
27188535,212.20468,42.26,98801.99,1.1739311
27198786,211.69472,42.26,98807.99,1.1740024
27210243,212.45834,42.26,98799.0,1.1738956
27230458,211.86382,42.26,98806.0,1.1739787
27242213,212.28923,42.26,98800.99,1.1739192
27252439,212.6301,42.26,98797.0,1.1738718
27274332,212.20468,42.26,98801.99,1.1739311
27284437,212.71465,42.26,98796.0,1.17386
27295511,212.5429,42.26,98798.0,1.1738837
27316808,212.12013,42.26,98803.0,1.173943
27326842,212.12013,42.26,98803.0,1.173943
27338285,212.3738,42.26,98800.0,1.1739074
27359013,212.12013,42.26,98803.0,1.173943
