timestamp,time_utc_usec,lat,lon,alt,alt_ellipsoid,pos_itow,s_variance_m_s,c_variance_rad,fix_quality,sAcc,eph,epv,hdop,vdop,noise_per_ms,jamming_indicator,vel_m_s,vel_n_m_s,vel_e_m_s,vel_d_m_s,cog_rad,timestamp_time_relative,fix_type,vel_ned_valid,satellites_used
14542547,1553415289799972,298046677,1065394325,251329,224667,0,0.245,2.362369,0,0,1.6610001,2.9440002,0.66999996,1.04,107,37,0.009000001,0.007,-0.007,-0.053000003,0.0,0,3,1,18
14757613,1553415289999973,298046677,1065394329,251272,224610,0,0.18,2.362371,0,0,1.6290001,2.8860002,0.66999996,1.04,107,37,0.016,-0.002,-0.016,0.0050000004,0.0,0,3,1,18
14954519,1553415290199971,298046676,1065394334,251214,224552,0,0.23500001,2.3623738,0,0,1.5990001,2.8300002,0.66999996,1.04,107,37,0.010000001,0.007,0.008,-0.038000003,0.0,0,3,1,18
15154488,1553415290399971,298046675,1065394338,251172,224510,0,0.16700001,2.3623755,0,0,1.5710001,2.778,0.66999996,1.04,107,33,0.020000001,0.015000001,0.013,-0.009000001,0.0,0,3,1,18
15353525,1553415290599971,298046674,1065394342,251113,224452,0,0.24300002,2.3623784,0,0,1.544,2.73,0.66999996,1.04,107,33,0.006,0.002,0.006,0.023000002,0.0,0,3,1,18
15553483,1553415290799971,298046673,1065394345,251075,224414,0,0.179,2.3623807,0,0,1.519,2.683,0.66999996,1.04,107,33,0.024,-0.017,-0.017,-0.004,0.0,0,3,1,18
15750486,1553415290999972,298046672,1065394348,251022,224361,0,0.22500001,2.3623834,0,0,1.4950001,2.641,0.66999996,1.04,107,33,0.039,0.015000001,-0.036000002,-0.033,0.0,0,3,1,18
15952598,1553415291199971,298046672,1065394350,250961,224299,0,0.23,2.362386,0,0,1.473,2.6020002,0.66999996,1.04,107,33,0.015000001,0.004,-0.015000001,0.040000003,0.0,0,3,1,18
16153529,1553415291399971,298046672,1065394353,250879,224217,0,0.24300002,2.3623888,0,0,1.452,2.5640001,0.66999996,1.04,107,35,0.018000001,-0.018000001,0.002,0.080000006,0.0,0,3,1,18
16354542,1553415291599971,298046673,1065394356,250786,224124,0,0.15900001,2.3623905,0,0,1.432,2.529,0.66999996,1.04,107,35,0.010000001,0.010000001,-0.004,-0.004,0.0,0,3,1,18
16555937,1553415291799971,298046673,1065394359,250733,224071,0,0.24000001,2.3623934,0,0,1.4130001,2.496,0.66999996,1.04,107,35,0.031000001,-0.016,0.027,0.047000002,0.0,0,3,1,18
16761483,1553415291999972,298046673,1065394361,250678,224017,0,0.24000001,2.3623965,0,0,1.3950001,2.4650002,0.66999996,1.04,107,35,0.025,0.024,-0.007,0.064,0.0,0,3,1,18
16961390,1553415292199971,298046673,1065394363,250641,223979,0,0.256,2.3623993,0,0,1.378,2.4350002,0.66999996,1.04,107,35,0.014,0.010000001,0.010000001,0.053000003,0.0,0,3,1,18
17146492,1553415292399971,298046673,1065394364,250603,223942,0,0.25100002,2.3624022,0,0,1.3610001,2.4060001,0.66999996,1.04,107,35,0.033,-0.014,0.030000001,0.085,0.0,0,3,1,18
17355856,1553415292599971,298046672,1065394365,250579,223918,0,0.24000001,2.3624048,0,0,1.345,2.377,0.66999996,1.04,107,35,0.017,-0.011000001,0.012,0.031000001,0.0,0,3,1,18
17554486,1553415292799971,298046671,1065394366,250549,223887,0,0.24100001,2.3624077,0,0,1.3290001,2.348,0.66999996,1.04,107,35,0.011000001,0.004,-0.011000001,0.07,0.0,0,3,1,18
17753595,1553415292999972,298046671,1065394367,250534,223872,0,0.149,2.3624094,0,0,1.3130001,2.321,0.66999996,1.04,107,35,0.025,0.024,0.0050000004,0.002,0.0,0,3,1,18
17953480,1553415293199971,298046671,1065394368,250521,223859,0,0.24400002,2.3624122,0,0,1.299,2.295,0.66999996,1.04,107,35,0.003,0.0,0.003,0.029000001,0.0,0,3,1,18
18154520,1553415293399970,298046671,1065394369,250508,223846,0,0.192,2.3624146,0,0,1.284,2.2700002,0.66999996,1.04,107,35,0.028,0.028,0.0,0.021000002,0.0,0,3,1,18
18350928,1553415293599970,298046671,1065394369,250502,223840,0,0.25,2.3624175,0,0,1.271,2.2450001,0.66999996,1.04,107,35,0.014,0.008,0.011000001,0.045,0.0,0,3,1,18
18553516,1553415293799970,298046671,1065394370,250474,223813,0,0.23300001,2.3624198,0,0,1.2570001,2.2210002,0.66999996,1.04,107,35,0.058000002,0.015000001,0.056,0.051000003,0.0,0,3,1,18
18774562,1553415293999971,298046671,1065394371,250461,223799,0,0.22500001,2.3624227,0,0,1.2440001,2.197,0.66999996,1.04,107,35,0.016,-0.001,-0.016,0.042000003,0.0,0,3,1,18
18956532,1553415294199970,298046671,1065394371,250446,223785,0,0.24100001,2.3624256,0,0,1.2310001,2.174,0.66999996,1.04,107,35,0.003,0.003,-0.002,0.054,0.0,0,3,1,18
19156722,1553415294399970,298046672,1065394372,250434,223772,0,0.24000001,2.3624284,0,0,1.2190001,2.1520002,0.66999996,1.04,107,34,0.040000003,-0.004,0.040000003,0.052,0.0,0,3,1,18
19358475,1553415294599970,298046672,1065394374,250402,223740,0,0.24700001,2.362431,0,0,1.207,2.13,0.66999996,1.04,107,34,0.031000001,0.017,0.026,0.071,0.0,0,3,1,18
19555632,1553415294799970,298046672,1065394374,250392,223731,0,0.21900001,2.3624334,0,0,1.1960001,2.1090002,0.66999996,1.04,107,34,0.058000002,-0.025,-0.053000003,-0.035,0.0,0,3,1,18
19752530,1553415294999971,298046673,1065394375,250381,223720,0,0.18,2.3624356,0,0,1.184,2.089,0.66999996,1.04,107,34,0.039,0.010000001,-0.038000003,0.001,0.0,0,3,1,18
19956481,1553415295199970,298046673,1065394375,250373,223712,0,0.178,2.3624382,0,0,1.174,2.0700002,0.66999996,1.04,107,34,0.047000002,-0.006,0.047000002,-0.017,0.0,0,3,1,18
20157487,1553415295399970,298046673,1065394376,250373,223711,0,0.192,2.36244,0,0,1.1630001,2.051,0.66999996,1.04,107,35,0.042000003,-0.035,0.022000002,0.030000001,0.0,0,3,1,18
20363586,1553415295599970,298046674,1065394377,250379,223717,0,0.171,2.3624423,0,0,1.153,2.033,0.66999996,1.04,107,35,0.018000001,0.011000001,-0.014,0.008,0.0,0,3,1,18
20568690,1553415295799970,298046674,1065394377,250395,223734,0,0.164,2.362444,0,0,1.143,2.016,0.66999996,1.04,107,35,0.008,0.007,-0.004,-0.0050000004,0.0,0,3,1,18
20792632,1553415295999971,298046675,1065394377,250423,223761,0,0.19000001,2.362446,0,0,1.1340001,1.9990001,0.66999996,1.04,107,35,0.022000002,0.011000001,0.019000001,0.004,0.0,0,3,1,18
20960507,1553415296199970,298046675,1065394378,250449,223787,0,0.231,2.362449,0,0,1.125,1.9820001,0.66999996,1.04,107,35,0.038000003,0.034,-0.017,-0.080000006,0.0,0,3,1,18
21156492,1553415296399970,298046676,1065394378,250468,223806,0,0.24400002,2.3624518,0,0,1.116,1.9660001,0.66999996,1.04,107,34,0.014,0.006,-0.012,-0.032,0.0,0,3,1,18
21356036,1553415296599969,298046677,1065394378,250491,223829,0,0.20300001,2.3624542,0,0,1.107,1.9510001,0.66999996,1.04,107,34,0.025,-0.024,-0.007,-0.020000001,0.0,0,3,1,18
21557490,1553415296799969,298046677,1065394378,250525,223863,0,0.231,2.3624566,0,0,1.098,1.9360001,0.66999996,1.04,107,34,0.017,0.016,0.0050000004,0.029000001,0.0,0,3,1,18
21760481,1553415296999970,298046677,1065394378,250567,223905,0,0.23300001,2.3624594,0,0,1.09,1.922,0.66999996,1.04,107,34,0.022000002,0.015000001,-0.016,-0.037,0.0,0,3,1,18
21955615,1553415297199969,298046678,1065394377,250601,223939,0,0.223,2.3624623,0,0,1.082,1.9080001,0.66999996,1.04,107,34,0.021000002,0.012,-0.017,0.047000002,0.0,0,3,1,18
22157531,1553415297399969,298046678,1065394377,250646,223984,0,0.21300001,2.3624647,0,0,1.074,1.894,0.66999996,1.04,107,34,0.025,0.0,0.025,0.014,0.0,0,3,1,18
22352582,1553415297599969,298046679,1065394377,250674,224013,0,0.21400002,2.3624673,0,0,1.0660001,1.8800001,0.66999996,1.04,107,34,0.042000003,0.023000002,-0.035,0.07,0.0,0,3,1,18
22556524,1553415297799969,298046680,1065394376,250700,224039,0,0.19800001,2.3624694,0,0,1.059,1.8670001,0.66999996,1.04,107,34,0.016,0.010000001,-0.013,0.018000001,0.0,0,3,1,18
22767100,1553415297999970,298046680,1065394375,250754,224093,0,0.24300002,2.3624725,0,0,1.052,1.8550001,0.66999996,1.04,107,34,0.027,-0.003,0.027,0.048,0.0,0,3,1,18
22956672,1553415298199969,298046680,1065394375,250789,224128,0,0.16100001,2.3624744,0,0,1.0450001,1.8420001,0.66999996,1.04,107,34,0.028,0.022000002,0.017,0.003,0.0,0,3,1,18
23155599,1553415298399969,298046681,1065394375,250825,224164,0,0.224,2.362477,0,0,1.0380001,1.83,0.66999996,1.04,107,35,0.015000001,0.013,-0.008,0.031000001,0.0,0,3,1,18
23357476,1553415298599969,298046681,1065394374,250865,224203,0,0.23,2.3624797,0,0,1.031,1.8190001,0.66999996,1.04,107,35,0.040000003,-0.023000002,-0.033,-0.043,0.0,0,3,1,18
23552487,1553415298799969,298046681,1065394374,250901,224239,0,0.23600002,2.3624823,0,0,1.024,1.807,0.66999996,1.04,107,35,0.026,-0.008,0.024,0.036000002,0.0,0,3,1,18
23759896,1553415298999970,298046682,1065394373,250934,224273,0,0.216,2.362485,0,0,1.018,1.7960001,0.66999996,1.04,107,35,0.042000003,-0.007,-0.041,-0.026,0.0,0,3,1,18
23956309,1553415299199969,298046682,1065394372,250973,224311,0,0.24700001,2.3624876,0,0,1.0120001,1.7850001,0.66999996,1.04,107,35,0.011000001,0.0,0.011000001,0.035,0.0,0,3,1,18
24157556,1553415299399969,298046682,1065394371,251021,224359,0,0.245,2.3624904,0,0,1.006,1.774,0.66999996,1.04,106,33,0.010000001,-0.003,0.010000001,0.069000006,0.0,0,3,1,18
24355827,1553415299599968,298046682,1065394370,251063,224401,0,0.246,2.3624935,0,0,0.9990001,1.764,0.66999996,1.04,106,33,0.013,-0.007,-0.010000001,-0.041,0.0,0,3,1,18
24555567,1553415299799968,298046683,1065394369,251096,224434,0,0.208,2.3624961,0,0,0.994,1.7540001,0.66999996,1.04,106,33,0.047000002,0.044000003,-0.017,0.059000004,0.0,0,3,1,18
24795837,1553415299999969,298046684,1065394368,251143,224481,0,0.23900001,2.3624988,0,0,0.98800004,1.7440001,0.66999996,1.04,106,33,0.007,-0.007,0.0,0.072000004,0.0,0,3,1,18
24949592,1553415300199968,298046683,1065394367,251192,224530,0,0.224,2.3625014,0,0,0.98200005,1.7340001,0.66999996,1.04,106,33,0.024,-0.022000002,0.008,0.042000003,0.0,0,3,1,18
25161636,1553415300399968,298046684,1065394367,251203,224541,0,0.171,2.3625033,0,0,0.97700006,1.7240001,0.66999996,1.04,106,35,0.045,0.024,-0.038000003,-0.006,0.0,0,3,1,18
25355724,1553415300599968,298046685,1065394365,251240,224578,0,0.22000001,2.362506,0,0,0.97200006,1.715,0.66999996,1.04,106,35,0.035,0.034,-0.008,0.055000003,0.0,0,3,1,18
25556596,1553415300799968,298046686,1065394365,251260,224598,0,0.208,2.3625083,0,0,0.96700007,1.7060001,0.66999996,1.04,106,35,0.048,0.047000002,0.009000001,0.047000002,0.0,0,3,1,18
25756550,1553415300999969,298046686,1065394364,251284,224623,0,0.178,2.36251,0,0,0.9620001,1.697,0.66999996,1.04,106,35,0.010000001,-0.007,-0.008,-0.002,0.0,0,3,1,18
25954488,1553415301199968,298046687,1065394364,251328,224666,0,0.23300001,2.3625128,0,0,0.957,1.6890001,0.66999996,1.04,106,35,0.039,0.038000003,0.008,0.074,0.0,0,3,1,18
26150489,1553415301399968,298046687,1065394363,251344,224682,0,0.171,2.3625145,0,0,0.952,1.6800001,0.66999996,1.04,106,35,0.035,0.024,0.025,0.0050000004,0.0,0,3,1,18
26354828,1553415301599968,298046688,1065394364,251356,224695,0,0.23200001,2.3625174,0,0,0.947,1.672,0.66999996,1.04,106,35,0.015000001,-0.015000001,0.0,-0.029000001,0.0,0,3,1,18
26553516,1553415301799968,298046688,1065394364,251382,224720,0,0.22100002,2.3625197,0,0,0.943,1.6650001,0.66999996,1.04,106,35,0.016,-0.015000001,-0.003,-0.018000001,0.0,0,3,1,18
26759259,1553415301999969,298046688,1065394364,251399,224737,0,0.23,2.3625221,0,0,0.93900007,1.6570001,0.66999996,1.04,106,35,0.036000002,0.002,0.036000002,0.029000001,0.0,0,3,1,18
26954479,1553415302199968,298046688,1065394364,251428,224766,0,0.23300001,2.362525,0,0,0.93500006,1.6500001,0.66999996,1.04,106,35,0.018000001,0.018000001,-0.0050000004,0.041,0.0,0,3,1,18
27155668,1553415302399968,298046689,1065394364,251436,224775,0,0.252,2.3625278,0,0,0.93000007,1.6430001,0.66999996,1.04,106,33,0.025,-0.002,-0.025,-0.068,0.0,0,3,1,18
40384828,0,298046460,1065394319,265367,226789,29733599,0.0,0.0,0,0,0.008,0.006,0.79999995,1.37,0,0,0.03,0.02,0.01,0.0,0.0,-40384828,6,1,15
40570226,0,298046460,1065394319,265366,226788,29733799,0.0,0.0,0,0,0.009000001,0.006,0.79999995,1.37,0,0,0.03,0.0,0.0,0.03,0.0,-40570226,6,1,15
40774070,0,298046460,1065394319,265369,226790,29733999,0.0,0.0,0,0,0.009000001,0.006,0.79999995,1.37,0,0,0.02,-0.01,0.0,-0.01,0.0,-40774070,6,1,15
40978040,0,298046460,1065394319,265367,226789,29734199,0.0,0.0,0,0,0.009000001,0.006,0.79999995,1.37,0,0,0.01,0.0,0.0,0.0,0.0,-40978040,6,1,15
41183071,0,298046460,1065394319,265367,226789,29734399,0.0,0.0,0,0,0.009000001,0.006,0.79999995,1.37,0,0,0.01,0.01,0.0,0.0,0.0,-41183071,6,1,15
41366961,0,298046460,1065394319,265365,226787,29734599,0.0,0.0,0,0,0.009000001,0.006,0.79999995,1.37,0,0,0.03,0.01,0.0,0.02,0.0,-41366961,6,1,15
41571223,0,298046460,1065394319,265366,226788,29734799,0.0,0.0,0,0,0.009000001,0.007,0.79999995,1.37,0,0,0.06,0.0,0.0,-0.06,0.0,-41571223,6,1,15
41777670,0,298046460,1065394319,265365,226787,29734999,0.0,0.0,0,0,0.009000001,0.007,0.79999995,1.37,0,0,0.02,0.0,-0.01,0.01,0.0,-41777670,6,1,15
41979146,0,298046460,1065394319,265366,226788,29735199,0.0,0.0,0,0,0.008,0.006,0.79999995,1.37,0,0,0.049999997,0.0,0.02,0.04,0.0,-41979146,6,1,15
42181953,0,298046460,1065394319,265369,226791,29735399,0.0,0.0,0,0,0.008,0.006,0.79999995,1.37,0,0,0.03,0.01,0.0,0.03,0.0,-42181953,6,1,15
42366983,0,298046460,1065394319,265368,226790,29735599,0.0,0.0,0,0,0.008,0.006,0.79999995,1.37,0,0,0.049999997,0.01,0.0,0.049999997,0.0,-42366983,6,1,15
42569952,0,298046460,1065394319,265370,226792,29735799,0.0,0.0,0,0,0.009000001,0.006,0.79999995,1.37,0,0,0.01,0.0,0.0,0.01,0.0,-42569952,6,1,15
42774091,0,298046460,1065394319,265367,226789,29735999,0.0,0.0,0,0,0.009000001,0.006,0.79999995,1.37,0,0,0.02,0.01,0.0,0.01,0.0,-42774091,6,1,15
42978168,0,298046460,1065394319,265370,226792,29736199,0.0,0.0,0,0,0.009000001,0.006,0.79999995,1.37,0,0,0.03,-0.02,-0.02,-0.01,0.0,-42978168,6,1,15
43182947,0,298046460,1065394319,265371,226792,29736399,0.0,0.0,0,0,0.009000001,0.006,0.79999995,1.37,0,0,0.07,-0.03,0.0,-0.06,0.0,-43182947,6,1,15
43385965,0,298046460,1065394319,265369,226791,29736599,0.0,0.0,0,0,0.009000001,0.006,0.79999995,1.37,0,0,0.02,0.0,0.0,-0.02,0.0,-43385965,6,1,15
43570962,0,298046460,1065394319,265370,226791,29736799,0.0,0.0,0,0,0.009000001,0.007,0.79999995,1.37,0,0,0.03,0.0,0.0,-0.03,0.0,-43570962,6,1,15
43777985,0,298046460,1065394319,265369,226791,29736999,0.0,0.0,0,0,0.009000001,0.007,0.79999995,1.37,0,0,0.06,0.0,-0.01,0.06,0.0,-43777985,6,1,15
43978231,0,298046460,1065394319,265368,226789,29737199,0.0,0.0,0,0,0.008,0.006,0.79999995,1.37,0,0,0.01,-0.01,0.0,0.0,0.0,-43978231,6,1,15
44182352,0,298046460,1065394320,265364,226785,29737399,0.0,0.0,0,0,0.008,0.006,0.79999995,1.37,0,0,0.06,0.0,0.02,0.049999997,0.0,-44182352,6,1,15
44302958,0,298046460,1065394319,265359,226781,29737599,0.0,0.0,0,0,0.009000001,0.007,0.79999995,1.5699999,0,0,0.03,0.02,0.0,0.02,0.0,-44302958,6,1,15
44569632,0,298046460,1065394319,265362,226784,29737799,0.0,0.0,0,0,0.009000001,0.006,0.79999995,1.37,0,0,0.01,0.0,0.01,-0.01,0.0,-44569632,6,1,15
44774979,0,298046460,1065394319,265362,226784,29737999,0.0,0.0,0,0,0.009000001,0.006,0.79999995,1.37,0,0,0.02,-0.02,0.0,-0.02,0.0,-44774979,6,1,15
45186301,0,298046460,1065394319,265364,226786,29738399,0.0,0.0,0,0,0.009000001,0.006,0.79999995,1.37,0,0,0.02,0.0,0.0,-0.02,0.0,-45186301,6,1,15
45367959,0,298046460,1065394320,265360,226782,29738599,0.0,0.0,0,0,0.009000001,0.006,0.79999995,1.37,0,0,0.11,0.0,0.0,0.11,0.0,-45367959,6,1,15
45574036,0,298046460,1065394320,265360,226782,29738799,0.0,0.0,0,0,0.009000001,0.007,0.79999995,1.37,0,0,0.03,-0.01,0.0,0.03,0.0,-45574036,6,1,15
45778124,0,298046460,1065394319,265360,226782,29738999,0.0,0.0,0,0,0.009000001,0.007,0.79999995,1.37,0,0,0.02,0.0,-0.02,0.0,0.0,-45778124,6,1,15
45985613,0,298046460,1065394319,265366,226787,29739199,0.0,0.0,0,0,0.008,0.006,0.79999995,1.37,0,0,0.02,0.0,0.0,-0.01,0.0,-45985613,6,1,15
46169260,0,298046460,1065394320,265368,226790,29739399,0.0,0.0,0,0,0.008,0.006,0.79999995,1.37,0,0,0.089999996,0.01,0.02,-0.089999996,0.0,-46169260,6,1,15
46371887,0,298046460,1065394320,265367,226788,29739599,0.0,0.0,0,0,0.008,0.006,0.79999995,1.37,0,0,0.03,-0.01,0.02,0.01,0.0,-46371887,6,1,15
46580108,0,298046460,1065394319,265366,226787,29739799,0.0,0.0,0,0,0.009000001,0.006,0.79999995,1.37,0,0,0.0,0.0,0.0,0.0,0.0,-46580108,6,1,15
46785710,0,298046460,1065394319,265364,226785,29739999,0.0,0.0,0,0,0.009000001,0.006,0.79999995,1.37,0,0,0.06,-0.01,-0.02,0.049999997,0.0,-46785710,6,1,15
46968113,0,298046460,1065394319,265364,226786,29740199,0.0,0.0,0,0,0.009000001,0.006,0.79999995,1.37,0,0,0.01,-0.01,0.0,0.0,0.0,-46968113,6,1,15
47176074,0,298046460,1065394319,265364,226786,29740399,0.0,0.0,0,0,0.009000001,0.006,0.79999995,1.37,0,0,0.03,0.01,0.02,-0.02,0.0,-47176074,6,1,15
47378153,0,298046460,1065394319,265365,226787,29740599,0.0,0.0,0,0,0.009000001,0.006,0.79999995,1.37,0,0,0.02,-0.01,0.0,-0.01,0.0,-47378153,6,1,15
47582948,0,298046460,1065394319,265363,226785,29740799,0.0,0.0,0,0,0.009000001,0.007,0.79999995,1.37,0,0,0.03,0.02,-0.02,-0.01,0.0,-47582948,6,1,15
47791114,0,298046460,1065394319,265361,226782,29740999,0.0,0.0,0,0,0.009000001,0.007,0.79999995,1.37,0,0,0.04,0.01,0.0,0.03,0.0,-47791114,6,1,15
47975000,0,298046460,1065394320,265361,226783,29741199,0.0,0.0,0,0,0.008,0.006,0.79999995,1.37,0,0,0.049999997,-0.02,0.0,0.049999997,0.0,-47975000,6,1,15
48179945,0,298046460,1065394320,265360,226782,29741399,0.0,0.0,0,0,0.008,0.006,0.79999995,1.37,0,0,0.049999997,0.0,0.01,0.049999997,0.0,-48179945,6,1,15
48386054,0,298046460,1065394319,265361,226783,29741599,0.0,0.0,0,0,0.008,0.006,0.79999995,1.37,0,0,0.06,0.02,0.0,0.049999997,0.0,-48386054,6,1,15
48580365,0,298046460,1065394320,265362,226784,29741799,0.0,0.0,0,0,0.009000001,0.006,0.79999995,1.3399999,0,0,0.03,0.01,0.0,-0.02,0.0,-48580365,6,1,15
48796172,0,298046460,1065394320,265363,226785,29741999,0.0,0.0,0,0,0.009000001,0.006,0.79999995,1.3399999,0,0,0.01,-0.01,-0.01,0.0,0.0,-48796172,6,1,15
48992946,0,298046460,1065394319,265363,226784,29742199,0.0,0.0,0,0,0.009000001,0.006,0.79999995,1.3399999,0,0,0.03,0.0,0.01,0.03,0.0,-48992946,6,1,15
49184871,0,298046460,1065394320,265360,226782,29742399,0.0,0.0,0,0,0.009000001,0.006,0.79999995,1.3399999,0,0,0.07,0.0,0.0,0.07,0.0,-49184871,6,1,15
49381947,0,298046460,1065394320,265360,226782,29742599,0.0,0.0,0,0,0.009000001,0.006,0.79999995,1.3399999,0,0,0.049999997,0.0,0.0,-0.049999997,0.0,-49381947,6,1,15
49598531,0,298046460,1065394319,265362,226784,29742799,0.0,0.0,0,0,0.009000001,0.006,0.79999995,1.3399999,0,0,0.03,0.02,0.0,-0.03,0.0,-49598531,6,1,15
49794123,0,298046460,1065394319,265365,226787,29742999,0.0,0.0,0,0,0.009000001,0.006,0.79999995,1.3399999,0,0,0.049999997,0.0,-0.03,-0.04,0.0,-49794123,6,1,15
49989288,0,298046460,1065394320,265362,226783,29743199,0.0,0.0,0,0,0.008,0.006,0.79999995,1.3399999,0,0,0.02,0.0,-0.01,-0.01,0.0,-49989288,6,1,15
50181942,0,298046460,1065394320,265362,226784,29743399,0.0,0.0,0,0,0.008,0.006,0.79999995,1.3399999,0,0,0.02,0.01,0.01,0.02,0.0,-50181942,6,1,15
50377774,0,298046460,1065394320,265360,226782,29743599,0.0,0.0,0,0,0.008,0.006,0.79999995,1.3399999,0,0,0.04,0.0,-0.01,0.04,0.0,-50377774,6,1,15
50592877,0,298046460,1065394320,265360,226782,29743799,0.0,0.0,0,0,0.009000001,0.006,0.79999995,1.3399999,0,0,0.03,0.01,0.0,-0.03,0.0,-50592877,6,1,15
50788935,0,298046460,1065394320,265359,226781,29743999,0.0,0.0,0,0,0.009000001,0.006,0.79999995,1.3399999,0,0,0.03,0.01,0.01,0.03,0.0,-50788935,6,1,15
50988641,0,298046460,1065394320,265360,226782,29744199,0.0,0.0,0,0,0.009000001,0.006,0.79999995,1.3399999,0,0,0.01,0.0,-0.01,0.0,0.0,-50988641,6,1,15
51182134,0,298046460,1065394320,265361,226783,29744399,0.0,0.0,0,0,0.009000001,0.006,0.79999995,1.3399999,0,0,0.04,-0.02,0.0,-0.04,0.0,-51182134,6,1,15
51400603,0,298046460,1065394320,265361,226783,29744599,0.0,0.0,0,0,0.009000001,0.006,0.79999995,1.3399999,0,0,0.02,0.02,0.01,0.0,0.0,-51400603,6,1,15
51596671,0,298046460,1065394320,265360,226782,29744799,0.0,0.0,0,0,0.009000001,0.006,0.79999995,1.3399999,0,0,0.049999997,0.0,0.0,0.049999997,0.0,-51596671,6,1,15
51792605,0,298046460,1065394320,265362,226784,29744999,0.0,0.0,0,0,0.009000001,0.006,0.79999995,1.3399999,0,0,0.02,0.0,-0.02,-0.01,0.0,-51792605,6,1,15
51988660,0,298046460,1065394320,265365,226787,29745199,0.0,0.0,0,0,0.008,0.006,0.79999995,1.3399999,0,0,0.03,0.0,0.01,0.03,0.0,-51988660,6,1,15
52202141,0,298046460,1065394320,265369,226791,29745399,0.0,0.0,0,0,0.008,0.006,0.79999995,1.3399999,0,0,0.04,0.02,0.0,0.04,0.0,-52202141,6,1,15
52378008,0,298046460,1065394320,265372,226794,29745599,0.0,0.0,0,0,0.008,0.006,0.79999995,1.3399999,0,0,0.03,0.0,0.0,0.02,0.0,-52378008,6,1,15
52594171,0,298046460,1065394320,265373,226794,29745799,0.0,0.0,0,0,0.009000001,0.006,0.79999995,1.3399999,0,0,0.049999997,0.0,0.01,-0.04,0.0,-52594171,6,1,15
52789810,0,298046460,1065394319,265370,226792,29745999,0.0,0.0,0,0,0.009000001,0.006,0.79999995,1.3399999,0,0,0.01,0.0,0.0,0.0,0.0,-52789810,6,1,15
52982981,0,298046460,1065394319,265367,226788,29746199,0.0,0.0,0,0,0.009000001,0.006,0.79999995,1.3399999,0,0,0.01,0.0,-0.01,0.0,0.0,-52982981,6,1,15
53182096,0,298046460,1065394320,265367,226789,29746399,0.0,0.0,0,0,0.009000001,0.006,0.79999995,1.3399999,0,0,0.04,-0.01,0.0,-0.04,0.0,-53182096,6,1,15
53396629,0,298046460,1065394320,265366,226788,29746599,0.0,0.0,0,0,0.009000001,0.006,0.79999995,1.3399999,0,0,0.01,0.0,0.0,0.0,0.0,-53396629,6,1,15
53592145,0,298046460,1065394320,265367,226789,29746799,0.0,0.0,0,0,0.009000001,0.006,0.79999995,1.3399999,0,0,0.03,-0.01,0.01,-0.03,0.0,-53592145,6,1,15
53786985,0,298046460,1065394320,265365,226787,29746999,0.0,0.0,0,0,0.009000001,0.006,0.79999995,1.3399999,0,0,0.02,0.01,-0.01,0.0,0.0,-53786985,6,1,15
53983052,0,298046460,1065394320,265367,226789,29747199,0.0,0.0,0,0,0.008,0.006,0.79999995,1.3399999,0,0,0.07,0.0,-0.01,0.06,0.0,-53983052,6,1,15
54176775,0,298046460,1065394320,265369,226791,29747399,0.0,0.0,0,0,0.008,0.006,0.79999995,1.3399999,0,0,0.01,0.0,0.0,-0.01,0.0,-54176775,6,1,15
54392975,0,298046460,1065394320,265369,226791,29747599,0.0,0.0,0,0,0.008,0.006,0.79999995,1.3399999,0,0,0.01,0.0,0.0,-0.01,0.0,-54392975,6,1,15
54588855,0,298046460,1065394320,265368,226790,29747799,0.0,0.0,0,0,0.009000001,0.006,0.79999995,1.3399999,0,0,0.01,0.0,0.0,0.0,0.0,-54588855,6,1,15
54785772,0,298046460,1065394320,265366,226788,29747999,0.0,0.0,0,0,0.009000001,0.006,0.79999995,1.3399999,0,0,0.04,0.0,0.0,0.04,0.0,-54785772,6,1,15
54988050,0,298046460,1065394320,265362,226784,29748199,0.0,0.0,0,0,0.009000001,0.006,0.79999995,1.3399999,0,0,0.049999997,-0.01,0.01,0.049999997,0.0,-54988050,6,1,15
55187331,0,298046460,1065394320,265365,226787,29748399,0.0,0.0,0,0,0.009000001,0.006,0.79999995,1.3399999,0,0,0.02,0.0,0.01,-0.01,0.0,-55187331,6,1,15
55387105,0,298046460,1065394320,265363,226785,29748599,0.0,0.0,0,0,0.009000001,0.006,0.79999995,1.3399999,0,0,0.04,0.0,0.01,0.04,0.0,-55387105,6,1,15
55587078,0,298046460,1065394320,265365,226786,29748799,0.0,0.0,0,0,0.009000001,0.006,0.79999995,1.3399999,0,0,0.02,0.01,0.01,0.01,0.0,-55587078,6,1,15
55785346,0,298046460,1065394320,265366,226788,29748999,0.0,0.0,0,0,0.009000001,0.006,0.79999995,1.3399999,0,0,0.01,0.0,-0.01,0.0,0.0,-55785346,6,1,15
55984474,0,298046460,1065394320,265365,226786,29749199,0.0,0.0,0,0,0.008,0.006,0.79999995,1.3399999,0,0,0.03,0.03,0.0,0.0,0.0,-55984474,6,1,15
56184627,0,298046460,1065394320,265360,226782,29749399,0.0,0.0,0,0,0.008,0.006,0.79999995,1.3399999,0,0,0.07,0.01,0.01,0.07,0.0,-56184627,6,1,15
56383667,0,298046460,1065394320,265360,226782,29749599,0.0,0.0,0,0,0.008,0.006,0.79999995,1.3399999,0,0,0.03,0.01,0.0,0.03,0.0,-56383667,6,1,15
56600109,0,298046460,1065394319,265363,226785,29749799,0.0,0.0,0,0,0.009000001,0.006,0.79999995,1.3399999,0,0,0.03,-0.01,-0.01,-0.03,0.0,-56600109,6,1,15
56800874,0,298046460,1065394319,265362,226783,29749999,0.0,0.0,0,0,0.009000001,0.006,0.79999995,1.3399999,0,0,0.03,-0.01,0.0,0.03,0.0,-56800874,6,1,15
56980850,0,298046460,1065394319,265364,226786,29750199,0.0,0.0,0,0,0.009000001,0.006,0.79999995,1.3399999,0,0,0.02,0.0,-0.01,0.02,0.0,-56980850,6,1,15
57180081,0,298046460,1065394319,265360,226782,29750399,0.0,0.0,0,0,0.009000001,0.006,0.79999995,1.3399999,0,0,0.03,0.0,-0.03,-0.01,0.0,-57180081,6,1,15
57400613,0,298046460,1065394320,265358,226780,29750599,0.0,0.0,0,0,0.009000001,0.006,0.79999995,1.3399999,0,0,0.03,0.02,0.0,0.02,0.0,-57400613,6,1,15
57598077,0,298046460,1065394320,265358,226780,29750799,0.0,0.0,0,0,0.009000001,0.006,0.79999995,1.3399999,0,0,0.06,0.0,0.0,0.06,0.0,-57598077,6,1,15
57795925,0,298046460,1065394320,265357,226779,29750999,0.0,0.0,0,0,0.009000001,0.006,0.79999995,1.3399999,0,0,0.0,0.0,0.0,0.0,0.0,-57795925,6,1,15
57995922,0,298046460,1065394320,265358,226780,29751199,0.0,0.0,0,0,0.008,0.006,0.79999995,1.3399999,0,0,0.02,0.0,0.0,-0.02,0.0,-57995922,6,1,15
58192971,0,298046460,1065394320,265362,226784,29751399,0.0,0.0,0,0,0.008,0.006,0.79999995,1.3399999,0,0,0.02,0.0,0.02,0.0,0.0,-58192971,6,1,15
58392817,0,298046460,1065394320,265361,226783,29751599,0.0,0.0,0,0,0.008,0.006,0.79999995,1.3399999,0,0,0.02,0.02,0.0,-0.01,0.0,-58392817,6,1,15
58592853,0,298046460,1065394320,265358,226780,29751799,0.0,0.0,0,0,0.009000001,0.006,0.79999995,1.3399999,0,0,0.049999997,0.01,0.01,0.04,0.0,-58592853,6,1,15
58789774,0,298046460,1065394320,265358,226780,29751999,0.0,0.0,0,0,0.009000001,0.006,0.79999995,1.3399999,0,0,0.02,0.0,-0.01,-0.02,0.0,-58789774,6,1,15
58998042,0,298046460,1065394320,265359,226781,29752199,0.0,0.0,0,0,0.009000001,0.006,0.79999995,1.3399999,0,0,0.03,0.0,0.02,-0.02,0.0,-58998042,6,1,15
59128904,0,298046460,1065394320,265356,226777,29752399,0.0,0.0,0,0,0.009000001,0.006,0.79999995,1.3399999,0,0,0.03,-0.01,0.0,0.02,0.0,-59128904,6,1,15
59322365,0,298046460,1065394320,265353,226775,29752599,0.0,0.0,0,0,0.009000001,0.006,0.79999995,1.3399999,0,0,0.04,0.01,-0.03,0.0,0.0,-59322365,6,1,15
59531900,0,298046460,1065394320,265354,226776,29752799,0.0,0.0,0,0,0.009000001,0.006,0.79999995,1.3399999,0,0,0.02,-0.01,0.0,0.02,0.0,-59531900,6,1,15
59724806,0,298046460,1065394320,265355,226777,29752999,0.0,0.0,0,0,0.009000001,0.006,0.79999995,1.3399999,0,0,0.03,-0.01,0.01,0.03,0.0,-59724806,6,1,15
59916804,0,298046460,1065394319,265360,226782,29753199,0.0,0.0,0,0,0.008,0.006,0.79999995,1.3399999,0,0,0.01,0.0,-0.01,0.0,0.0,-59916804,6,1,15
60126968,0,298046460,1065394320,265361,226782,29753399,0.0,0.0,0,0,0.008,0.006,0.79999995,1.3399999,0,0,0.02,0.0,0.0,-0.02,0.0,-60126968,6,1,15
60320212,0,298046460,1065394319,265362,226784,29753599,0.0,0.0,0,0,0.008,0.006,0.79999995,1.3399999,0,0,0.02,0.01,-0.01,0.01,0.0,-60320212,6,1,15
60532959,0,298046460,1065394320,265361,226782,29753799,0.0,0.0,0,0,0.009000001,0.006,0.79999995,1.3399999,0,0,0.06,0.02,0.01,0.049999997,0.0,-60532959,6,1,15
60727962,0,298046460,1065394320,265362,226783,29753999,0.0,0.0,0,0,0.009000001,0.006,0.79999995,1.3399999,0,0,0.02,0.01,0.0,-0.02,0.0,-60727962,6,1,15
60938948,0,298046460,1065394319,265361,226782,29754199,0.0,0.0,0,0,0.009000001,0.006,0.79999995,1.3399999,0,0,0.02,-0.01,0.0,-0.02,0.0,-60938948,6,1,15
61131104,0,298046460,1065394320,265361,226782,29754399,0.0,0.0,0,0,0.009000001,0.006,0.79999995,1.3399999,0,0,0.01,0.0,0.01,0.0,0.0,-61131104,6,1,15
61323952,0,298046460,1065394319,265359,226780,29754599,0.0,0.0,0,0,0.009000001,0.006,0.79999995,1.3399999,0,0,0.02,0.0,-0.02,0.0,0.0,-61323952,6,1,15
61515961,0,298046460,1065394320,265358,226780,29754799,0.0,0.0,0,0,0.009000001,0.006,0.79999995,1.3399999,0,0,0.01,0.0,0.0,-0.01,0.0,-61515961,6,1,15
61728097,0,298046460,1065394320,265359,226781,29754999,0.0,0.0,0,0,0.009000001,0.006,0.79999995,1.3399999,0,0,0.02,0.0,0.0,0.02,0.0,-61728097,6,1,15
61920094,0,298046460,1065394320,265364,226786,29755199,0.0,0.0,0,0,0.008,0.006,0.79999995,1.3399999,0,0,0.01,0.01,0.0,-0.01,0.0,-61920094,6,1,15
62131865,0,298046460,1065394320,265368,226790,29755399,0.0,0.0,0,0,0.008,0.006,0.79999995,1.3399999,0,0,0.01,0.0,0.0,0.01,0.0,-62131865,6,1,15
62323986,0,298046460,1065394320,265366,226788,29755599,0.0,0.0,0,0,0.008,0.006,0.79999995,1.3399999,0,0,0.03,-0.01,0.0,0.03,0.0,-62323986,6,1,15
62515940,0,298046460,1065394320,265367,226788,29755799,0.0,0.0,0,0,0.009000001,0.006,0.79999995,1.3399999,0,0,0.0,0.0,0.0,0.0,0.0,-62515940,6,1,15
62727911,0,298046460,1065394320,265365,226787,29755999,0.0,0.0,0,0,0.009000001,0.006,0.79999995,1.3399999,0,0,0.01,0.0,0.0,0.0,0.0,-62727911,6,1,15
62919961,0,298046460,1065394320,265365,226786,29756199,0.0,0.0,0,0,0.009000001,0.006,0.79999995,1.3399999,0,0,0.01,0.0,0.01,0.0,0.0,-62919961,6,1,15
63131976,0,298046460,1065394320,265366,226787,29756399,0.0,0.0,0,0,0.009000001,0.006,0.79999995,1.3399999,0,0,0.03,0.0,0.01,-0.02,0.0,-63131976,6,1,15
63324130,0,298046460,1065394320,265363,226785,29756599,0.0,0.0,0,0,0.009000001,0.006,0.79999995,1.3399999,0,0,0.03,-0.01,-0.02,0.02,0.0,-63324130,6,1,15
63516787,0,298046460,1065394320,265363,226785,29756799,0.0,0.0,0,0,0.009000001,0.006,0.79999995,1.3299999,0,0,0.04,0.02,0.01,0.04,0.0,-63516787,6,1,15
63727892,0,298046460,1065394320,265364,226785,29756999,0.0,0.0,0,0,0.009000001,0.006,0.79999995,1.3299999,0,0,0.01,0.0,-0.01,0.0,0.0,-63727892,6,1,15
63919973,0,298046460,1065394320,265362,226783,29757199,0.0,0.0,0,0,0.008,0.006,0.79999995,1.3299999,0,0,0.049999997,0.01,0.01,0.049999997,0.0,-63919973,6,1,15
64132076,0,298046460,1065394320,265365,226787,29757399,0.0,0.0,0,0,0.008,0.006,0.79999995,1.3299999,0,0,0.03,0.0,0.0,-0.03,0.0,-64132076,6,1,15
64324113,0,298046460,1065394320,265365,226786,29757599,0.0,0.0,0,0,0.008,0.006,0.79999995,1.3299999,0,0,0.03,0.0,0.0,0.03,0.0,-64324113,6,1,15
64515948,0,298046460,1065394320,265365,226786,29757799,0.0,0.0,0,0,0.009000001,0.006,0.79999995,1.3299999,0,0,0.02,0.0,0.01,-0.01,0.0,-64515948,6,1,15
64732129,0,298046460,1065394320,265359,226781,29757999,0.0,0.0,0,0,0.009000001,0.006,0.79999995,1.3299999,0,0,0.03,0.02,0.0,0.02,0.0,-64732129,6,1,15
64931253,0,298046460,1065394320,265360,226781,29758199,0.0,0.0,0,0,0.009000001,0.006,0.79999995,1.25,0,0,0.01,0.0,-0.01,0.0,0.0,-64931253,6,1,15
65132006,0,298046460,1065394320,265363,226785,29758399,0.0,0.0,0,0,0.009000001,0.006,0.79999995,1.25,0,0,0.049999997,0.0,0.0,-0.049999997,0.0,-65132006,6,1,15
65332876,0,298046460,1065394320,265362,226784,29758599,0.0,0.0,0,0,0.009000001,0.006,0.79999995,1.25,0,0,0.01,0.0,0.0,-0.01,0.0,-65332876,6,1,15
65531103,0,298046460,1065394320,265365,226786,29758799,0.0,0.0,0,0,0.009000001,0.006,0.79999995,1.25,0,0,0.03,-0.01,0.0,-0.02,0.0,-65531103,6,1,15
65732086,0,298046460,1065394320,265361,226783,29758999,0.0,0.0,0,0,0.009000001,0.006,0.79999995,1.25,0,0,0.04,0.01,-0.02,-0.03,0.0,-65732086,6,1,15
65931768,0,298046460,1065394320,265364,226786,29759199,0.0,0.0,0,0,0.008,0.006,0.79999995,1.25,0,0,0.02,0.0,0.01,0.01,0.0,-65931768,6,1,15
66128774,0,298046460,1065394320,265368,226790,29759399,0.0,0.0,0,0,0.008,0.006,0.79999995,1.25,0,0,0.01,0.0,0.0,0.0,0.0,-66128774,6,1,15
66328795,0,298046460,1065394320,265365,226787,29759599,0.0,0.0,0,0,0.008,0.006,0.79999995,1.25,0,0,0.01,0.0,-0.01,0.0,0.0,-66328795,6,1,15
66527955,0,298046460,1065394320,265363,226785,29759799,0.0,0.0,0,0,0.008,0.006,0.79999995,1.25,0,0,0.0,0.0,0.0,0.0,0.0,-66527955,6,1,15
66729939,0,298046460,1065394320,265364,226786,29759999,0.0,0.0,0,0,0.009000001,0.006,0.79999995,1.4699999,0,0,0.049999997,0.0,-0.02,-0.04,0.0,-66729939,6,1,15
66930998,0,298046460,1065394320,265366,226788,29760199,0.0,0.0,0,0,0.009000001,0.007,0.79999995,1.4699999,0,0,0.02,0.0,0.01,-0.02,0.0,-66930998,6,1,15
67131019,0,298046460,1065394320,265368,226790,29760399,0.0,0.0,0,0,0.009000001,0.007,0.79999995,1.4699999,0,0,0.03,0.0,0.0,-0.03,0.0,-67131019,6,1,15
67331232,0,298046460,1065394320,265366,226787,29760599,0.0,0.0,0,0,0.009000001,0.007,0.79999995,1.4699999,0,0,0.04,0.0,0.0,-0.04,0.0,-67331232,6,1,15
67531912,0,298046460,1065394320,265359,226781,29760799,0.0,0.0,0,0,0.009000001,0.006,0.79999995,1.25,0,0,0.08,0.0,0.01,0.07,0.0,-67531912,6,1,15
67734334,0,298046460,1065394320,265360,226782,29760999,0.0,0.0,0,0,0.009000001,0.006,0.79999995,1.25,0,0,0.02,0.0,0.0,-0.02,0.0,-67734334,6,1,15
67931837,0,298046460,1065394320,265362,226783,29761199,0.0,0.0,0,0,0.008,0.006,0.79999995,1.25,0,0,0.02,0.0,0.0,-0.02,0.0,-67931837,6,1,15
68130518,0,298046460,1065394320,265364,226785,29761399,0.0,0.0,0,0,0.008,0.006,0.79999995,1.25,0,0,0.03,0.0,0.01,0.03,0.0,-68130518,6,1,15
68327953,0,298046460,1065394320,265362,226784,29761599,0.0,0.0,0,0,0.008,0.006,0.79999995,1.25,0,0,0.049999997,0.03,-0.02,0.04,0.0,-68327953,6,1,15
68526180,0,298046460,1065394320,265361,226783,29761799,0.0,0.0,0,0,0.008,0.006,0.79999995,1.25,0,0,0.07,-0.01,-0.02,-0.06,0.0,-68526180,6,1,15
68725654,0,298046460,1065394320,265360,226782,29761999,0.0,0.0,0,0,0.008,0.006,0.79999995,1.25,0,0,0.02,0.0,0.02,0.0,0.0,-68725654,6,1,15
68922934,0,298046460,1065394320,265360,226782,29762199,0.0,0.0,0,0,0.008,0.006,0.79999995,1.25,0,0,0.02,0.0,0.0,-0.02,0.0,-68922934,6,1,15
69138337,0,298046460,1065394320,265358,226780,29762399,0.0,0.0,0,0,0.009000001,0.006,0.79999995,1.25,0,0,0.03,0.02,-0.01,-0.02,0.0,-69138337,6,1,15
69335922,0,298046460,1065394320,265357,226779,29762599,0.0,0.0,0,0,0.009000001,0.006,0.79999995,1.25,0,0,0.01,0.01,0.0,-0.01,0.0,-69335922,6,1,15
69930423,0,298046460,1065394319,265363,226785,29763199,0.0,0.0,0,0,0.008,0.006,0.79999995,1.25,0,0,0.03,0.01,0.0,-0.03,0.0,-69930423,6,1,15
70126968,0,298046460,1065394319,265362,226784,29763399,0.0,0.0,0,0,0.008,0.006,0.79999995,1.25,0,0,0.04,0.0,0.0,0.03,0.0,-70126968,6,1,15
70322927,0,298046460,1065394320,265364,226786,29763599,0.0,0.0,0,0,0.008,0.006,0.79999995,1.25,0,0,0.01,0.0,0.0,0.01,0.0,-70322927,6,1,15
70521724,0,298046460,1065394319,265361,226783,29763799,0.0,0.0,0,0,0.008,0.006,0.79999995,1.25,0,0,0.02,-0.01,0.0,0.02,0.0,-70521724,6,1,15
70735012,0,298046460,1065394319,265363,226785,29763999,0.0,0.0,0,0,0.008,0.006,0.79999995,1.25,0,0,0.03,0.01,0.0,-0.03,0.0,-70735012,6,1,15
70931194,0,298046460,1065394319,265362,226784,29764199,0.0,0.0,0,0,0.008,0.006,0.79999995,1.25,0,0,0.04,-0.02,-0.03,-0.01,0.0,-70931194,6,1,15
71127886,0,298046460,1065394319,265362,226783,29764399,0.0,0.0,0,0,0.009000001,0.006,0.79999995,1.25,0,0,0.04,0.0,-0.02,0.03,0.0,-71127886,6,1,15
71323071,0,298046460,1065394319,265361,226783,29764599,0.0,0.0,0,0,0.009000001,0.006,0.79999995,1.25,0,0,0.01,0.0,-0.01,0.0,0.0,-71323071,6,1,15
71539557,0,298046460,1065394319,265357,226779,29764799,0.0,0.0,0,0,0.009000001,0.006,0.79999995,1.25,0,0,0.04,0.0,0.0,0.04,0.0,-71539557,6,1,15
71738375,0,298046460,1065394320,265357,226778,29764999,0.0,0.0,0,0,0.009000001,0.006,0.79999995,1.25,0,0,0.02,0.0,0.01,-0.02,0.0,-71738375,6,1,15
71936070,0,298046460,1065394320,265358,226780,29765199,0.0,0.0,0,0,0.008,0.006,0.79999995,1.25,0,0,0.03,-0.01,-0.01,0.02,0.0,-71936070,6,1,15
72132002,0,298046460,1065394320,265358,226780,29765399,0.0,0.0,0,0,0.008,0.006,0.79999995,1.25,0,0,0.04,0.01,0.0,0.04,0.0,-72132002,6,1,15
72330996,0,298046460,1065394319,265360,226782,29765599,0.0,0.0,0,0,0.008,0.006,0.79999995,1.25,0,0,0.049999997,-0.01,-0.01,-0.049999997,0.0,-72330996,6,1,15
72526941,0,298046460,1065394319,265359,226780,29765799,0.0,0.0,0,0,0.008,0.006,0.79999995,1.25,0,0,0.01,0.0,0.0,0.0,0.0,-72526941,6,1,15
72726975,0,298046460,1065394319,265355,226777,29765999,0.0,0.0,0,0,0.008,0.006,0.79999995,1.25,0,0,0.06,0.0,-0.01,0.06,0.0,-72726975,6,1,15
72926288,0,298046460,1065394320,265353,226775,29766199,0.0,0.0,0,0,0.008,0.006,0.79999995,1.25,0,0,0.02,-0.01,0.0,-0.02,0.0,-72926288,6,1,15
73122909,0,298046460,1065394320,265355,226777,29766399,0.0,0.0,0,0,0.009000001,0.006,0.79999995,1.25,0,0,0.02,0.0,0.0,0.02,0.0,-73122909,6,1,15
73320397,0,298046460,1065394320,265357,226778,29766599,0.0,0.0,0,0,0.009000001,0.006,0.79999995,1.25,0,0,0.04,0.0,0.0,0.04,0.0,-73320397,6,1,15
73537982,0,298046460,1065394320,265357,226779,29766799,0.0,0.0,0,0,0.009000001,0.006,0.79999995,1.25,0,0,0.04,0.02,0.0,-0.03,0.0,-73537982,6,1,15
73734916,0,298046460,1065394320,265356,226778,29766999,0.0,0.0,0,0,0.009000001,0.006,0.79999995,1.25,0,0,0.02,0.0,0.0,-0.02,0.0,-73734916,6,1,15
73931000,0,298046460,1065394319,265361,226783,29767199,0.0,0.0,0,0,0.008,0.006,0.79999995,1.25,0,0,0.02,0.01,0.01,0.0,0.0,-73931000,6,1,15
74130554,0,298046460,1065394320,265363,226785,29767399,0.0,0.0,0,0,0.008,0.006,0.79999995,1.25,0,0,0.049999997,0.01,-0.02,0.049999997,0.0,-74130554,6,1,15
74326002,0,298046460,1065394320,265367,226788,29767599,0.0,0.0,0,0,0.008,0.006,0.79999995,1.25,0,0,0.01,0.01,0.0,-0.01,0.0,-74326002,6,1,15
74521966,0,298046460,1065394320,265369,226791,29767799,0.0,0.0,0,0,0.008,0.006,0.79999995,1.25,0,0,0.03,0.0,0.0,-0.03,0.0,-74521966,6,1,15
74721742,0,298046460,1065394320,265366,226787,29767999,0.0,0.0,0,0,0.008,0.006,0.79999995,1.25,0,0,0.04,0.0,-0.02,-0.03,0.0,-74721742,6,1,15
74938064,0,298046460,1065394320,265364,226786,29768199,0.0,0.0,0,0,0.008,0.006,0.79999995,1.25,0,0,0.02,-0.02,0.0,-0.01,0.0,-74938064,6,1,15
75134875,0,298046460,1065394320,265360,226782,29768399,0.0,0.0,0,0,0.009000001,0.006,0.79999995,1.25,0,0,0.049999997,-0.01,0.01,0.049999997,0.0,-75134875,6,1,15
75332832,0,298046460,1065394320,265361,226783,29768599,0.0,0.0,0,0,0.009000001,0.006,0.79999995,1.25,0,0,0.01,0.0,0.0,-0.01,0.0,-75332832,6,1,15
75530932,0,298046460,1065394320,265362,226783,29768799,0.0,0.0,0,0,0.009000001,0.006,0.79999995,1.25,0,0,0.03,0.01,0.0,0.03,0.0,-75530932,6,1,15
75731278,0,298046460,1065394320,265362,226784,29768999,0.0,0.0,0,0,0.009000001,0.006,0.79999995,1.25,0,0,0.02,0.0,-0.01,-0.01,0.0,-75731278,6,1,15
75926810,0,298046460,1065394320,265362,226784,29769199,0.0,0.0,0,0,0.008,0.006,0.79999995,1.25,0,0,0.049999997,-0.02,0.0,-0.04,0.0,-75926810,6,1,15
76123050,0,298046460,1065394320,265361,226783,29769399,0.0,0.0,0,0,0.008,0.006,0.79999995,1.25,0,0,0.089999996,0.0,0.0,0.089999996,0.0,-76123050,6,1,15
76319117,0,298046460,1065394320,265362,226783,29769599,0.0,0.0,0,0,0.008,0.006,0.79999995,1.25,0,0,0.02,-0.02,0.0,0.0,0.0,-76319117,6,1,15
76537976,0,298046460,1065394320,265360,226781,29769799,0.0,0.0,0,0,0.008,0.006,0.79999995,1.25,0,0,0.01,-0.01,-0.01,0.0,0.0,-76537976,6,1,15
76734189,0,298046460,1065394320,265361,226783,29769999,0.0,0.0,0,0,0.008,0.006,0.79999995,1.25,0,0,0.03,0.02,0.0,-0.02,0.0,-76734189,6,1,15
76936678,0,298046460,1065394320,265363,226785,29770199,0.0,0.0,0,0,0.008,0.006,0.79999995,1.25,0,0,0.07,-0.01,0.0,-0.07,0.0,-76936678,6,1,15
77134018,0,298046460,1065394320,265362,226784,29770399,0.0,0.0,0,0,0.009000001,0.006,0.79999995,1.25,0,0,0.01,0.0,0.0,-0.01,0.0,-77134018,6,1,15
77331127,0,298046460,1065394320,265360,226782,29770599,0.0,0.0,0,0,0.009000001,0.006,0.79999995,1.25,0,0,0.02,-0.01,0.0,-0.01,0.0,-77331127,6,1,15
77530114,0,298046460,1065394320,265361,226782,29770799,0.0,0.0,0,0,0.009000001,0.006,0.79999995,1.25,0,0,0.02,0.0,0.02,0.0,0.0,-77530114,6,1,15
77729271,0,298046460,1065394320,265360,226782,29770999,0.0,0.0,0,0,0.009000001,0.006,0.79999995,1.25,0,0,0.03,0.0,0.0,0.03,0.0,-77729271,6,1,15
77926113,0,298046460,1065394319,265363,226784,29771199,0.0,0.0,0,0,0.008,0.006,0.79999995,1.25,0,0,0.03,0.0,-0.02,0.0,0.0,-77926113,6,1,15
78123093,0,298046460,1065394319,265365,226787,29771399,0.0,0.0,0,0,0.008,0.006,0.79999995,1.25,0,0,0.04,-0.03,0.0,-0.02,0.0,-78123093,6,1,15
78321910,0,298046460,1065394319,265365,226787,29771599,0.0,0.0,0,0,0.008,0.006,0.79999995,1.25,0,0,0.02,0.01,0.02,-0.01,0.0,-78321910,6,1,15
78526969,0,298046460,1065394319,265365,226787,29771799,0.0,0.0,0,0,0.008,0.006,0.79999995,1.24,0,0,0.02,-0.01,0.0,-0.01,0.0,-78526969,6,1,15
78727962,0,298046460,1065394319,265363,226785,29771999,0.0,0.0,0,0,0.008,0.006,0.79999995,1.24,0,0,0.04,0.0,0.02,-0.04,0.0,-78727962,6,1,15
78931196,0,298046460,1065394319,265360,226782,29772199,0.0,0.0,0,0,0.008,0.006,0.79999995,1.24,0,0,0.01,0.0,0.0,0.0,0.0,-78931196,6,1,15
79135037,0,298046460,1065394319,265360,226782,29772399,0.0,0.0,0,0,0.008,0.006,0.79999995,1.24,0,0,0.02,0.0,0.01,0.0,0.0,-79135037,6,1,15
79336680,0,298046460,1065394319,265357,226779,29772599,0.0,0.0,0,0,0.008,0.006,0.79999995,1.24,0,0,0.02,0.01,0.0,0.01,0.0,-79336680,6,1,15
79539941,0,298046460,1065394319,265357,226779,29772799,0.0,0.0,0,0,0.009000001,0.006,0.79999995,1.24,0,0,0.03,0.0,0.01,0.03,0.0,-79539941,6,1,15
79742128,0,298046460,1065394319,265358,226780,29772999,0.0,0.0,0,0,0.009000001,0.006,0.79999995,1.24,0,0,0.04,-0.02,0.0,0.04,0.0,-79742128,6,1,15
79942211,0,298046460,1065394319,265360,226782,29773199,0.0,0.0,0,0,0.008,0.006,0.79999995,1.25,0,0,0.02,0.0,-0.01,-0.01,0.0,-79942211,6,1,15
80142224,0,298046460,1065394319,265361,226782,29773399,0.0,0.0,0,0,0.008,0.006,0.79999995,1.25,0,0,0.049999997,0.03,-0.01,-0.03,0.0,-80142224,6,1,15
80338960,0,298046460,1065394319,265359,226781,29773599,0.0,0.0,0,0,0.008,0.006,0.79999995,1.25,0,0,0.01,0.0,0.0,-0.01,0.0,-80338960,6,1,15
80542377,0,298046460,1065394319,265358,226780,29773799,0.0,0.0,0,0,0.008,0.006,0.79999995,1.25,0,0,0.04,0.0,-0.02,-0.03,0.0,-80542377,6,1,15
80741226,0,298046460,1065394319,265355,226776,29773999,0.0,0.0,0,0,0.008,0.006,0.79999995,1.25,0,0,0.049999997,0.0,0.0,-0.049999997,0.0,-80741226,6,1,15
80942026,0,298046460,1065394319,265354,226775,29774199,0.0,0.0,0,0,0.008,0.006,0.79999995,1.25,0,0,0.03,0.0,0.03,0.0,0.0,-80942026,6,1,15
81144765,0,298046460,1065394319,265353,226775,29774399,0.0,0.0,0,0,0.009000001,0.006,0.79999995,1.25,0,0,0.03,-0.02,0.0,-0.02,0.0,-81144765,6,1,15
81324753,0,298046460,1065394319,265355,226776,29774599,0.0,0.0,0,0,0.009000001,0.006,0.79999995,1.25,0,0,0.01,0.0,0.0,-0.01,0.0,-81324753,6,1,15
81544166,0,298046460,1065394319,265353,226775,29774799,0.0,0.0,0,0,0.009000001,0.006,0.79999995,1.25,0,0,0.0,0.0,0.0,0.0,0.0,-81544166,6,1,15
81725341,0,298046460,1065394319,265354,226775,29774999,0.0,0.0,0,0,0.009000001,0.006,0.79999995,1.25,0,0,0.03,-0.01,-0.02,0.01,0.0,-81725341,6,1,15
82008818,0,298046458,1065394314,265320,226742,29775199,0.0,0.0,0,0,0.008,0.0050000004,0.79999995,1.24,0,0,0.02,0.02,0.0,0.0,0.0,-82008818,6,1,15
82236744,0,298046458,1065394314,265307,226729,29775399,0.0,0.0,0,0,0.008,0.0050000004,0.79999995,1.24,0,0,0.02,0.01,0.01,0.0,0.0,-82236744,6,1,15
82424476,0,298046458,1065394314,265307,226728,29775599,0.0,0.0,0,0,0.008,0.006,0.79999995,1.24,0,0,0.04,0.02,0.02,0.03,0.0,-82424476,6,1,15
82608974,0,298046458,1065394314,265310,226731,29775799,0.0,0.0,0,0,0.008,0.006,0.79999995,1.24,0,0,0.06,0.0,0.0,-0.06,0.0,-82608974,6,1,15
82816822,0,298046458,1065394314,265310,226732,29775999,0.0,0.0,0,0,0.008,0.006,0.79999995,1.24,0,0,0.049999997,-0.01,0.02,0.04,0.0,-82816822,6,1,15
83025937,0,298046458,1065394314,265312,226734,29776199,0.0,0.0,0,0,0.008,0.006,0.79999995,1.24,0,0,0.04,0.0,-0.01,0.03,0.0,-83025937,6,1,15
83212927,0,298046458,1065394314,265313,226735,29776399,0.0,0.0,0,0,0.008,0.006,0.79999995,1.24,0,0,0.01,0.01,0.0,0.0,0.0,-83212927,6,1,15
83417973,0,298046458,1065394314,265313,226735,29776599,0.0,0.0,0,0,0.008,0.006,0.79999995,1.24,0,0,0.04,0.01,-0.01,0.04,0.0,-83417973,6,1,15
83625988,0,298046458,1065394314,265313,226735,29776799,0.0,0.0,0,0,0.009000001,0.006,0.79999995,1.24,0,0,0.07,-0.02,-0.03,0.06,0.0,-83625988,6,1,15
83813219,0,298046458,1065394314,265314,226735,29776999,0.0,0.0,0,0,0.009000001,0.006,0.79999995,1.24,0,0,0.04,0.01,0.02,0.03,0.0,-83813219,6,1,15
84021283,0,298046458,1065394313,265320,226742,29777199,0.0,0.0,0,0,0.008,0.0050000004,0.79999995,1.24,0,0,0.089999996,0.03,0.0,-0.08,0.0,-84021283,6,1,15
84229335,0,298046457,1065394313,265310,226731,29777399,0.0,0.0,0,0,0.008,0.006,0.79999995,1.4599999,0,0,0.02,-0.01,-0.01,0.0,0.0,-84229335,6,1,15
84418972,0,298046457,1065394313,265305,226727,29777599,0.0,0.0,0,0,0.008,0.006,0.79999995,1.4599999,0,0,0.02,-0.01,0.0,0.01,0.0,-84418972,6,1,15
84628137,0,298046458,1065394313,265300,226722,29777799,0.0,0.0,0,0,0.008,0.006,0.79999995,1.4599999,0,0,0.02,0.0,-0.02,0.01,0.0,-84628137,6,1,15
84816817,0,298046458,1065394313,265302,226724,29777999,0.0,0.0,0,0,0.008,0.006,0.79999995,1.4599999,0,0,0.03,0.01,0.0,-0.02,0.0,-84816817,6,1,15
85026333,0,298046458,1065394313,265302,226723,29778199,0.0,0.0,0,0,0.008,0.006,0.79999995,1.4599999,0,0,0.01,0.01,0.0,0.0,0.0,-85026333,6,1,15
85214321,0,298046458,1065394313,265303,226725,29778399,0.0,0.0,0,0,0.009000001,0.006,0.79999995,1.4599999,0,0,0.03,0.01,0.0,-0.03,0.0,-85214321,6,1,15
85422147,0,298046458,1065394313,265304,226726,29778599,0.0,0.0,0,0,0.009000001,0.006,0.79999995,1.4599999,0,0,0.03,0.0,-0.01,-0.03,0.0,-85422147,6,1,15
85609933,0,298046458,1065394313,265305,226727,29778799,0.0,0.0,0,0,0.009000001,0.007,0.79999995,1.4599999,0,0,0.049999997,-0.01,-0.01,-0.04,0.0,-85609933,6,1,15
85818161,0,298046458,1065394313,265309,226730,29778999,0.0,0.0,0,0,0.009000001,0.007,0.79999995,1.4599999,0,0,0.049999997,0.01,-0.01,-0.04,0.0,-85818161,6,1,15
85979208,0,298046460,1065394319,265349,226770,29779199,0.0,0.0,0,0,0.008,0.006,0.79999995,1.4599999,0,0,0.03,-0.01,0.0,-0.02,0.0,-85979208,6,1,15
86179809,0,298046460,1065394320,265364,226786,29779399,0.0,0.0,0,0,0.008,0.006,0.79999995,1.4599999,0,0,0.01,0.0,0.0,0.01,0.0,-86179809,6,1,15
86380573,0,298046460,1065394319,265370,226791,29779599,0.0,0.0,0,0,0.009000001,0.006,0.79999995,1.4599999,0,0,0.02,0.0,0.01,0.01,0.0,-86380573,6,1,15
86575896,0,298046460,1065394319,265365,226787,29779799,0.0,0.0,0,0,0.009000001,0.006,0.79999995,1.4599999,0,0,0.02,0.01,0.0,0.01,0.0,-86575896,6,1,15
86776844,0,298046460,1065394319,265361,226783,29779999,0.0,0.0,0,0,0.009000001,0.007,0.79999995,1.4599999,0,0,0.08,0.02,0.03,0.07,0.0,-86776844,6,1,15
86979788,0,298046460,1065394319,265358,226780,29780199,0.0,0.0,0,0,0.009000001,0.007,0.79999995,1.4599999,0,0,0.04,0.0,-0.01,-0.04,0.0,-86979788,6,1,15
87176819,0,298046460,1065394319,265355,226777,29780399,0.0,0.0,0,0,0.009000001,0.007,0.79999995,1.4599999,0,0,0.03,-0.01,0.02,-0.02,0.0,-87176819,6,1,15
87380369,0,298046460,1065394319,265355,226777,29780599,0.0,0.0,0,0,0.009000001,0.007,0.79999995,1.4599999,0,0,0.03,0.0,0.01,0.02,0.0,-87380369,6,1,15
87579885,0,298046460,1065394319,265356,226777,29780799,0.0,0.0,0,0,0.009000001,0.007,0.79999995,1.4599999,0,0,0.04,0.02,0.0,0.03,0.0,-87579885,6,1,15
87779941,0,298046460,1065394319,265357,226778,29780999,0.0,0.0,0,0,0.009000001,0.007,0.79999995,1.4599999,0,0,0.02,0.01,0.01,0.0,0.0,-87779941,6,1,15
87943989,0,298046460,1065394319,265354,226776,29781199,0.0,0.0,0,0,0.008,0.006,0.79999995,1.4599999,0,0,0.06,0.0,-0.03,-0.049999997,0.0,-87943989,6,1,15
88128822,0,298046460,1065394319,265356,226778,29781399,0.0,0.0,0,0,0.008,0.006,0.79999995,1.4599999,0,0,0.049999997,0.02,0.01,0.04,0.0,-88128822,6,1,15
88335784,0,298046460,1065394319,265359,226781,29781599,0.0,0.0,0,0,0.008,0.006,0.79999995,1.4599999,0,0,0.049999997,0.0,-0.01,-0.04,0.0,-88335784,6,1,15
88541228,0,298046460,1065394319,265359,226781,29781799,0.0,0.0,0,0,0.008,0.006,0.79999995,1.4599999,0,0,0.0,0.0,0.0,0.0,0.0,-88541228,6,1,15
88748303,0,298046460,1065394320,265358,226780,29781999,0.0,0.0,0,0,0.008,0.006,0.79999995,1.4599999,0,0,0.03,0.01,0.0,-0.03,0.0,-88748303,6,1,15
88931949,0,298046460,1065394320,265355,226777,29782199,0.0,0.0,0,0,0.008,0.006,0.79999995,1.4599999,0,0,0.06,0.0,0.02,0.06,0.0,-88931949,6,1,15
89140519,0,298046460,1065394319,265354,226776,29782399,0.0,0.0,0,0,0.009000001,0.006,0.79999995,1.4599999,0,0,0.049999997,0.0,0.0,0.049999997,0.0,-89140519,6,1,15
89344774,0,298046460,1065394319,265355,226777,29782599,0.0,0.0,0,0,0.009000001,0.006,0.79999995,1.4599999,0,0,0.03,0.0,0.0,0.03,0.0,-89344774,6,1,15
89532156,0,298046460,1065394319,265356,226778,29782799,0.0,0.0,0,0,0.009000001,0.007,0.79999995,1.4599999,0,0,0.02,0.01,0.01,0.0,0.0,-89532156,6,1,15
89736857,0,298046460,1065394319,265353,226775,29782999,0.0,0.0,0,0,0.009000001,0.007,0.79999995,1.4599999,0,0,0.03,0.02,-0.01,-0.02,0.0,-89736857,6,1,15
89941774,0,298046460,1065394319,265360,226781,29783199,0.0,0.0,0,0,0.008,0.006,0.79999995,1.4599999,0,0,0.03,0.02,0.01,0.01,0.0,-89941774,6,1,15
90144781,0,298046460,1065394319,265361,226783,29783399,0.0,0.0,0,0,0.008,0.006,0.79999995,1.4599999,0,0,0.01,-0.01,0.0,0.01,0.0,-90144781,6,1,15
90331897,0,298046460,1065394319,265365,226786,29783599,0.0,0.0,0,0,0.008,0.006,0.79999995,1.4599999,0,0,0.04,0.0,0.02,0.04,0.0,-90331897,6,1,15
90536853,0,298046460,1065394319,265365,226786,29783799,0.0,0.0,0,0,0.008,0.006,0.79999995,1.4599999,0,0,0.02,0.0,0.02,-0.01,0.0,-90536853,6,1,15
90744866,0,298046460,1065394319,265361,226783,29783999,0.0,0.0,0,0,0.008,0.006,0.79999995,1.4599999,0,0,0.03,0.0,0.02,-0.02,0.0,-90744866,6,1,15
90928948,0,298046460,1065394319,265361,226783,29784199,0.0,0.0,0,0,0.008,0.006,0.79999995,1.4599999,0,0,0.01,0.0,0.01,0.0,0.0,-90928948,6,1,15
91134144,0,298046460,1065394319,265361,226783,29784399,0.0,0.0,0,0,0.009000001,0.006,0.79999995,1.4599999,0,0,0.01,0.0,0.01,-0.01,0.0,-91134144,6,1,15
91338173,0,298046460,1065394319,265364,226786,29784599,0.0,0.0,0,0,0.009000001,0.006,0.79999995,1.4599999,0,0,0.02,0.0,-0.02,0.0,0.0,-91338173,6,1,15
91544815,0,298046460,1065394319,265363,226785,29784799,0.0,0.0,0,0,0.009000001,0.007,0.79999995,1.4599999,0,0,0.02,0.0,-0.02,0.01,0.0,-91544815,6,1,15
91728885,0,298046460,1065394319,265364,226786,29784999,0.0,0.0,0,0,0.009000001,0.007,0.79999995,1.4599999,0,0,0.02,0.0,-0.01,0.01,0.0,-91728885,6,1,15
91934036,0,298046460,1065394320,265362,226784,29785199,0.0,0.0,0,0,0.008,0.006,0.79999995,1.4599999,0,0,0.02,0.0,0.0,0.02,0.0,-91934036,6,1,15
92137981,0,298046460,1065394319,265362,226784,29785399,0.0,0.0,0,0,0.008,0.006,0.79999995,1.4599999,0,0,0.01,0.0,0.0,0.01,0.0,-92137981,6,1,15
92343135,0,298046460,1065394319,265360,226782,29785599,0.0,0.0,0,0,0.008,0.006,0.79999995,1.4599999,0,0,0.03,0.01,0.01,0.03,0.0,-92343135,6,1,15
92527093,0,298046460,1065394319,265362,226784,29785799,0.0,0.0,0,0,0.008,0.006,0.79999995,1.4599999,0,0,0.03,0.0,-0.02,-0.01,0.0,-92527093,6,1,15
92732833,0,298046460,1065394319,265362,226784,29785999,0.0,0.0,0,0,0.008,0.006,0.79999995,1.4599999,0,0,0.03,0.02,-0.01,0.0,0.0,-92732833,6,1,15
92939937,0,298046460,1065394319,265364,226786,29786199,0.0,0.0,0,0,0.008,0.006,0.79999995,1.4599999,0,0,0.03,0.0,0.01,0.02,0.0,-92939937,6,1,15
93144139,0,298046460,1065394319,265366,226788,29786399,0.0,0.0,0,0,0.009000001,0.006,0.79999995,1.4599999,0,0,0.049999997,0.0,-0.01,-0.049999997,0.0,-93144139,6,1,15
93348890,0,298046460,1065394319,265364,226786,29786599,0.0,0.0,0,0,0.009000001,0.006,0.79999995,1.4599999,0,0,0.02,0.0,0.0,-0.02,0.0,-93348890,6,1,15
93535163,0,298046460,1065394319,265364,226786,29786799,0.0,0.0,0,0,0.009000001,0.007,0.79999995,1.4599999,0,0,0.03,0.01,-0.01,-0.02,0.0,-93535163,6,1,15
93739922,0,298046460,1065394319,265364,226786,29786999,0.0,0.0,0,0,0.009000001,0.007,0.79999995,1.4599999,0,0,0.01,0.0,-0.01,0.0,0.0,-93739922,6,1,15
93947183,0,298046460,1065394319,265363,226785,29787199,0.0,0.0,0,0,0.008,0.006,0.79999995,1.4599999,0,0,0.01,0.0,0.0,0.0,0.0,-93947183,6,1,15
95140953,0,298046460,1065394319,265364,226786,29788399,0.0,0.0,0,0,0.009000001,0.006,0.79999995,1.4599999,0,0,0.02,-0.01,0.0,0.01,0.0,-95140953,6,1,15
95347932,0,298046460,1065394319,265364,226786,29788599,0.0,0.0,0,0,0.009000001,0.006,0.79999995,1.4599999,0,0,0.049999997,0.01,0.02,0.04,0.0,-95347932,6,1,15
95551086,0,298046460,1065394319,265365,226786,29788799,0.0,0.0,0,0,0.009000001,0.007,0.79999995,1.4599999,0,0,0.04,0.0,0.0,-0.04,0.0,-95551086,6,1,15
95736773,0,298046460,1065394319,265365,226787,29788999,0.0,0.0,0,0,0.009000001,0.007,0.79999995,1.4599999,0,0,0.03,-0.02,-0.01,0.0,0.0,-95736773,6,1,15
96028119,0,298046458,1065394314,265317,226739,29789199,0.0,0.0,0,0,0.008,0.006,0.79999995,1.4599999,0,0,0.02,0.0,-0.01,0.02,0.0,-96028119,6,1,15
96216928,0,298046458,1065394314,265295,226717,29789399,0.0,0.0,0,0,0.008,0.006,0.79999995,1.4599999,0,0,0.01,0.0,0.0,0.0,0.0,-96216928,6,1,15
96427894,0,298046458,1065394314,265287,226708,29789599,0.0,0.0,0,0,0.008,0.006,0.79999995,1.4599999,0,0,0.07,0.0,0.0,0.07,0.0,-96427894,6,1,15
96616812,0,298046458,1065394314,265293,226715,29789799,0.0,0.0,0,0,0.008,0.006,0.79999995,1.4599999,0,0,0.04,0.01,0.02,-0.02,0.0,-96616812,6,1,15
96831909,0,298046458,1065394314,265298,226720,29789999,0.0,0.0,0,0,0.008,0.006,0.79999995,1.4599999,0,0,0.02,0.01,0.02,0.0,0.0,-96831909,6,1,15
97020922,0,298046458,1065394314,265303,226725,29790199,0.0,0.0,0,0,0.008,0.006,0.79999995,1.4599999,0,0,0.02,0.0,0.01,-0.01,0.0,-97020922,6,1,15
97231016,0,298046458,1065394314,265307,226729,29790399,0.0,0.0,0,0,0.009000001,0.006,0.79999995,1.4599999,0,0,0.049999997,-0.02,0.02,-0.04,0.0,-97231016,6,1,15
97421318,0,298046458,1065394314,265305,226727,29790599,0.0,0.0,0,0,0.009000001,0.006,0.79999995,1.4599999,0,0,0.01,0.01,0.0,0.0,0.0,-97421318,6,1,15
97631922,0,298046458,1065394314,265303,226725,29790799,0.0,0.0,0,0,0.009000001,0.007,0.79999995,1.4599999,0,0,0.01,0.01,0.0,0.0,0.0,-97631922,6,1,15
97823210,0,298046458,1065394314,265302,226724,29790999,0.0,0.0,0,0,0.009000001,0.007,0.79999995,1.4599999,0,0,0.07,0.04,-0.01,0.06,0.0,-97823210,6,1,15
97946138,0,298046460,1065394320,265349,226771,29791199,0.0,0.0,0,0,0.008,0.006,0.79999995,1.4599999,0,0,0.02,-0.01,0.01,0.0,0.0,-97946138,6,1,15
98129583,0,298046460,1065394320,265370,226791,29791399,0.0,0.0,0,0,0.008,0.006,0.79999995,1.4599999,0,0,0.01,0.01,0.0,0.0,0.0,-98129583,6,1,15
98331171,0,298046460,1065394320,265375,226797,29791599,0.0,0.0,0,0,0.008,0.006,0.79999995,1.4599999,0,0,0.02,-0.01,0.0,-0.01,0.0,-98331171,6,1,15
98534386,0,298046460,1065394320,265372,226794,29791799,0.0,0.0,0,0,0.009000001,0.006,0.79999995,1.4599999,0,0,0.01,0.0,0.0,-0.01,0.0,-98534386,6,1,15
98739003,0,298046460,1065394320,265368,226790,29791999,0.0,0.0,0,0,0.009000001,0.007,0.79999995,1.4599999,0,0,0.01,0.0,-0.01,0.0,0.0,-98739003,6,1,15
98943229,0,298046460,1065394320,265366,226788,29792199,0.0,0.0,0,0,0.009000001,0.007,0.79999995,1.4599999,0,0,0.0,0.0,0.0,0.0,0.0,-98943229,6,1,15
99126522,0,298046460,1065394320,265362,226784,29792399,0.0,0.0,0,0,0.009000001,0.007,0.79999995,1.4599999,0,0,0.08,0.02,-0.02,-0.07,0.0,-99126522,6,1,15
99329667,0,298046460,1065394320,265360,226782,29792599,0.0,0.0,0,0,0.009000001,0.007,0.79999995,1.4599999,0,0,0.01,0.01,0.01,0.0,0.0,-99329667,6,1,15
99532043,0,298046460,1065394320,265361,226783,29792799,0.0,0.0,0,0,0.009000001,0.007,0.79999995,1.4599999,0,0,0.0,0.0,0.0,0.0,0.0,-99532043,6,1,15
99735018,0,298046460,1065394320,265363,226785,29792999,0.0,0.0,0,0,0.009000001,0.007,0.79999995,1.4599999,0,0,0.049999997,0.01,0.0,-0.049999997,0.0,-99735018,6,1,15
99938938,0,298046460,1065394320,265353,226775,29793199,0.0,0.0,0,0,0.008,0.006,0.79999995,1.4599999,0,0,0.07,0.0,0.0,0.07,0.0,-99938938,6,1,15
100142238,0,298046460,1065394320,265353,226775,29793399,0.0,0.0,0,0,0.008,0.006,0.79999995,1.4599999,0,0,0.049999997,0.0,0.03,0.04,0.0,-100142238,6,1,15
100344002,0,298046460,1065394320,265355,226777,29793599,0.0,0.0,0,0,0.009000001,0.006,0.79999995,1.4599999,0,0,0.04,0.0,-0.02,0.03,0.0,-100344002,6,1,15
100527031,0,298046460,1065394320,265358,226780,29793799,0.0,0.0,0,0,0.009000001,0.006,0.79999995,1.4599999,0,0,0.03,0.0,0.01,0.02,0.0,-100527031,6,1,15
100731011,0,298046460,1065394320,265359,226780,29793999,0.0,0.0,0,0,0.009000001,0.007,0.79999995,1.4599999,0,0,0.07,0.0,0.01,0.06,0.0,-100731011,6,1,15
100934263,0,298046460,1065394320,265359,226781,29794199,0.0,0.0,0,0,0.009000001,0.007,0.79999995,1.4599999,0,0,0.01,0.0,0.0,0.01,0.0,-100934263,6,1,15
101138140,0,298046460,1065394319,265358,226779,29794399,0.0,0.0,0,0,0.009000001,0.007,0.79999995,1.4599999,0,0,0.049999997,0.01,0.0,0.04,0.0,-101138140,6,1,15
101339077,0,298046460,1065394320,265359,226781,29794599,0.0,0.0,0,0,0.009000001,0.007,0.79999995,1.4599999,0,0,0.0,0.0,0.0,0.0,0.0,-101339077,6,1,15
101543008,0,298046460,1065394320,265361,226782,29794799,0.0,0.0,0,0,0.009000001,0.007,0.79999995,1.4599999,0,0,0.02,0.01,-0.01,0.0,0.0,-101543008,6,1,15
101747166,0,298046460,1065394320,265359,226781,29794999,0.0,0.0,0,0,0.009000001,0.007,0.79999995,1.4599999,0,0,0.01,0.01,0.0,0.0,0.0,-101747166,6,1,15
101987005,0,298046460,1065394320,265358,226780,29795199,0.0,0.0,0,0,0.008,0.006,0.79999995,1.4599999,0,0,0.02,0.0,0.0,-0.02,0.0,-101987005,6,1,15
102132118,0,298046460,1065394320,265360,226782,29795399,0.0,0.0,0,0,0.008,0.006,0.79999995,1.4599999,0,0,0.049999997,0.01,0.0,0.04,0.0,-102132118,6,1,15
102335943,0,298046460,1065394319,265357,226779,29795599,0.0,0.0,0,0,0.008,0.006,0.79999995,1.4599999,0,0,0.01,0.0,0.0,-0.01,0.0,-102335943,6,1,15
102543884,0,298046460,1065394319,265354,226776,29795799,0.0,0.0,0,0,0.008,0.006,0.79999995,1.4599999,0,0,0.01,0.0,0.0,-0.01,0.0,-102543884,6,1,15
102751567,0,298046460,1065394319,265353,226775,29795999,0.0,0.0,0,0,0.008,0.006,0.79999995,1.4599999,0,0,0.01,0.01,0.0,0.01,0.0,-102751567,6,1,15
102938100,0,298046460,1065394319,265355,226777,29796199,0.0,0.0,0,0,0.008,0.006,0.79999995,1.4599999,0,0,0.03,0.01,0.0,0.03,0.0,-102938100,6,1,15
103142876,0,298046460,1065394319,265356,226778,29796399,0.0,0.0,0,0,0.009000001,0.006,0.79999995,1.4599999,0,0,0.03,0.0,0.01,0.03,0.0,-103142876,6,1,15
103347933,0,298046460,1065394319,265360,226782,29796599,0.0,0.0,0,0,0.009000001,0.006,0.79999995,1.4599999,0,0,0.01,-0.01,0.0,0.0,0.0,-103347933,6,1,15
103532129,0,298046460,1065394319,265360,226782,29796799,0.0,0.0,0,0,0.009000001,0.007,0.79999995,1.4599999,0,0,0.06,0.0,0.01,-0.049999997,0.0,-103532129,6,1,15
103738181,0,298046460,1065394320,265360,226782,29796999,0.0,0.0,0,0,0.009000001,0.007,0.79999995,1.4599999,0,0,0.01,0.0,0.0,0.01,0.0,-103738181,6,1,15
103941632,0,298046460,1065394320,265362,226784,29797199,0.0,0.0,0,0,0.008,0.006,0.79999995,1.4599999,0,0,0.03,0.0,-0.02,0.02,0.0,-103941632,6,1,15
104144843,0,298046460,1065394320,265367,226788,29797399,0.0,0.0,0,0,0.008,0.006,0.79999995,1.4599999,0,0,0.01,0.0,-0.01,0.0,0.0,-104144843,6,1,15
104327958,0,298046460,1065394320,265366,226788,29797599,0.0,0.0,0,0,0.008,0.006,0.79999995,1.4599999,0,0,0.02,0.0,-0.02,-0.01,0.0,-104327958,6,1,15
104530801,0,298046460,1065394320,265364,226786,29797799,0.0,0.0,0,0,0.009000001,0.006,0.79999995,1.4599999,0,0,0.04,0.0,0.01,-0.03,0.0,-104530801,6,1,15
104734339,0,298046460,1065394320,265361,226782,29797999,0.0,0.0,0,0,0.009000001,0.007,0.79999995,1.4599999,0,0,0.049999997,0.0,0.02,0.049999997,0.0,-104734339,6,1,15
104937986,0,298046461,1065394320,265359,226781,29798199,0.0,0.0,0,0,0.009000001,0.007,0.79999995,1.4599999,0,0,0.049999997,0.02,0.02,0.04,0.0,-104937986,6,1,15
105141939,0,298046460,1065394320,265360,226782,29798399,0.0,0.0,0,0,0.009000001,0.007,0.79999995,1.4599999,0,0,0.03,0.0,0.0,-0.03,0.0,-105141939,6,1,15
105342944,0,298046461,1065394320,265360,226782,29798599,0.0,0.0,0,0,0.009000001,0.007,0.79999995,1.4599999,0,0,0.01,0.01,0.0,0.0,0.0,-105342944,6,1,15
105525907,0,298046460,1065394320,265360,226782,29798799,0.0,0.0,0,0,0.009000001,0.007,0.79999995,1.4599999,0,0,0.04,0.0,-0.02,-0.03,0.0,-105525907,6,1,15
105730949,0,298046461,1065394320,265361,226783,29798999,0.0,0.0,0,0,0.009000001,0.007,0.79999995,1.4599999,0,0,0.02,0.0,0.0,-0.02,0.0,-105730949,6,1,15
106018952,0,298046458,1065394314,265309,226731,29799199,0.0,0.0,0,0,0.008,0.006,0.79999995,1.4599999,0,0,0.0,0.0,0.0,0.0,0.0,-106018952,6,1,15
106225342,0,298046458,1065394314,265293,226715,29799399,0.0,0.0,0,0,0.008,0.006,0.79999995,1.4599999,0,0,0.03,-0.01,0.02,-0.01,0.0,-106225342,6,1,15
106411011,0,298046458,1065394314,265290,226712,29799599,0.0,0.0,0,0,0.008,0.006,0.79999995,1.4599999,0,0,0.04,0.0,-0.02,-0.02,0.0,-106411011,6,1,15
106617535,0,298046458,1065394314,265293,226715,29799799,0.0,0.0,0,0,0.008,0.006,0.79999995,1.4599999,0,0,0.03,0.0,-0.01,0.03,0.0,-106617535,6,1,15
106825467,0,298046458,1065394314,265295,226717,29799999,0.0,0.0,0,0,0.008,0.006,0.79999995,1.4599999,0,0,0.049999997,0.01,0.01,0.049999997,0.0,-106825467,6,1,15
107009981,0,298046458,1065394314,265298,226720,29800199,0.0,0.0,0,0,0.008,0.006,0.79999995,1.4599999,0,0,0.03,-0.03,0.0,0.0,0.0,-107009981,6,1,15
107218913,0,298046458,1065394314,265299,226721,29800399,0.0,0.0,0,0,0.009000001,0.006,0.79999995,1.4599999,0,0,0.08,0.01,0.0,0.07,0.0,-107218913,6,1,15
107425560,0,298046458,1065394314,265301,226723,29800599,0.0,0.0,0,0,0.009000001,0.006,0.79999995,1.4599999,0,0,0.01,0.01,0.0,-0.01,0.0,-107425560,6,1,15
107610998,0,298046458,1065394314,265299,226721,29800799,0.0,0.0,0,0,0.009000001,0.007,0.79999995,1.4599999,0,0,0.01,0.0,-0.01,-0.01,0.0,-107610998,6,1,15
