timestamp,P_X,P_Y,P_Z,time_utc_usec,lat,lon,alt,alt_ellipsoid,pos_itow,s_variance_m_s,c_variance_rad,fix_quality,sAcc,eph,epv,hdop,vdop,noise_per_ms,jamming_indicator,vel_m_s,vel_n_m_s,vel_e_m_s,vel_d_m_s,cog_rad,timestamp_time_relative,status0,status1,fix_type,vel_ned_valid,satellites_used,gps_kind
6821303,0,0,0,1540448233923603,282418752,1129934318,129286,0,368251400,0.22200002,2.3965018,0,0,2.288,4.2640004,0.59,1.23,101,138,0.034,-0.033,-0.007,-0.035,0.0,0,0,0,3,1,18,0
7036593,0,0,0,1540448233923603,282418750,1129934318,129293,0,368251600,0.24900001,2.3965044,0,0,2.2050002,4.111,0.62,1.28,101,138,0.026,-0.025,-0.009000001,-0.056,0.0,0,0,0,3,1,17,0
7233587,0,0,0,1540448233923603,282418751,1129934317,129271,0,368251800,0.256,2.3965073,0,0,2.128,3.9730003,0.59,1.23,108,139,0.028,-0.028,-0.001,-0.083000004,0.0,0,0,0,3,1,18,0
7440563,0,0,0,1540448234923668,282418748,1129934313,129266,0,368252000,0.14600001,2.396509,0,0,2.058,3.8450003,0.59,1.23,108,139,0.035,-0.033,-0.013,-0.004,0.0,0,0,0,3,1,18,0
7634673,0,0,0,1540448234923668,282418748,1129934313,129274,0,368252200,0.216,2.3965116,0,0,1.9990001,3.729,0.59,1.23,108,139,0.029000001,-0.003,0.029000001,-0.024,0.0,0,0,0,3,1,18,0
7829523,0,0,0,1540448234923668,282418750,1129934316,129341,0,368252400,0.254,2.3965142,0,0,1.9380001,3.6200001,0.59,1.23,108,139,0.027,-0.004,-0.026,0.07700001,0.0,0,0,0,3,1,18,0
8028524,0,0,0,1540448234923668,282418748,1129934316,129295,0,368252600,0.22200002,2.3965168,0,0,1.8830001,3.522,0.62,1.28,108,139,0.067,0.009000001,0.067,-0.075,0.0,0,0,0,3,1,17,0
8220566,0,0,0,1540448234923668,282418749,1129934317,129290,0,368252800,0.223,2.3965194,0,0,1.8320001,3.4310002,0.59,1.23,108,143,0.026,0.026,0.0,0.030000001,0.0,0,0,0,3,1,18,0
8429615,0,0,0,1540448235923734,282418752,1129934318,129267,0,368253000,0.21800001,2.3965218,0,0,1.7850001,3.3450003,0.59,1.23,108,143,0.071,0.043,0.057000004,0.108,0.0,0,0,0,3,1,18,0
8633588,0,0,0,1540448235923734,282418754,1129934319,129294,0,368253200,0.23900001,2.3965244,0,0,1.743,3.2670002,0.59,1.23,108,143,0.035,0.008,0.034,0.120000005,0.0,0,0,0,3,1,18,0
8831990,0,0,0,1540448235923734,282418756,1129934319,129307,0,368253400,0.178,2.3965266,0,0,1.7030001,3.1940002,0.59,1.23,108,143,0.081,-0.037,-0.072000004,-0.059000004,0.0,0,0,0,3,1,18,0
9025515,0,0,0,1540448235923734,282418757,1129934320,129322,0,368253600,0.24800001,2.3965292,0,0,1.6660001,3.1260002,0.62,1.28,108,143,0.016,-0.014,0.006,0.117000006,0.0,0,0,0,3,1,17,0
9230835,0,0,0,1540448235923734,282418759,1129934323,129330,0,368253800,0.11400001,2.3965306,0,0,1.6320001,3.0630002,0.62,1.28,108,147,0.034,-0.013,0.031000001,0.002,0.0,0,0,0,3,1,17,0
9435583,0,0,0,1540448236923799,282418759,1129934325,129352,0,368254000,0.157,2.3965323,0,0,1.6,3.0040002,0.62,1.28,108,147,0.076000005,0.043,0.062000003,-0.027,0.0,0,0,0,3,1,17,0
9637518,0,0,0,1540448236923799,282418761,1129934326,129353,0,368254200,0.25,2.3965352,0,0,1.5690001,2.9480002,0.62,1.28,108,147,0.065000005,0.049000002,-0.043,0.119,0.0,0,0,0,3,1,17,0
9832583,0,0,0,1540448236923799,282418762,1129934326,129333,0,368254400,0.21000001,2.3965375,0,0,1.5430001,2.897,0.62,1.28,108,147,0.09900001,0.098000005,-0.013,0.057000004,0.0,0,0,0,3,1,17,0
10033522,0,0,0,1540448236923799,282418762,1129934327,129332,0,368254600,0.16600001,2.3965397,0,0,1.5170001,2.8470001,0.59,1.23,108,147,0.089,-0.030000001,0.08400001,-0.024,0.0,0,0,0,3,1,18,0
10237786,0,0,0,1540448236923799,282418763,1129934325,129391,0,368254800,0.17300001,2.3965414,0,0,1.4940001,2.8060002,0.59,1.23,115,147,0.127,0.003,-0.127,0.020000001,0.0,0,0,0,3,1,18,0
10439385,0,0,0,1540448237923865,282418763,1129934322,129447,0,368255000,0.14,2.3965433,0,0,1.4710001,2.7680001,0.59,1.23,115,147,0.046000004,0.045,0.009000001,0.007,0.0,0,0,0,3,1,18,0
10639806,0,0,0,1540448237923865,282418763,1129934320,129470,0,368255200,0.23500001,2.396546,0,0,1.4490001,2.73,0.59,1.23,115,147,0.022000002,-0.016,-0.015000001,0.036000002,0.0,0,0,0,3,1,18,0
10829565,0,0,0,1540448237923865,282418762,1129934319,129508,0,368255400,0.14600001,2.3965473,0,0,1.4280001,2.6940002,0.59,1.23,115,147,0.026,0.015000001,-0.021000002,0.004,0.0,0,0,0,3,1,18,0
11034621,0,0,0,1540448237923865,282418761,1129934319,129583,0,368255600,0.172,2.3965495,0,0,1.4080001,2.66,0.59,1.23,115,147,0.051000003,0.009000001,0.05,-0.017,0.0,0,0,0,3,1,18,0
11232570,0,0,0,1540448237923865,282418758,1129934321,129643,0,368255800,0.215,2.3965518,0,0,1.388,2.6230001,0.59,1.23,115,136,0.038000003,-0.027,-0.027,-0.044000003,0.0,0,0,0,3,1,18,0
11444519,0,0,0,1540448238923930,282418758,1129934319,129671,0,368256000,0.238,2.3965545,0,0,1.368,2.588,0.59,1.23,115,136,0.05,0.030000001,-0.040000003,0.067,0.0,0,0,0,3,1,18,0
11627538,0,0,0,1540448238923930,282418759,1129934320,129714,0,368256200,0.23,2.396557,0,0,1.35,2.555,0.62,1.28,115,136,0.009000001,-0.009000001,0.001,0.023000002,0.0,0,0,0,3,1,17,0
11828587,0,0,0,1540448238923930,282418759,1129934320,129745,0,368256400,0.20400001,2.3965592,0,0,1.332,2.5240002,0.62,1.28,115,136,0.037,-0.011000001,-0.035,-0.041,0.0,0,0,0,3,1,17,0
12032524,0,0,0,1540448238923930,282418761,1129934320,129772,0,368256600,0.26000002,2.3965623,0,0,1.3160001,2.493,0.62,1.28,115,136,0.011000001,0.0050000004,-0.010000001,0.041,0.0,0,0,0,3,1,17,0
12233589,0,0,0,1540448238923930,282418763,1129934320,129794,0,368256800,0.17500001,2.3965645,0,0,1.3000001,2.4640002,0.62,1.28,115,140,0.013,-0.013,-0.001,-0.0050000004,0.0,0,0,0,3,1,17,0
12432239,0,0,0,1540448239923996,282418765,1129934319,129786,0,368257000,0.22200002,2.3965669,0,0,1.284,2.434,0.62,1.28,115,140,0.056,-0.035,-0.044000003,0.067,0.0,0,0,0,3,1,17,0
12634647,0,0,0,1540448239923996,282418766,1129934320,129866,0,368257200,0.126,2.3965683,0,0,1.268,2.4060001,0.62,1.28,115,140,0.061000004,0.015000001,-0.059000004,0.003,0.0,0,0,0,3,1,17,0
12834612,0,0,0,1540448239923996,282418769,1129934320,129878,0,368257400,0.16000001,2.3965704,0,0,1.2550001,2.378,0.62,1.28,115,140,0.045,0.030000001,0.034,0.0,0.0,0,0,0,3,1,17,0
13037885,0,0,0,1540448239923996,282418772,1129934321,129933,0,368257600,0.15400001,2.396572,0,0,1.2440001,2.355,0.62,1.28,115,140,0.094000004,0.09,0.028,-0.017,0.0,0,0,0,3,1,17,0
13235630,0,0,0,1540448239923996,282418774,1129934320,129959,0,368257800,0.157,2.396574,0,0,1.233,2.334,0.62,1.28,115,137,0.14,-0.038000003,-0.135,0.002,0.0,0,0,0,3,1,17,0
13430673,0,0,0,1540448240924061,282418776,1129934318,129958,0,368258000,0.22000001,2.3965764,0,0,1.223,2.315,0.59,1.23,115,137,0.020000001,-0.016,0.013,-0.016,0.0,0,0,0,3,1,18,0
13633585,0,0,0,1540448240924061,282418777,1129934319,130001,0,368258200,0.24700001,2.3965793,0,0,1.213,2.299,0.59,1.23,115,137,0.044000003,0.033,0.029000001,0.07700001,0.0,0,0,0,3,1,18,0
13830761,0,0,0,1540448240924061,282418777,1129934319,130040,0,368258400,0.28,2.3965824,0,0,1.205,2.283,0.62,1.28,115,137,0.016,-0.016,0.002,0.125,0.0,0,0,0,3,1,17,0
14033810,0,0,0,1540448240924061,282418776,1129934320,130094,0,368258600,0.18400002,2.3965845,0,0,1.195,2.2640002,0.59,1.23,115,137,0.079,-0.07700001,-0.018000001,-0.040000003,0.0,0,0,0,3,1,18,0
14233518,0,0,0,1540448240924061,282418775,1129934318,130097,0,368258800,0.20600002,2.396587,0,0,1.1860001,2.243,0.59,1.23,115,139,0.128,0.022000002,-0.126,0.083000004,0.0,0,0,0,3,1,18,0
14438676,0,0,0,1540448241924127,282418773,1129934314,130101,0,368259000,0.177,2.396589,0,0,1.176,2.2220001,0.59,1.23,115,139,0.13100001,-0.078,-0.105000004,-0.003,0.0,0,0,0,3,1,18,0
14630633,0,0,0,1540448241924127,282418771,1129934312,130133,0,368259200,0.23300001,2.3965917,0,0,1.167,2.204,0.59,1.23,115,139,0.045,-0.001,-0.045,0.048,0.0,0,0,0,3,1,18,0
14831668,0,0,0,1540448241924127,282418769,1129934308,130093,0,368259400,0.21100001,2.3965943,0,0,1.156,2.1820002,0.59,1.23,115,139,0.057000004,-0.053000003,0.020000001,-0.049000002,0.0,0,0,0,3,1,18,0
15231541,0,0,0,1540448241924127,282418767,1129934306,130140,0,368259800,0.22500001,2.3965993,0,0,1.138,2.1460001,0.59,1.23,115,143,0.07300001,0.028,0.067,-0.068,0.0,0,0,0,3,1,18,0
15453519,0,0,0,1540448242924193,282418767,1129934304,130109,0,368260000,0.17500001,2.3966014,0,0,1.13,2.1290002,0.59,1.23,115,143,0.051000003,-0.026,-0.044000003,0.012,0.0,0,0,0,3,1,18,0
15633516,0,0,0,1540448242924193,282418768,1129934305,130139,0,368260200,0.22700001,2.3966043,0,0,1.1220001,2.112,0.59,1.23,115,143,0.13800001,0.068,0.120000005,-0.12900001,0.0,0,0,0,3,1,18,0
15831664,0,0,0,1540448242924193,282418768,1129934304,130135,0,368260400,0.13800001,2.3966057,0,0,1.113,2.095,0.59,1.23,115,143,0.031000001,0.014,-0.028,-0.018000001,0.0,0,0,0,3,1,18,0
16025512,0,0,0,1540448242924193,282418768,1129934302,130104,0,368260600,0.246,2.3966086,0,0,1.105,2.0770001,0.59,1.23,115,143,0.002,-0.001,0.001,0.056,0.0,0,0,0,3,1,18,0
16234687,0,0,0,1540448242924193,282418768,1129934302,130119,0,368260800,0.17400001,2.3966105,0,0,1.0960001,2.0630002,0.59,1.23,116,137,0.104,0.086,0.060000002,-0.05,0.0,0,0,0,3,1,18,0
16439885,0,0,0,1540448243924258,282418767,1129934301,130124,0,368261000,0.23200001,2.3966134,0,0,1.0890001,2.0500002,0.59,1.23,116,137,0.082,-0.021000002,-0.079,0.078,0.0,0,0,0,3,1,18,0
16633522,0,0,0,1540448243924258,282418765,1129934297,130073,0,368261200,0.21700001,2.3966157,0,0,1.0810001,2.038,0.59,1.23,116,137,0.133,-0.049000002,-0.123,0.09200001,0.0,0,0,0,3,1,18,0
16832802,0,0,0,1540448243924258,282418763,1129934295,130029,0,368261400,0.264,2.3966188,0,0,1.075,2.029,0.59,1.23,116,137,0.019000001,-0.007,0.018000001,0.054,0.0,0,0,0,3,1,18,0
17031526,0,0,0,1540448243924258,282418762,1129934293,129990,0,368261600,0.246,2.3966217,0,0,1.069,2.0210001,0.59,1.23,116,137,0.047000002,-0.008,-0.046000004,0.035,0.0,0,0,0,3,1,18,0
17233513,0,0,0,1540448243924258,282418760,1129934294,130033,0,368261800,0.16700001,2.3966238,0,0,1.062,2.0110002,0.59,1.23,115,136,0.095000006,0.040000003,0.086,-0.010000001,0.0,0,0,0,3,1,18,0
17450987,0,0,0,1540448244924324,282418759,1129934294,130054,0,368262000,0.28800002,2.396627,0,0,1.056,2.002,0.59,1.23,115,136,0.047000002,0.024,0.041,-0.116000004,0.0,0,0,0,3,1,18,0
17631664,0,0,0,1540448244924324,282418757,1129934293,130062,0,368262200,0.23400001,2.3966298,0,0,1.0500001,1.9920001,0.59,1.23,115,136,0.08800001,-0.07,-0.052,-0.104,0.0,0,0,0,3,1,18,0
17831606,0,0,0,1540448244924324,282418756,1129934293,130086,0,368262400,0.28,2.396633,0,0,1.0430001,1.9810001,0.59,1.23,115,136,0.041,0.025,0.033,-0.126,0.0,0,0,0,3,1,18,0
18032554,0,0,0,1540448244924324,282418756,1129934293,130098,0,368262600,0.135,2.3966346,0,0,1.0370001,1.9710001,0.59,1.23,115,136,0.019000001,0.009000001,-0.017,-0.009000001,0.0,0,0,0,3,1,18,0
18236519,0,0,0,1540448244924324,282418755,1129934292,130097,0,368262800,0.279,2.396638,0,0,1.031,1.96,0.59,1.23,107,142,0.037,-0.008,0.037,-0.127,0.0,0,0,0,3,1,18,0
18431520,0,0,0,1540448245924389,282418754,1129934292,130110,0,368263000,0.256,2.3966405,0,0,1.0250001,1.9490001,0.59,1.23,107,142,0.020000001,0.002,-0.020000001,0.028,0.0,0,0,0,3,1,18,0
18624535,0,0,0,1540448245924389,282418753,1129934291,130087,0,368263200,0.123,2.396642,0,0,1.019,1.9380001,0.59,1.23,107,142,0.020000001,-0.006,0.019000001,0.003,0.0,0,0,0,3,1,18,0
18832549,0,0,0,1540448245924389,282418753,1129934290,130092,0,368263400,0.120000005,2.3966434,0,0,1.013,1.9260001,0.59,1.23,107,142,0.031000001,0.024,-0.020000001,-0.014,0.0,0,0,0,3,1,18,0
19035520,0,0,0,1540448245924389,282418752,1129934290,130111,0,368263600,0.18100001,2.3966455,0,0,1.006,1.9160001,0.59,1.23,107,142,0.015000001,-0.007,0.013,0.016,0.0,0,0,0,3,1,18,0
19235931,0,0,0,1540448245924389,282418752,1129934290,130103,0,368263800,0.263,2.3966482,0,0,1.001,1.9050001,0.59,1.23,100,130,0.010000001,0.004,-0.009000001,0.056,0.0,0,0,0,3,1,18,0
19443513,0,0,0,1540448246924455,282418751,1129934290,130106,0,368264000,0.171,2.3966503,0,0,0.99600005,1.8950001,0.59,1.23,100,130,0.045,0.028,0.035,-0.011000001,0.0,0,0,0,3,1,18,0
19634789,0,0,0,1540448246924455,282418751,1129934290,130133,0,368264200,0.17600001,2.3966522,0,0,0.99000007,1.886,0.59,1.23,100,130,0.044000003,0.039,-0.022000002,-0.045,0.0,0,0,0,3,1,18,0
19834683,0,0,0,1540448246924455,282418750,1129934289,130108,0,368264400,0.187,2.3966541,0,0,0.9850001,1.8750001,0.59,1.23,100,130,0.037,0.006,0.037,-0.016,0.0,0,0,0,3,1,18,0
20034664,0,0,0,1540448246924455,282418750,1129934289,130098,0,368264600,0.17,2.3966563,0,0,0.98,1.866,0.59,1.23,100,130,0.024,-0.016,-0.018000001,-0.010000001,0.0,0,0,0,3,1,18,0
20236665,0,0,0,1540448246924455,282418749,1129934290,130104,0,368264800,0.215,2.3966587,0,0,0.97400004,1.8560001,0.59,1.23,100,133,0.027,0.014,0.023000002,-0.022000002,0.0,0,0,0,3,1,18,0
20432554,0,0,0,1540448247924520,282418749,1129934290,130111,0,368265000,0.134,2.39666,0,0,0.96900004,1.8460001,0.59,1.23,100,133,0.027,-0.026,0.006,-0.003,0.0,0,0,0,3,1,18,0
20634713,0,0,0,1540448247924520,282418748,1129934290,130126,0,368265200,0.18300001,2.3966622,0,0,0.96400005,1.8360001,0.59,1.23,100,133,0.016,-0.016,-0.003,0.013,0.0,0,0,0,3,1,18,0
20832726,0,0,0,1540448247924520,282418747,1129934290,130141,0,368265400,0.21200001,2.3966646,0,0,0.95900005,1.8260001,0.59,1.23,100,133,0.027,0.015000001,-0.022000002,0.022000002,0.0,0,0,0,3,1,18,0
21034560,0,0,0,1540448247924520,282418747,1129934291,130171,0,368265600,0.24200001,2.3966675,0,0,0.95400006,1.817,0.59,1.23,100,133,0.033,0.015000001,0.029000001,-0.056,0.0,0,0,0,3,1,18,0
21226583,0,0,0,1540448247924520,282418747,1129934292,130202,0,368265800,0.16100001,2.3966691,0,0,0.94900006,1.8080001,0.59,1.23,101,138,0.011000001,-0.006,-0.010000001,0.002,0.0,0,0,0,3,1,18,0
21442691,0,0,0,1540448248924586,282418747,1129934293,130232,0,368266000,0.142,2.396671,0,0,0.94400007,1.7990001,0.59,1.23,101,138,0.018000001,0.017,0.003,0.001,0.0,0,0,0,3,1,18,0
21634642,0,0,0,1540448248924586,282418746,1129934293,130260,0,368266200,0.22500001,2.3966737,0,0,0.93900007,1.7910001,0.59,1.23,101,138,0.008,0.004,-0.007,-0.031000001,0.0,0,0,0,3,1,18,0
21833521,0,0,0,1540448248924586,282418746,1129934294,130290,0,368266400,0.21200001,2.3966758,0,0,0.93500006,1.7820001,0.59,1.23,101,138,0.033,0.028,0.017,0.035,0.0,0,0,0,3,1,18,0
22035809,0,0,0,1540448248924586,282418746,1129934295,130291,0,368266600,0.18900001,2.3966782,0,0,0.93000007,1.774,0.59,1.23,101,138,0.030000001,0.016,0.026,0.024,0.0,0,0,0,3,1,18,0
22237800,0,0,0,1540448248924586,282418746,1129934295,130301,0,368266800,0.25300002,2.396681,0,0,0.92600006,1.766,0.59,1.23,101,141,0.008,-0.008,0.0,-0.034,0.0,0,0,0,3,1,18,0
22433562,0,0,0,1540448249924651,282418746,1129934296,130326,0,368267000,0.246,2.396684,0,0,0.92100006,1.7580001,0.59,1.23,101,141,0.011000001,0.010000001,-0.003,0.021000002,0.0,0,0,0,3,1,18,0
22635909,0,0,0,1540448249924651,282418746,1129934296,130347,0,368267200,0.21300001,2.3966863,0,0,0.91700006,1.7500001,0.59,1.23,101,141,0.012,-0.001,-0.012,-0.019000001,0.0,0,0,0,3,1,18,0
22826643,0,0,0,1540448249924651,282418745,1129934297,130361,0,368267400,0.24900001,2.3966892,0,0,0.91200006,1.7420001,0.62,1.28,101,141,0.011000001,0.010000001,0.0050000004,0.043,0.0,0,0,0,3,1,17,0
23031588,0,0,0,1540448249924651,282418745,1129934297,130369,0,368267600,0.14400001,2.3966908,0,0,0.90800005,1.7350001,0.62,1.28,101,141,0.022000002,0.007,-0.021000002,-0.014,0.0,0,0,0,3,1,17,0
23232514,0,0,0,1540448249924651,282418745,1129934297,130399,0,368267800,0.24000001,2.3966932,0,0,0.90400004,1.728,0.62,1.28,101,140,0.015000001,-0.012,-0.008,-0.033,0.0,0,0,0,3,1,17,0
23449569,0,0,0,1540448250924717,282418745,1129934298,130428,0,368268000,0.141,2.3966951,0,0,0.90000004,1.7210001,0.62,1.28,101,140,0.022000002,0.022000002,-0.004,-0.011000001,0.0,0,0,0,3,1,17,0
23629519,0,0,0,1540448250924717,282418744,1129934298,130452,0,368268200,0.245,2.3966978,0,0,0.896,1.7140001,0.62,1.28,101,140,0.037,-0.0050000004,-0.037,0.062000003,0.0,0,0,0,3,1,17,0
23824516,0,0,0,1540448250924717,282418744,1129934298,130455,0,368268400,0.23700002,2.3967006,0,0,0.892,1.7070001,0.62,1.28,101,140,0.007,0.0050000004,-0.004,-0.038000003,0.0,0,0,0,3,1,17,0
24029522,0,0,0,1540448250924717,282418744,1129934298,130464,0,368268600,0.21400002,2.396703,0,0,0.88900006,1.7010001,0.62,1.28,101,140,0.031000001,-0.003,-0.031000001,0.024,0.0,0,0,0,3,1,17,0
24232550,0,0,0,1540448250924717,282418744,1129934299,130488,0,368268800,0.23600002,2.3967059,0,0,0.88500005,1.695,0.62,1.28,101,132,0.0050000004,0.0,0.0050000004,-0.014,0.0,0,0,0,3,1,17,0
24433541,0,0,0,1540448251924782,282418744,1129934300,130510,0,368269000,0.24100001,2.3967087,0,0,0.882,1.6890001,0.62,1.28,101,132,0.009000001,0.003,0.009000001,-0.026,0.0,0,0,0,3,1,17,0
24632527,0,0,0,1540448251924782,282418744,1129934300,130527,0,368269200,0.26000002,2.3967113,0,0,0.87900007,1.6830001,0.62,1.28,101,132,0.021000002,-0.010000001,0.018000001,-0.055000003,0.0,0,0,0,3,1,17,0
24832520,0,0,0,1540448251924782,282418744,1129934301,130555,0,368269400,0.261,2.3967147,0,0,0.87500006,1.6780001,0.59,1.23,101,132,0.014,0.009000001,-0.011000001,0.041,0.0,0,0,0,3,1,18,0
25032521,0,0,0,1540448251924782,282418744,1129934301,130571,0,368269600,0.13000001,2.396716,0,0,0.87200004,1.672,0.59,1.23,101,132,0.024,0.006,-0.023000002,-0.003,0.0,0,0,0,3,1,18,0
25237536,0,0,0,1540448251924782,282418744,1129934302,130595,0,368269800,0.15100001,2.3967178,0,0,0.869,1.667,0.59,1.23,101,133,0.018000001,-0.018000001,-0.003,0.006,0.0,0,0,0,3,1,18,0
25454718,0,0,0,1540448252924848,282418744,1129934302,130618,0,368270000,0.127,2.3967192,0,0,0.86600006,1.6620001,0.62,1.28,101,133,0.012,0.012,-0.002,-0.001,0.0,0,0,0,3,1,17,0
25632722,0,0,0,1540448252924848,282418744,1129934303,130626,0,368270200,0.23300001,2.3967218,0,0,0.864,1.6570001,0.62,1.28,101,133,0.011000001,0.009000001,0.007,0.018000001,0.0,0,0,0,3,1,17,0
25833538,0,0,0,1540448252924848,282418744,1129934303,130641,0,368270400,0.16600001,2.3967237,0,0,0.86100006,1.6520001,0.59,1.23,101,133,0.024,-0.002,-0.024,0.006,0.0,0,0,0,3,1,18,0
26034600,0,0,0,1540448252924848,282418743,1129934303,130659,0,368270600,0.261,2.3967264,0,0,0.85800004,1.6470001,0.62,1.28,101,133,0.018000001,-0.007,0.017,-0.07300001,0.0,0,0,0,3,1,17,0
26235716,0,0,0,1540448252924848,282418743,1129934303,130663,0,368270800,0.24200001,2.3967292,0,0,0.855,1.6420001,0.62,1.28,101,129,0.027,0.009000001,0.026,-0.040000003,0.0,0,0,0,3,1,17,0
26429859,0,0,0,1540448253924913,282418743,1129934304,130682,0,368271000,0.26000002,2.3967323,0,0,0.85200006,1.6370001,0.62,1.28,101,129,0.012,0.009000001,-0.008,0.051000003,0.0,0,0,0,3,1,17,0
26635522,0,0,0,1540448253924913,282418743,1129934304,130687,0,368271200,0.252,2.3967354,0,0,0.84900004,1.6320001,0.62,1.28,101,129,0.018000001,-0.014,-0.011000001,0.07700001,0.0,0,0,0,3,1,17,0
26831536,0,0,0,1540448253924913,282418743,1129934304,130693,0,368271400,0.15,2.3967369,0,0,0.846,1.6270001,0.62,1.28,101,129,0.028,-0.011000001,-0.026,0.0,0.0,0,0,0,3,1,17,0
27035641,0,0,0,1540448253924913,282418742,1129934304,130703,0,368271600,0.18900001,2.396739,0,0,0.84300005,1.6220001,0.62,1.28,101,129,0.019000001,-0.018000001,0.002,0.021000002,0.0,0,0,0,3,1,17,0
27232531,0,0,0,1540448253924913,282418742,1129934304,130708,0,368271800,0.16800001,2.3967412,0,0,0.84000003,1.6170001,0.59,1.23,101,129,0.074,0.037,0.064,-0.021000002,0.0,0,0,0,3,1,18,0
27441119,0,0,0,1540448254924979,282418742,1129934305,130718,0,368272000,0.215,2.3967435,0,0,0.837,1.6110001,0.62,1.28,101,129,0.028,-0.018000001,-0.021000002,0.028,0.0,0,0,0,3,1,17,0
27638608,0,0,0,1540448254924979,282418742,1129934305,130724,0,368272200,0.24300002,2.3967464,0,0,0.83400005,1.6070001,0.62,1.28,101,129,0.023000002,0.021000002,0.010000001,0.059000004,0.0,0,0,0,3,1,17,0
27833517,0,0,0,1540448254924979,282418741,1129934305,130725,0,368272400,0.24300002,2.3967493,0,0,0.83100003,1.6020001,0.62,1.28,101,129,0.0050000004,0.004,0.003,0.025,0.0,0,0,0,3,1,17,0
28033553,0,0,0,1540448254924979,282418741,1129934305,130736,0,368272600,0.23700002,2.3967519,0,0,0.82800007,1.5970001,0.62,1.28,101,129,0.034,0.015000001,-0.030000001,0.047000002,0.0,0,0,0,3,1,17,0
28238571,0,0,0,1540448254924979,282418741,1129934305,130735,0,368272800,0.23900001,2.3967547,0,0,0.82500005,1.5910001,0.59,1.23,101,128,0.023000002,-0.004,-0.023000002,0.037,0.0,0,0,0,3,1,18,0
28439659,0,0,0,1540448255925044,282418741,1129934305,130745,0,368273000,0.24400002,2.3967576,0,0,0.822,1.5860001,0.59,1.23,101,128,0.017,0.013,0.010000001,0.067,0.0,0,0,0,3,1,18,0
28636974,0,0,0,1540448255925044,282418741,1129934305,130740,0,368273200,0.22000001,2.3967602,0,0,0.81900007,1.58,0.59,1.23,101,128,0.037,-0.021000002,-0.031000001,0.048,0.0,0,0,0,3,1,18,0
28839926,0,0,0,1540448255925044,282418740,1129934304,130733,0,368273400,0.21200001,2.3967624,0,0,0.81600004,1.5740001,0.59,1.23,101,128,0.030000001,-0.023000002,-0.019000001,0.038000003,0.0,0,0,0,3,1,18,0
29029237,0,0,0,1540448255925044,282418740,1129934304,130739,0,368273600,0.238,2.3967652,0,0,0.813,1.5680001,0.59,1.23,101,128,0.028,0.023000002,-0.017,0.062000003,0.0,0,0,0,3,1,18,0
29233523,0,0,0,1540448255925044,282418740,1129934303,130744,0,368273800,0.126,2.3967667,0,0,0.81000006,1.562,0.59,1.23,101,133,0.012,-0.011000001,0.0050000004,-0.002,0.0,0,0,0,3,1,18,0
29452703,0,0,0,1540448256925110,282418739,1129934303,130750,0,368274000,0.15200001,2.3967683,0,0,0.80700004,1.557,0.59,1.23,101,133,0.010000001,0.004,0.009000001,-0.002,0.0,0,0,0,3,1,18,0
29636539,0,0,0,1540448256925110,282418739,1129934303,130745,0,368274200,0.24100001,2.3967712,0,0,0.804,1.5510001,0.59,1.23,101,133,0.013,0.009000001,-0.009000001,0.035,0.0,0,0,0,3,1,18,0
29833541,0,0,0,1540448256925110,282418740,1129934303,130752,0,368274400,0.23900001,2.396774,0,0,0.80100006,1.5450001,0.59,1.23,101,133,0.007,0.003,0.007,0.060000002,0.0,0,0,0,3,1,18,0
30033833,0,0,0,1540448256925110,282418740,1129934303,130755,0,368274600,0.19100001,2.396776,0,0,0.799,1.5400001,0.59,1.23,101,133,0.014,-0.012,-0.006,0.013,0.0,0,0,0,3,1,18,0
30234663,0,0,0,1540448256925110,282418740,1129934302,130758,0,368274800,0.15300001,2.3967774,0,0,0.79600006,1.534,0.59,1.23,101,136,0.015000001,0.015000001,-0.002,-0.010000001,0.0,0,0,0,3,1,18,0
30439002,0,0,0,1540448257925176,282418740,1129934302,130770,0,368275000,0.21700001,2.3967798,0,0,0.79300004,1.529,0.59,1.23,101,136,0.027,0.025,-0.011000001,0.033,0.0,0,0,0,3,1,18,0
30637584,0,0,0,1540448257925176,282418740,1129934301,130751,0,368275200,0.21400002,2.3967826,0,0,0.79,1.524,0.59,1.23,101,136,0.006,0.006,0.002,0.012,0.0,0,0,0,3,1,18,0
30836520,0,0,0,1540448257925176,282418740,1129934301,130766,0,368275400,0.13800001,2.3967843,0,0,0.78800005,1.519,0.59,1.23,101,136,0.010000001,0.001,-0.010000001,0.001,0.0,0,0,0,3,1,18,0
31034611,0,0,0,1540448257925176,282418740,1129934301,130763,0,368275600,0.23,2.396787,0,0,0.785,1.5150001,0.59,1.23,101,136,0.010000001,0.010000001,0.0,0.016,0.0,0,0,0,3,1,18,0
31242676,0,0,0,1540448257925176,282418740,1129934301,130773,0,368275800,0.21100001,2.3967893,0,0,0.78300005,1.511,0.59,1.23,101,129,0.009000001,-0.004,-0.008,0.014,0.0,0,0,0,3,1,18,0
31448576,0,0,0,1540448258925241,282418740,1129934300,130785,0,368276000,0.245,2.3967922,0,0,0.781,1.5070001,0.59,1.23,101,129,0.030000001,0.015000001,-0.026,0.060000002,0.0,0,0,0,3,1,18,0
31625519,0,0,0,1540448258925241,282418741,1129934300,130788,0,368276200,0.133,2.3967936,0,0,0.77900004,1.503,0.59,1.23,101,129,0.034,0.034,0.002,0.0,0.0,0,0,0,3,1,18,0
31834694,0,0,0,1540448258925241,282418741,1129934300,130802,0,368276400,0.24800001,2.3967962,0,0,0.777,1.4990001,0.59,1.23,101,129,0.015000001,0.014,0.006,0.085,0.0,0,0,0,3,1,18,0
32032526,0,0,0,1540448258925241,282418742,1129934300,130797,0,368276600,0.24900001,2.396799,0,0,0.77500004,1.4950001,0.59,1.23,101,129,0.016,-0.007,-0.014,0.071,0.0,0,0,0,3,1,18,0
32232520,0,0,0,1540448258925241,282418741,1129934300,130807,0,368276800,0.18900001,2.3968012,0,0,0.77300006,1.4920001,0.59,1.23,102,130,0.029000001,0.001,-0.029000001,0.016,0.0,0,0,0,3,1,18,0
32434701,0,0,0,1540448259925307,282418741,1129934299,130800,0,368277000,0.19900002,2.3968036,0,0,0.771,1.488,0.59,1.23,102,130,0.031000001,-0.0050000004,-0.031000001,-0.039,0.0,0,0,0,3,1,18,0
32629520,0,0,0,1540448259925307,282418742,1129934299,130804,0,368277200,0.116000004,2.3968046,0,0,0.76900005,1.485,0.59,1.23,102,130,0.025,0.022000002,-0.011000001,-0.008,0.0,0,0,0,3,1,18,0
32832201,0,0,0,1540448259925307,282418742,1129934298,130805,0,368277400,0.21700001,2.3968072,0,0,0.767,1.4810001,0.59,1.23,102,130,0.014,-0.013,0.006,0.029000001,0.0,0,0,0,3,1,18,0
33038885,0,0,0,1540448259925307,282418741,1129934298,130798,0,368277600,0.17300001,2.396809,0,0,0.76600003,1.478,0.59,1.23,102,130,0.030000001,-0.030000001,0.003,-0.015000001,0.0,0,0,0,3,1,18,0
33234703,0,0,0,1540448259925307,282418741,1129934298,130820,0,368277800,0.23600002,2.3968117,0,0,0.76400006,1.475,0.59,1.23,102,123,0.030000001,0.018000001,-0.024,0.044000003,0.0,0,0,0,3,1,18,0
33443602,0,0,0,1540448260925372,282418742,1129934298,130838,0,368278000,0.15100001,2.3968134,0,0,0.762,1.4710001,0.59,1.23,102,123,0.017,-0.010000001,-0.014,-0.003,0.0,0,0,0,3,1,18,0
33635624,0,0,0,1540448260925372,282418741,1129934298,130833,0,368278200,0.23500001,2.3968158,0,0,0.76100004,1.468,0.62,1.28,102,123,0.022000002,-0.007,0.020000001,-0.028,0.0,0,0,0,3,1,17,0
33832552,0,0,0,1540448260925372,282418741,1129934298,130816,0,368278400,0.24300002,2.3968189,0,0,0.75900006,1.465,0.62,1.28,102,123,0.007,-0.0050000004,0.004,0.057000004,0.0,0,0,0,3,1,17,0
34035020,0,0,0,1540448260925372,282418741,1129934298,130806,0,368278600,0.22600001,2.3968215,0,0,0.757,1.462,0.62,1.28,102,123,0.030000001,-0.018000001,0.024,0.07700001,0.0,0,0,0,3,1,17,0
34229584,0,0,0,1540448260925372,282418741,1129934299,130821,0,368278800,0.194,2.3968234,0,0,0.75600004,1.4590001,0.62,1.28,102,127,0.05,-0.026,-0.043,0.028,0.0,0,0,0,3,1,17,0
34433522,0,0,0,1540448261925438,282418741,1129934299,130819,0,368279000,0.20300001,2.3968256,0,0,0.754,1.457,0.62,1.28,102,127,0.034,0.015000001,0.030000001,0.038000003,0.0,0,0,0,3,1,17,0
34633127,0,0,0,1540448261925438,282418741,1129934299,130829,0,368279200,0.164,2.3968277,0,0,0.753,1.4540001,0.62,1.28,102,127,0.035,0.029000001,-0.020000001,0.014,0.0,0,0,0,3,1,17,0
34834602,0,0,0,1540448261925438,282418741,1129934299,130856,0,368279400,0.20500001,2.39683,0,0,0.75100005,1.452,0.62,1.28,102,127,0.035,-0.012,-0.033,0.023000002,0.0,0,0,0,3,1,17,0
35025523,0,0,0,1540448261925438,282418741,1129934299,130856,0,368279600,0.25100002,2.396833,0,0,0.75000006,1.45,0.62,1.28,102,127,0.012,0.007,0.009000001,-0.030000001,0.0,0,0,0,3,1,17,0
35234656,0,0,0,1540448261925438,282418741,1129934300,130886,0,368279800,0.22700001,2.3968353,0,0,0.749,1.4480001,0.62,1.28,102,128,0.066,0.042000003,0.051000003,-0.07700001,0.0,0,0,0,3,1,17,0
35441520,0,0,0,1540448262925503,282418742,1129934301,130878,0,368280000,0.256,2.3968384,0,0,0.74700004,1.4460001,0.62,1.28,102,128,0.026,0.002,0.026,-0.058000002,0.0,0,0,0,3,1,17,0
35637594,0,0,0,1540448262925503,282418741,1129934301,130896,0,368280200,0.261,2.3968413,0,0,0.74600005,1.4440001,0.62,1.28,102,128,0.017,-0.004,-0.016,0.096,0.0,0,0,0,3,1,17,0
35836343,0,0,0,1540448262925503,282418741,1129934301,130891,0,368280400,0.164,2.396843,0,0,0.74500006,1.442,0.62,1.28,102,128,0.013,0.011000001,0.007,-0.0050000004,0.0,0,0,0,3,1,17,0
36029522,0,0,0,1540448262925503,282418741,1129934302,130897,0,368280600,0.15300001,2.396845,0,0,0.74300003,1.44,0.62,1.28,102,128,0.037,-0.037,0.001,-0.010000001,0.0,0,0,0,3,1,17,0
36228520,0,0,0,1540448262925503,282418740,1129934302,130907,0,368280800,0.19100001,2.3968472,0,0,0.74200004,1.437,0.62,1.28,102,131,0.024,-0.021000002,-0.011000001,0.018000001,0.0,0,0,0,3,1,17,0
36429515,0,0,0,1540448263925569,282418740,1129934302,130914,0,368281000,0.23200001,2.3968496,0,0,0.74100006,1.4350001,0.62,1.28,102,131,0.028,0.011000001,0.025,-0.032,0.0,0,0,0,3,1,17,0
36628333,0,0,0,1540448263925569,282418740,1129934303,130925,0,368281200,0.21700001,2.396852,0,0,0.739,1.4330001,0.62,1.28,102,131,0.0050000004,0.004,0.003,-0.014,0.0,0,0,0,3,1,17,0
36820544,0,0,0,1540448263925569,282418740,1129934303,130938,0,368281400,0.238,2.3968549,0,0,0.73800004,1.4310001,0.62,1.28,102,131,0.008,-0.008,0.001,0.031000001,0.0,0,0,0,3,1,17,0
37029619,0,0,0,1540448263925569,282418740,1129934303,130929,0,368281600,0.216,2.3968573,0,0,0.73700005,1.429,0.62,1.28,102,131,0.019000001,0.019000001,0.004,0.020000001,0.0,0,0,0,3,1,17,0
37229532,0,0,0,1540448263925569,282418740,1129934304,130932,0,368281800,0.254,2.3968601,0,0,0.73600006,1.4280001,0.62,1.28,102,126,0.009000001,-0.003,-0.009000001,0.07,0.0,0,0,0,3,1,17,0
37437574,0,0,0,1540448264925634,282418740,1129934304,130934,0,368282000,0.24300002,2.396863,0,0,0.734,1.4260001,0.62,1.28,102,126,0.018000001,-0.016,-0.009000001,0.044000003,0.0,0,0,0,3,1,17,0
37629591,0,0,0,1540448264925634,282418739,1129934304,130932,0,368282200,0.238,2.3968654,0,0,0.73300004,1.424,0.62,1.28,102,126,0.013,-0.002,0.013,-0.016,0.0,0,0,0,3,1,17,0
37828526,0,0,0,1540448264925634,282418739,1129934304,130934,0,368282400,0.25100002,2.3968685,0,0,0.73200005,1.422,0.62,1.28,102,126,0.010000001,0.008,0.0050000004,-0.052,0.0,0,0,0,3,1,17,0
38029583,0,0,0,1540448264925634,282418740,1129934304,130943,0,368282600,0.23900001,2.396871,0,0,0.731,1.4200001,0.62,1.28,102,126,0.008,-0.0050000004,-0.006,0.025,0.0,0,0,0,3,1,17,0
38234672,0,0,0,1540448264925634,282418739,1129934304,130945,0,368282800,0.19100001,2.396873,0,0,0.73,1.4180001,0.62,1.28,102,131,0.041,-0.022000002,-0.035,0.022000002,0.0,0,0,0,3,1,17,0
38435866,0,0,0,1540448265925700,282418739,1129934304,130937,0,368283000,0.164,2.3968751,0,0,0.72900003,1.417,0.62,1.28,102,131,0.009000001,0.006,-0.007,0.0050000004,0.0,0,0,0,3,1,17,0
38636625,0,0,0,1540448265925700,282418739,1129934304,130950,0,368283200,0.15100001,2.3968768,0,0,0.72800004,1.4150001,0.62,1.28,102,131,0.044000003,-0.032,-0.031000001,-0.009000001,0.0,0,0,0,3,1,17,0
38836515,0,0,0,1540448265925700,282418738,1129934304,130955,0,368283400,0.12900001,2.3968782,0,0,0.72700006,1.414,0.62,1.28,102,131,0.025,-0.019000001,0.017,-0.003,0.0,0,0,0,3,1,17,0
39036514,0,0,0,1540448265925700,282418738,1129934304,130962,0,368283600,0.22000001,2.3968809,0,0,0.726,1.4120001,0.62,1.28,102,131,0.026,0.016,0.020000001,-0.026,0.0,0,0,0,3,1,17,0
39233531,0,0,0,1540448265925700,282418739,1129934305,130976,0,368283800,0.23200001,2.3968832,0,0,0.725,1.411,0.62,1.28,102,127,0.032,0.010000001,-0.030000001,0.035,0.0,0,0,0,3,1,17,0
39439688,0,0,0,1540448266925765,282418739,1129934304,130966,0,368284000,0.16900001,2.396885,0,0,0.72300005,1.4100001,0.62,1.28,102,127,0.032,-0.028,0.015000001,-0.014,0.0,0,0,0,3,1,17,0
39634865,0,0,0,1540448266925765,282418738,1129934305,130956,0,368284200,0.245,2.396888,0,0,0.72300005,1.409,0.62,1.28,102,127,0.015000001,0.008,0.012,0.055000003,0.0,0,0,0,3,1,17,0
39835674,0,0,0,1540448266925765,282418739,1129934305,130950,0,368284400,0.25800002,2.396891,0,0,0.72200006,1.4080001,0.62,1.28,102,127,0.029000001,0.022000002,-0.019000001,0.078,0.0,0,0,0,3,1,17,0
40034751,0,0,0,1540448266925765,282418739,1129934305,130946,0,368284600,0.136,2.3968925,0,0,0.721,1.4070001,0.62,1.28,102,127,0.010000001,-0.0050000004,0.009000001,-0.002,0.0,0,0,0,3,1,17,0
40235550,0,0,0,1540448266925765,282418739,1129934305,130949,0,368284800,0.25800002,2.396896,0,0,0.72,1.4050001,0.62,1.28,102,131,0.010000001,0.0050000004,-0.009000001,0.039,0.0,0,0,0,3,1,17,0
40431775,0,0,0,1540448267925831,282418739,1129934306,130956,0,368285000,0.22700001,2.3968985,0,0,0.71900004,1.404,0.62,1.28,102,131,0.018000001,-0.018000001,-0.0050000004,0.031000001,0.0,0,0,0,3,1,17,0
40628527,0,0,0,1540448267925831,282418739,1129934306,130949,0,368285200,0.179,2.3969007,0,0,0.71800005,1.4030001,0.62,1.28,102,131,0.051000003,-0.033,0.038000003,-0.025,0.0,0,0,0,3,1,17,0
40830612,0,0,0,1540448267925831,282418738,1129934306,130957,0,368285400,0.194,2.3969028,0,0,0.717,1.4020001,0.62,1.28,102,131,0.025,-0.021000002,-0.014,0.018000001,0.0,0,0,0,3,1,17,0
41030642,0,0,0,1540448267925831,282418738,1129934306,130961,0,368285600,0.19000001,2.396905,0,0,0.716,1.401,0.62,1.28,102,131,0.008,-0.006,0.0050000004,0.014,0.0,0,0,0,3,1,17,0
41234623,0,0,0,1540448267925831,282418738,1129934306,130957,0,368285800,0.24700001,2.3969076,0,0,0.716,1.4000001,0.62,1.28,102,130,0.023000002,0.006,0.022000002,-0.037,0.0,0,0,0,3,1,17,0
41449518,0,0,0,1540448268925896,282418738,1129934306,130959,0,368286000,0.23200001,2.3969104,0,0,0.71500003,1.399,0.62,1.28,102,130,0.040000003,-0.023000002,-0.033,0.05,0.0,0,0,0,3,1,17,0
41629067,0,0,0,1540448268925896,282418738,1129934306,130964,0,368286200,0.25300002,2.3969133,0,0,0.71400005,1.3980001,0.62,1.28,102,130,0.037,0.003,-0.037,0.07,0.0,0,0,0,3,1,17,0
41830846,0,0,0,1540448268925896,282418738,1129934306,130965,0,368286400,0.171,2.3969152,0,0,0.71300006,1.3970001,0.62,1.28,102,130,0.024,0.001,-0.024,0.007,0.0,0,0,0,3,1,17,0
42023561,0,0,0,1540448268925896,282418738,1129934306,130962,0,368286600,0.25100002,2.396918,0,0,0.712,1.3970001,0.62,1.28,102,130,0.029000001,0.002,0.029000001,-0.052,0.0,0,0,0,3,1,17,0
42230770,0,0,0,1540448268925896,282418738,1129934306,130961,0,368286800,0.157,2.39692,0,0,0.712,1.396,0.62,1.28,103,129,0.006,-0.002,-0.006,0.003,0.0,0,0,0,3,1,17,0
42431171,0,0,0,1540448269925962,282418738,1129934306,130958,0,368287000,0.216,2.3969226,0,0,0.711,1.3950001,0.62,1.28,103,129,0.021000002,0.015000001,0.015000001,0.026,0.0,0,0,0,3,1,17,0
42633072,0,0,0,1540448269925962,282418738,1129934307,130974,0,368287200,0.257,2.3969254,0,0,0.71000004,1.394,0.62,1.28,103,129,0.017,0.0050000004,0.016,-0.048,0.0,0,0,0,3,1,17,0
42829574,0,0,0,1540448269925962,282418738,1129934307,130983,0,368287400,0.256,2.3969283,0,0,0.71000004,1.393,0.62,1.28,103,129,0.003,0.001,0.003,0.071,0.0,0,0,0,3,1,17,0
43032571,0,0,0,1540448269925962,282418739,1129934308,130983,0,368287600,0.18900001,2.3969302,0,0,0.70900005,1.3920001,0.62,1.28,103,129,0.012,0.012,-0.002,-0.014,0.0,0,0,0,3,1,17,0
43240308,0,0,0,1540448269925962,282418739,1129934308,130988,0,368287800,0.18300001,2.3969324,0,0,0.708,1.3920001,0.62,1.28,103,132,0.017,0.014,0.010000001,0.011000001,0.0,0,0,0,3,1,17,0
43443576,0,0,0,1540448270926028,282418739,1129934308,130983,0,368288000,0.23,2.3969352,0,0,0.708,1.391,0.62,1.28,103,132,0.021000002,-0.013,-0.016,0.026,0.0,0,0,0,3,1,17,0
43635617,0,0,0,1540448270926028,282418739,1129934308,130981,0,368288200,0.19500001,2.3969374,0,0,0.707,1.3900001,0.62,1.28,103,132,0.0050000004,-0.004,0.003,-0.007,0.0,0,0,0,3,1,17,0
43837581,0,0,0,1540448270926028,282418739,1129934308,130977,0,368288400,0.23700002,2.39694,0,0,0.70600003,1.389,0.62,1.28,103,132,0.020000001,0.009000001,-0.018000001,0.024,0.0,0,0,0,3,1,17,0
44033586,0,0,0,1540448270926028,282418739,1129934308,130980,0,368288600,0.192,2.3969421,0,0,0.70600003,1.388,0.62,1.28,103,132,0.037,0.036000002,-0.008,0.024,0.0,0,0,0,3,1,17,0
44233522,0,0,0,1540448270926028,282418740,1129934307,130964,0,368288800,0.22600001,2.3969445,0,0,0.70500004,1.388,0.62,1.28,103,130,0.007,-0.007,-0.003,-0.014,0.0,0,0,0,3,1,17,0
44437514,0,0,0,1540448271926093,282418740,1129934307,130971,0,368289000,0.23600002,2.3969474,0,0,0.70400006,1.3870001,0.62,1.28,103,130,0.018000001,0.017,0.007,0.032,0.0,0,0,0,3,1,17,0
44624619,0,0,0,1540448271926093,282418740,1129934308,130974,0,368289200,0.24300002,2.3969502,0,0,0.70400006,1.386,0.62,1.28,103,130,0.013,0.012,0.006,0.032,0.0,0,0,0,3,1,17,0
44833582,0,0,0,1540448271926093,282418740,1129934308,130985,0,368289400,0.18,2.3969524,0,0,0.703,1.3850001,0.62,1.28,103,130,0.019000001,-0.009000001,-0.017,0.008,0.0,0,0,0,3,1,17,0
45031569,0,0,0,1540448271926093,282418740,1129934308,130991,0,368289600,0.147,2.396954,0,0,0.702,1.3840001,0.62,1.28,103,130,0.016,0.011000001,-0.012,0.004,0.0,0,0,0,3,1,17,0
45235518,0,0,0,1540448271926093,282418740,1129934308,130971,0,368289800,0.252,2.396957,0,0,0.70100003,1.383,0.62,1.28,103,130,0.029000001,-0.010000001,0.028,-0.055000003,0.0,0,0,0,3,1,17,0
45443532,0,0,0,1540448272926159,282418741,1129934308,130967,0,368290000,0.172,2.396959,0,0,0.70100003,1.3820001,0.62,1.28,103,130,0.027,0.011000001,0.024,0.018000001,0.0,0,0,0,3,1,17,0
45648519,0,0,0,1540448272926159,282418741,1129934308,130967,0,368290200,0.238,2.3969615,0,0,0.70000005,1.381,0.59,1.23,103,130,0.030000001,0.001,-0.030000001,0.036000002,0.0,0,0,0,3,1,18,0
45836520,0,0,0,1540448272926159,282418741,1129934308,130962,0,368290400,0.238,2.396964,0,0,0.69900006,1.3800001,0.62,1.28,103,130,0.029000001,-0.022000002,-0.019000001,0.049000002,0.0,0,0,0,3,1,17,0
46042232,0,0,0,1540448272926159,282418741,1129934308,130951,0,368290600,0.21700001,2.3969662,0,0,0.69900006,1.3790001,0.62,1.28,103,130,0.009000001,0.003,-0.009000001,-0.027,0.0,0,0,0,3,1,17,0
46238711,0,0,0,1540448272926159,282418741,1129934308,130961,0,368290800,0.25300002,2.3969693,0,0,0.698,1.3790001,0.62,1.28,103,129,0.023000002,0.001,-0.023000002,0.044000003,0.0,0,0,0,3,1,17,0
46439521,0,0,0,1540448273926224,282418741,1129934308,130961,0,368291000,0.25,2.3969722,0,0,0.697,1.378,0.62,1.28,103,129,0.0050000004,-0.0050000004,-0.002,0.053000003,0.0,0,0,0,3,1,17,0
46634820,0,0,0,1540448273926224,282418741,1129934308,130948,0,368291200,0.23400001,2.3969746,0,0,0.697,1.3770001,0.62,1.28,103,129,0.038000003,0.015000001,-0.035,0.042000003,0.0,0,0,0,3,1,17,0
46839615,0,0,0,1540448273926224,282418741,1129934308,130940,0,368291400,0.16800001,2.3969767,0,0,0.69600004,1.376,0.62,1.28,103,129,0.009000001,0.009000001,0.003,-0.006,0.0,0,0,0,3,1,17,0
47039612,0,0,0,1540448273926224,282418742,1129934308,130940,0,368291600,0.24900001,2.3969796,0,0,0.69600004,1.3750001,0.62,1.28,103,129,0.031000001,0.011000001,0.028,-0.060000002,0.0,0,0,0,3,1,17,0
47230253,0,0,0,1540448273926224,282418742,1129934309,130958,0,368291800,0.238,2.396982,0,0,0.69500005,1.3750001,0.62,1.28,103,130,0.013,-0.010000001,0.009000001,0.045,0.0,0,0,0,3,1,17,0
47452566,0,0,0,1540448274926290,282418742,1129934309,130952,0,368292000,0.14400001,2.3969836,0,0,0.69500005,1.3740001,0.62,1.28,103,130,0.019000001,-0.007,0.018000001,-0.003,0.0,0,0,0,3,1,17,0
47633595,0,0,0,1540448274926290,282418742,1129934310,130954,0,368292200,0.25,2.3969865,0,0,0.694,1.373,0.62,1.28,103,130,0.008,-0.006,-0.0050000004,0.041,0.0,0,0,0,3,1,17,0
47838587,0,0,0,1540448274926290,282418742,1129934310,130950,0,368292400,0.23700002,2.3969893,0,0,0.693,1.3720001,0.62,1.28,103,130,0.028,-0.018000001,-0.021000002,0.042000003,0.0,0,0,0,3,1,17,0
48034711,0,0,0,1540448274926290,282418742,1129934310,130961,0,368292600,0.157,2.396991,0,0,0.693,1.371,0.62,1.28,103,130,0.035,-0.032,0.013,-0.012,0.0,0,0,0,3,1,17,0
48234668,0,0,0,1540448274926290,282418741,1129934311,130970,0,368292800,0.245,2.3969939,0,0,0.69200003,1.371,0.62,1.28,103,129,0.027,-0.024,0.013,-0.045,0.0,0,0,0,3,1,17,0
48434648,0,0,0,1540448275926355,282418741,1129934311,130964,0,368293000,0.24200001,2.3969967,0,0,0.69200003,1.3700001,0.62,1.28,103,129,0.029000001,0.012,-0.027,0.040000003,0.0,0,0,0,3,1,17,0
48639516,0,0,0,1540448275926355,282418742,1129934311,130951,0,368293200,0.259,2.3969998,0,0,0.69100004,1.3690001,0.62,1.28,103,129,0.0050000004,0.003,-0.003,0.102000006,0.0,0,0,0,3,1,17,0
48835585,0,0,0,1540448275926355,282418742,1129934311,130939,0,368293400,0.24000001,2.3970027,0,0,0.69100004,1.3690001,0.62,1.28,103,129,0.016,0.016,0.0,0.025,0.0,0,0,0,3,1,17,0
49035613,0,0,0,1540448275926355,282418742,1129934311,130949,0,368293600,0.136,2.3970044,0,0,0.69000006,1.368,0.62,1.28,103,129,0.012,-0.012,-0.001,0.003,0.0,0,0,0,3,1,17,0
49240402,0,0,0,1540448275926355,282418742,1129934312,130948,0,368293800,0.209,2.3970068,0,0,0.69000006,1.3670001,0.62,1.28,103,133,0.017,0.017,-0.004,0.014,0.0,0,0,0,3,1,17,0
49441514,0,0,0,1540448276926421,282418742,1129934312,130944,0,368294000,0.23900001,2.3970091,0,0,0.689,1.3670001,0.62,1.28,103,133,0.065000005,-0.039,-0.053000003,0.1,0.0,0,0,0,3,1,17,0
49632624,0,0,0,1540448276926421,282418742,1129934311,130927,0,368294200,0.257,2.3970125,0,0,0.689,1.366,0.62,1.28,103,133,0.024,-0.006,-0.023000002,0.085,0.0,0,0,0,3,1,17,0
49825516,0,0,0,1540448276926421,282418741,1129934310,130904,0,368294400,0.15200001,2.3970141,0,0,0.688,1.365,0.62,1.28,103,133,0.063,-0.063,-0.003,0.032,0.0,0,0,0,3,1,17,0
50032700,0,0,0,1540448276926421,282418740,1129934310,130890,0,368294600,0.26000002,2.3970172,0,0,0.688,1.3640001,0.62,1.28,103,133,0.011000001,0.006,-0.009000001,0.07,0.0,0,0,0,3,1,17,0
50234638,0,0,0,1540448276926421,282418741,1129934311,130899,0,368294800,0.23300001,2.3970196,0,0,0.68700004,1.3640001,0.62,1.28,103,121,0.031000001,0.029000001,0.010000001,0.042000003,0.0,0,0,0,3,1,17,0
50436514,0,0,0,1540448277926486,282418741,1129934312,130905,0,368295000,0.208,2.3970222,0,0,0.68700004,1.363,0.59,1.23,103,121,0.026,-0.002,0.026,0.039,0.0,0,0,0,3,1,18,0
50636631,0,0,0,1540448277926486,282418741,1129934312,130886,0,368295200,0.25500003,2.3970249,0,0,0.68700004,1.363,0.59,1.23,103,121,0.021000002,0.010000001,0.018000001,-0.059000004,0.0,0,0,0,3,1,18,0
50836518,0,0,0,1540448277926486,282418741,1129934312,130895,0,368295400,0.264,2.397028,0,0,0.68700004,1.363,0.59,1.23,103,121,0.020000001,0.002,-0.020000001,0.053000003,0.0,0,0,0,3,1,18,0
51039751,0,0,0,1540448277926486,282418741,1129934312,130909,0,368295600,0.24100001,2.3970308,0,0,0.68600005,1.3620001,0.59,1.23,103,121,0.008,-0.003,-0.008,0.023000002,0.0,0,0,0,3,1,18,0
51237560,0,0,0,1540448277926486,282418741,1129934312,130905,0,368295800,0.26000002,2.397034,0,0,0.68600005,1.3610001,0.59,1.23,103,154,0.011000001,0.001,0.011000001,-0.056,0.0,0,0,0,3,1,18,0
51445513,0,0,0,1540448278926552,282418741,1129934312,130915,0,368296000,0.231,2.3970368,0,0,0.68500006,1.3610001,0.59,1.23,103,154,0.020000001,-0.012,-0.016,0.025,0.0,0,0,0,3,1,18,0
51637153,0,0,0,1540448278926552,282418741,1129934312,130905,0,368296200,0.15,2.3970385,0,0,0.68500006,1.36,0.59,1.23,103,154,0.026,0.006,0.025,-0.002,0.0,0,0,0,3,1,18,0
51837435,0,0,0,1540448278926552,282418741,1129934313,130904,0,368296400,0.194,2.3970406,0,0,0.684,1.3590001,0.59,1.23,103,154,0.009000001,-0.009000001,0.0,-0.008,0.0,0,0,0,3,1,18,0
52035523,0,0,0,1540448278926552,282418741,1129934313,130900,0,368296600,0.25300002,2.3970435,0,0,0.684,1.358,0.59,1.23,103,154,0.015000001,0.012,-0.008,0.051000003,0.0,0,0,0,3,1,18,0
52234138,0,0,0,1540448278926552,282418741,1129934313,130898,0,368296800,0.21300001,2.3970459,0,0,0.683,1.3570001,0.59,1.23,103,154,0.021000002,0.018000001,0.011000001,0.028,0.0,0,0,0,3,1,18,0
52427587,0,0,0,1540448279926617,282418741,1129934313,130893,0,368297000,0.21300001,2.3970482,0,0,0.68200004,1.3560001,0.59,1.23,103,154,0.031000001,0.011000001,0.029000001,-0.025,0.0,0,0,0,3,1,18,0
52633519,0,0,0,1540448279926617,282418742,1129934314,130898,0,368297200,0.18400002,2.3970504,0,0,0.68200004,1.355,0.59,1.23,103,154,0.030000001,0.021000002,0.021000002,0.026,0.0,0,0,0,3,1,18,0
52834186,0,0,0,1540448279926617,282418742,1129934314,130910,0,368297400,0.141,2.397052,0,0,0.68100005,1.3540001,0.59,1.23,103,154,0.024,0.019000001,0.015000001,-0.003,0.0,0,0,0,3,1,18,0
53034765,0,0,0,1540448279926617,282418742,1129934314,130923,0,368297600,0.194,2.3970542,0,0,0.68100005,1.3540001,0.59,1.23,103,154,0.006,-0.002,-0.006,-0.011000001,0.0,0,0,0,3,1,18,0
53231553,0,0,0,1540448279926617,282418742,1129934314,130914,0,368297800,0.256,2.397057,0,0,0.68,1.353,0.59,1.23,103,159,0.014,-0.003,-0.014,0.052,0.0,0,0,0,3,1,18,0
53454711,0,0,0,1540448280922751,282418742,1129934314,130925,0,368298000,0.15,2.3970587,0,0,0.68,1.3520001,0.59,1.23,103,159,0.043,-0.033,-0.028,0.009000001,0.0,0,0,0,3,1,18,0
53635055,0,0,0,1540448280922751,282418742,1129934314,130921,0,368298200,0.215,2.397061,0,0,0.679,1.3510001,0.59,1.23,103,159,0.006,-0.006,0.001,0.017,0.0,0,0,0,3,1,18,0
53830656,0,0,0,1540448280922751,282418742,1129934314,130925,0,368298400,0.224,2.397064,0,0,0.679,1.3510001,0.59,1.23,103,159,0.009000001,0.006,0.006,-0.016,0.0,0,0,0,3,1,18,0
54031575,0,0,0,1540448280922751,282418742,1129934315,130938,0,368298600,0.24300002,2.3970668,0,0,0.67800003,1.35,0.59,1.23,103,159,0.013,0.010000001,0.009000001,0.051000003,0.0,0,0,0,3,1,18,0
54232660,0,0,0,1540448280922751,282418742,1129934314,130932,0,368298800,0.177,2.3970685,0,0,0.67800003,1.3490001,0.59,1.23,103,155,0.057000004,-0.034,-0.046000004,0.024,0.0,0,0,0,3,1,18,0
54432579,0,0,0,1540448281922817,282418742,1129934313,130936,0,368299000,0.20700002,2.397071,0,0,0.67700005,1.3490001,0.59,1.23,103,155,0.025,0.018000001,-0.018000001,-0.045,0.0,0,0,0,3,1,18,0
54631528,0,0,0,1540448281922817,282418742,1129934313,130936,0,368299200,0.109000005,2.3970723,0,0,0.67700005,1.348,0.59,1.23,103,155,0.064,-0.061000004,0.017,0.009000001,0.0,0,0,0,3,1,18,0
54830167,0,0,0,1540448281922817,282418741,1129934314,130951,0,368299400,0.19900002,2.3970745,0,0,0.67600006,1.3470001,0.59,1.23,103,155,0.020000001,-0.013,-0.016,-0.024,0.0,0,0,0,3,1,18,0
55024611,0,0,0,1540448281922817,282418742,1129934314,130943,0,368299600,0.21700001,2.3970768,0,0,0.67600006,1.3460001,0.62,1.28,103,155,0.071,0.015000001,0.069000006,-0.058000002,0.0,0,0,0,3,1,17,0
55226610,0,0,0,1540448281922817,282418742,1129934314,130929,0,368299800,0.22900002,2.3970795,0,0,0.675,1.345,0.62,1.28,103,158,0.003,-0.002,0.002,0.026,0.0,0,0,0,3,1,17,0
57825519,0,0,0,1540448284923013,282418743,1129934313,130844,0,368302400,0.26000002,2.39711,0,0,0.66800004,1.3340001,0.62,1.28,104,154,0.003,0.001,-0.003,0.087000005,0.0,0,0,0,3,1,17,0
58233519,0,0,0,1540448284923013,282418744,1129934314,130838,0,368302800,0.202,2.3971152,0,0,0.66800004,1.3330001,0.62,1.28,104,160,0.028,-0.009000001,-0.026,-0.026,0.0,0,0,0,3,1,17,0
58430645,0,0,0,1540448285923079,282418744,1129934314,130851,0,368303000,0.256,2.397118,0,0,0.66800004,1.3330001,0.62,1.28,104,160,0.022000002,-0.006,-0.021000002,0.046000004,0.0,0,0,0,3,1,17,0
58632663,0,0,0,1540448285923079,282418744,1129934314,130858,0,368303200,0.215,2.3971205,0,0,0.66800004,1.3330001,0.62,1.28,104,160,0.038000003,0.012,0.035,-0.025,0.0,0,0,0,3,1,17,0
58832569,0,0,0,1540448285923079,282418744,1129934315,130868,0,368303400,0.16900001,2.3971226,0,0,0.66800004,1.3330001,0.62,1.28,104,160,0.020000001,0.012,0.016,0.008,0.0,0,0,0,3,1,17,0
59028637,0,0,0,1540448285923079,282418745,1129934315,130848,0,368303600,0.24400002,2.3971255,0,0,0.66800004,1.332,0.62,1.28,104,160,0.010000001,0.010000001,0.002,0.017,0.0,0,0,0,3,1,17,0
59231132,0,0,0,1540448285923079,282418745,1129934316,130849,0,368303800,0.14500001,2.3971272,0,0,0.66800004,1.332,0.62,1.28,104,157,0.019000001,0.003,0.019000001,0.002,0.0,0,0,0,3,1,17,0
59448600,0,0,0,1540448286923144,282418745,1129934317,130863,0,368304000,0.24700001,2.39713,0,0,0.66700006,1.332,0.62,1.28,104,157,0.026,0.009000001,0.024,-0.046000004,0.0,0,0,0,3,1,17,0
59628526,0,0,0,1540448286923144,282418745,1129934317,130854,0,368304200,0.19500001,2.3971322,0,0,0.66700006,1.3310001,0.62,1.28,104,157,0.012,-0.003,0.012,-0.007,0.0,0,0,0,3,1,17,0
59827597,0,0,0,1540448286923144,282418746,1129934318,130865,0,368304400,0.24900001,2.3971348,0,0,0.66700006,1.3310001,0.62,1.28,104,157,0.036000002,0.033,0.015000001,0.081,0.0,0,0,0,3,1,17,0
60030901,0,0,0,1540448286923144,282418746,1129934319,130871,0,368304600,0.12900001,2.3971362,0,0,0.666,1.33,0.62,1.28,104,157,0.021000002,0.019000001,-0.009000001,0.002,0.0,0,0,0,3,1,17,0
60223565,0,0,0,1540448286923144,282418746,1129934319,130872,0,368304800,0.162,2.3971384,0,0,0.666,1.33,0.62,1.28,104,156,0.040000003,0.027,0.029000001,0.003,0.0,0,0,0,3,1,17,0
60431514,0,0,0,1540448287923210,282418747,1129934320,130873,0,368305000,0.20700002,2.3971407,0,0,0.666,1.33,0.62,1.28,104,156,0.025,0.002,0.025,-0.017,0.0,0,0,0,3,1,17,0
60627514,0,0,0,1540448287923210,282418747,1129934321,130868,0,368305200,0.21700001,2.3971434,0,0,0.665,1.3290001,0.62,1.28,104,156,0.026,0.021000002,0.015000001,0.030000001,0.0,0,0,0,3,1,17,0
60833190,0,0,0,1540448287923210,282418747,1129934321,130849,0,368305400,0.22600001,2.3971457,0,0,0.665,1.3280001,0.62,1.28,104,156,0.016,-0.016,-0.001,-0.020000001,0.0,0,0,0,3,1,17,0
61028519,0,0,0,1540448287923210,282418747,1129934321,130855,0,368305600,0.25,2.3971486,0,0,0.665,1.3280001,0.62,1.28,104,156,0.017,0.004,-0.017,0.033,0.0,0,0,0,3,1,17,0
61230648,0,0,0,1540448287923210,282418747,1129934321,130835,0,368305800,0.21700001,2.3971512,0,0,0.665,1.327,0.62,1.28,104,158,0.018000001,-0.016,0.008,-0.018000001,0.0,0,0,0,3,1,17,0
61441375,0,0,0,1540448288923275,282418746,1129934321,130856,0,368306000,0.15200001,2.3971531,0,0,0.66400003,1.327,0.62,1.28,104,158,0.034,-0.028,-0.019000001,-0.0050000004,0.0,0,0,0,3,1,17,0
61630597,0,0,0,1540448288923275,282418746,1129934321,130839,0,368306200,0.246,2.3971558,0,0,0.66400003,1.3260001,0.62,1.28,104,158,0.019000001,-0.017,0.009000001,-0.041,0.0,0,0,0,3,1,17,0
61833874,0,0,0,1540448288923275,282418746,1129934321,130838,0,368306400,0.24100001,2.3971584,0,0,0.66300005,1.3240001,0.62,1.28,104,158,0.007,0.0050000004,-0.004,0.020000001,0.0,0,0,0,3,1,17,0
62030590,0,0,0,1540448288923275,282418745,1129934321,130839,0,368306600,0.15900001,2.3971603,0,0,0.66200006,1.3240001,0.62,1.28,104,158,0.018000001,-0.007,-0.016,0.003,0.0,0,0,0,3,1,17,0
62229531,0,0,0,1540448288923275,282418745,1129934321,130830,0,368306800,0.21100001,2.397163,0,0,0.66200006,1.3230001,0.62,1.28,111,160,0.020000001,-0.003,0.019000001,-0.015000001,0.0,0,0,0,3,1,17,0
62429524,0,0,0,1540448289923341,282418745,1129934322,130835,0,368307000,0.162,2.3971646,0,0,0.66200006,1.3230001,0.62,1.28,111,160,0.002,0.002,0.0,0.004,0.0,0,0,0,3,1,17,0
62631925,0,0,0,1540448289923341,282418745,1129934323,130847,0,368307200,0.17300001,2.3971663,0,0,0.661,1.322,0.62,1.28,111,160,0.012,0.012,0.003,0.006,0.0,0,0,0,3,1,17,0
62825509,0,0,0,1540448289923341,282418744,1129934323,130867,0,368307400,0.187,2.3971686,0,0,0.661,1.322,0.62,1.28,111,160,0.028,-0.009000001,-0.027,0.011000001,0.0,0,0,0,3,1,17,0
63031808,0,0,0,1540448289923341,282418744,1129934323,130869,0,368307600,0.259,2.3971715,0,0,0.661,1.3230001,0.62,1.28,111,160,0.018000001,-0.017,0.004,-0.082,0.0,0,0,0,3,1,17,0
63231897,0,0,0,1540448289923341,282418744,1129934323,130879,0,368307800,0.21300001,2.397174,0,0,0.661,1.3230001,0.62,1.28,111,154,0.0050000004,0.003,0.004,-0.012,0.0,0,0,0,3,1,17,0
63438643,0,0,0,1540448290923406,282418743,1129934324,130884,0,368308000,0.23,2.3971767,0,0,0.661,1.3230001,0.62,1.28,111,154,0.007,-0.007,0.002,-0.012,0.0,0,0,0,3,1,17,0
63630627,0,0,0,1540448290923406,282418743,1129934325,130897,0,368308200,0.22100002,2.3971791,0,0,0.661,1.3230001,0.62,1.28,111,154,0.060000002,0.003,0.060000002,-0.045,0.0,0,0,0,3,1,17,0
63838747,0,0,0,1540448290923406,282418743,1129934326,130899,0,368308400,0.22900002,2.3971817,0,0,0.661,1.3230001,0.62,1.28,111,154,0.016,0.006,-0.015000001,-0.040000003,0.0,0,0,0,3,1,17,0
64033531,0,0,0,1540448290923406,282418743,1129934326,130915,0,368308600,0.20400001,2.3971841,0,0,0.661,1.3230001,0.62,1.28,111,154,0.015000001,-0.010000001,0.011000001,-0.010000001,0.0,0,0,0,3,1,17,0
64236594,0,0,0,1540448290923406,282418743,1129934327,130928,0,368308800,0.263,2.3971872,0,0,0.661,1.3240001,0.62,1.28,111,162,0.010000001,0.001,0.010000001,-0.043,0.0,0,0,0,3,1,17,0
64428522,0,0,0,1540448291923472,282418743,1129934327,130937,0,368309000,0.192,2.3971894,0,0,0.661,1.3240001,0.62,1.28,111,162,0.021000002,0.021000002,0.002,-0.020000001,0.0,0,0,0,3,1,17,0
64628568,0,0,0,1540448291923472,282418743,1129934327,130964,0,368309200,0.24800001,2.3971922,0,0,0.661,1.3240001,0.62,1.28,111,162,0.023000002,0.004,-0.023000002,0.034,0.0,0,0,0,3,1,17,0
64830661,0,0,0,1540448291923472,282418743,1129934327,130967,0,368309400,0.24700001,2.3971949,0,0,0.661,1.3240001,0.62,1.28,111,162,0.009000001,-0.0050000004,-0.007,0.029000001,0.0,0,0,0,3,1,17,0
65031569,0,0,0,1540448291923472,282418742,1129934328,130976,0,368309600,0.25300002,2.397198,0,0,0.661,1.3240001,0.62,1.28,111,162,0.029000001,-0.028,0.009000001,-0.07,0.0,0,0,0,3,1,17,0
65235631,0,0,0,1540448291923472,282418743,1129934328,131000,0,368309800,0.16600001,2.3971999,0,0,0.661,1.3240001,0.62,1.28,111,158,0.044000003,0.032,0.031000001,-0.0050000004,0.0,0,0,0,3,1,17,0
65448659,0,0,0,1540448292923537,282418743,1129934329,130991,0,368310000,0.157,2.397202,0,0,0.661,1.3240001,0.62,1.28,111,158,0.022000002,0.019000001,0.010000001,-0.003,0.0,0,0,0,3,1,17,0
65635541,0,0,0,1540448292923537,282418743,1129934329,130996,0,368310200,0.24300002,2.3972046,0,0,0.661,1.3240001,0.62,1.28,111,158,0.007,0.003,0.006,-0.025,0.0,0,0,0,3,1,17,0
65846400,0,0,0,1540448292923537,282418744,1129934329,131003,0,368310400,0.20600002,2.397207,0,0,0.661,1.3240001,0.62,1.28,111,158,0.033,0.028,0.017,-0.027,0.0,0,0,0,3,1,17,0
66031521,0,0,0,1540448292923537,282418744,1129934329,130995,0,368310600,0.24700001,2.39721,0,0,0.661,1.3230001,0.62,1.28,111,158,0.018000001,-0.004,0.017,-0.026,0.0,0,0,0,3,1,17,0
66231527,0,0,0,1540448292923537,282418744,1129934330,130996,0,368310800,0.158,2.3972118,0,0,0.661,1.3230001,0.62,1.28,111,160,0.031000001,0.017,0.025,0.007,0.0,0,0,0,3,1,17,0
66431588,0,0,0,1540448293923603,282418744,1129934330,131002,0,368311000,0.24800001,2.3972144,0,0,0.661,1.3230001,0.62,1.28,111,160,0.030000001,-0.030000001,-0.002,-0.074,0.0,0,0,0,3,1,17,0
66631562,0,0,0,1540448293923603,282418744,1129934330,131004,0,368311200,0.142,2.3972163,0,0,0.661,1.3230001,0.62,1.28,111,160,0.027,0.007,-0.026,-0.015000001,0.0,0,0,0,3,1,17,0
66827621,0,0,0,1540448293923603,282418744,1129934330,130998,0,368311400,0.26000002,2.397219,0,0,0.661,1.3230001,0.62,1.28,111,160,0.012,-0.0050000004,0.011000001,-0.045,0.0,0,0,0,3,1,17,0
67027551,0,0,0,1540448293923603,282418744,1129934330,130999,0,368311600,0.23300001,2.3972218,0,0,0.661,1.3230001,0.62,1.28,111,160,0.020000001,-0.015000001,-0.014,0.029000001,0.0,0,0,0,3,1,17,0
67230750,0,0,0,1540448293923603,282418744,1129934330,130977,0,368311800,0.23600002,2.3972242,0,0,0.661,1.3230001,0.62,1.28,110,159,0.030000001,-0.019000001,-0.023000002,0.041,0.0,0,0,0,3,1,17,0
67439786,0,0,0,1540448294923668,282418744,1129934330,130982,0,368312000,0.158,2.3972263,0,0,0.66,1.3230001,0.62,1.28,110,159,0.025,-0.003,-0.024,0.002,0.0,0,0,0,3,1,17,0
67628652,0,0,0,1540448294923668,282418744,1129934330,130980,0,368312200,0.16600001,2.397228,0,0,0.66,1.3230001,0.62,1.28,110,159,0.024,0.015000001,-0.018000001,0.009000001,0.0,0,0,0,3,1,17,0
67829587,0,0,0,1540448294923668,282418745,1129934330,130979,0,368312400,0.21900001,2.3972306,0,0,0.66,1.3240001,0.62,1.28,110,159,0.030000001,0.029000001,0.010000001,0.034,0.0,0,0,0,3,1,17,0
68020660,0,0,0,1540448294923668,282418745,1129934331,130979,0,368312600,0.23200001,2.3972332,0,0,0.66,1.3240001,0.62,1.28,110,159,0.011000001,-0.001,0.011000001,-0.011000001,0.0,0,0,0,3,1,17,0
68226587,0,0,0,1540448294923668,282418745,1129934331,130977,0,368312800,0.23300001,2.3972359,0,0,0.66,1.3240001,0.62,1.28,110,155,0.035,-0.031000001,-0.016,0.058000002,0.0,0,0,0,3,1,17,0
68430748,0,0,0,1540448295923734,282418745,1129934331,130980,0,368313000,0.256,2.3972385,0,0,0.66,1.3240001,0.62,1.28,110,155,0.023000002,-0.004,-0.022000002,0.05,0.0,0,0,0,3,1,17,0
68634655,0,0,0,1540448295923734,282418745,1129934331,130978,0,368313200,0.127,2.39724,0,0,0.66,1.3240001,0.62,1.28,110,155,0.037,0.035,-0.012,0.004,0.0,0,0,0,3,1,17,0
68833420,0,0,0,1540448295923734,282418746,1129934331,131005,0,368313400,0.259,2.397243,0,0,0.66,1.325,0.62,1.28,110,155,0.038000003,0.022000002,-0.031000001,0.11100001,0.0,0,0,0,3,1,17,0
69031525,0,0,0,1540448295923734,282418747,1129934331,130976,0,368313600,0.19700001,2.3972456,0,0,0.66,1.325,0.62,1.28,110,155,0.042000003,0.037,0.020000001,0.033,0.0,0,0,0,3,1,17,0
69231643,0,0,0,1540448295923734,282418747,1129934331,130978,0,368313800,0.22500001,2.397248,0,0,0.661,1.325,0.62,1.28,110,158,0.027,-0.021000002,-0.016,0.030000001,0.0,0,0,0,3,1,17,0
69441515,0,0,0,1540448296923800,282418747,1129934331,130978,0,368314000,0.185,2.3972502,0,0,0.661,1.325,0.62,1.28,110,158,0.030000001,0.030000001,-0.003,0.017,0.0,0,0,0,3,1,17,0
69629525,0,0,0,1540448296923800,282418748,1129934331,130979,0,368314200,0.21000001,2.3972526,0,0,0.661,1.325,0.62,1.28,110,158,0.001,0.0,0.001,-0.013,0.0,0,0,0,3,1,17,0
69829518,0,0,0,1540448296923800,282418748,1129934332,130978,0,368314400,0.186,2.3972547,0,0,0.661,1.3260001,0.62,1.28,110,158,0.024,0.020000001,0.013,-0.014,0.0,0,0,0,3,1,17,0
70030629,0,0,0,1540448296923800,282418748,1129934332,130998,0,368314600,0.171,2.3972566,0,0,0.661,1.3260001,0.62,1.28,110,158,0.006,-0.0050000004,-0.003,0.004,0.0,0,0,0,3,1,17,0
70230628,0,0,0,1540448296923800,282418749,1129934332,131002,0,368314800,0.2,2.3972588,0,0,0.661,1.3260001,0.62,1.28,110,164,0.035,0.034,-0.007,0.026,0.0,0,0,0,3,1,17,0
70430644,0,0,0,1540448297923865,282418749,1129934332,131007,0,368315000,0.26000002,2.3972616,0,0,0.661,1.325,0.62,1.28,110,164,0.023000002,-0.008,0.022000002,-0.109000005,0.0,0,0,0,3,1,17,0
70622871,0,0,0,1540448297923865,282418749,1129934334,131027,0,368315200,0.246,2.3972645,0,0,0.661,1.325,0.62,1.28,110,164,0.078,0.0,0.078,-0.11100001,0.0,0,0,0,3,1,17,0
70831735,0,0,0,1540448297923865,282418750,1129934334,131003,0,368315400,0.135,2.3972661,0,0,0.66,1.3240001,0.62,1.28,110,164,0.055000003,0.021000002,0.051000003,0.010000001,0.0,0,0,0,3,1,17,0
71029622,0,0,0,1540448297923865,282418750,1129934334,130995,0,368315600,0.254,2.397269,0,0,0.66,1.3240001,0.62,1.28,110,164,0.006,0.002,-0.0050000004,0.046000004,0.0,0,0,0,3,1,17,0
71229520,0,0,0,1540448297923865,282418751,1129934335,130987,0,368315800,0.19100001,2.397271,0,0,0.66,1.3240001,0.62,1.28,110,147,0.044000003,0.031000001,0.031000001,0.042000003,0.0,0,0,0,3,1,17,0
71445521,0,0,0,1540448298923931,282418751,1129934336,130985,0,368316000,0.23600002,2.3972738,0,0,0.66,1.3240001,0.62,1.28,110,147,0.029000001,0.015000001,0.025,0.065000005,0.0,0,0,0,3,1,17,0
71627589,0,0,0,1540448298923931,282418752,1129934336,130978,0,368316200,0.24100001,2.3972766,0,0,0.66,1.3240001,0.62,1.28,110,147,0.042000003,0.042000003,0.0,0.063,0.0,0,0,0,3,1,17,0
71824585,0,0,0,1540448298923931,282418753,1129934336,130972,0,368316400,0.119,2.397278,0,0,0.66,1.3240001,0.62,1.28,110,147,0.013,0.011000001,-0.007,-0.0050000004,0.0,0,0,0,3,1,17,0
72030664,0,0,0,1540448298923931,282418753,1129934336,130971,0,368316600,0.254,2.3972807,0,0,0.66,1.3240001,0.62,1.28,110,147,0.009000001,0.003,0.009000001,0.097,0.0,0,0,0,3,1,17,0
72231631,0,0,0,1540448298923931,282418754,1129934336,130966,0,368316800,0.231,2.3972836,0,0,0.66,1.3240001,0.62,1.28,110,150,0.010000001,0.008,0.0050000004,-0.018000001,0.0,0,0,0,3,1,17,0
72431525,0,0,0,1540448299923996,282418754,1129934336,130963,0,368317000,0.18400002,2.3972857,0,0,0.66,1.3240001,0.62,1.28,110,150,0.048,-0.024,-0.041,-0.029000001,0.0,0,0,0,3,1,17,0
72633524,0,0,0,1540448299923996,282418754,1129934335,130971,0,368317200,0.185,2.3972878,0,0,0.661,1.325,0.62,1.28,110,150,0.041,0.003,-0.041,0.016,0.0,0,0,0,3,1,17,0
72835964,0,0,0,1540448299923996,282418754,1129934335,130956,0,368317400,0.23200001,2.3972905,0,0,0.661,1.3260001,0.62,1.28,110,150,0.115,-0.0050000004,0.115,-0.109000005,0.0,0,0,0,3,1,17,0
73038748,0,0,0,1540448299923996,282418754,1129934337,130990,0,368317600,0.257,2.3972933,0,0,0.66200006,1.327,0.62,1.28,110,150,0.025,-0.010000001,-0.023000002,0.049000002,0.0,0,0,0,3,1,17,0
73231530,0,0,0,1540448299923996,282418754,1129934336,130992,0,368317800,0.21700001,2.3972957,0,0,0.66300005,1.3280001,0.62,1.28,110,144,0.056,-0.053000003,-0.018000001,-0.038000003,0.0,0,0,0,3,1,17,0
73446842,0,0,0,1540448300924062,282418754,1129934338,131017,0,368318000,0.20500001,2.3972983,0,0,0.66400003,1.3290001,0.62,1.28,110,144,0.087000005,0.036000002,0.079,0.053000003,0.0,0,0,0,3,1,17,0
73631673,0,0,0,1540448300924062,282418754,1129934338,131005,0,368318200,0.256,2.397301,0,0,0.665,1.33,0.62,1.28,110,144,0.049000002,-0.049000002,0.002,-0.09200001,0.0,0,0,0,3,1,17,0
73835581,0,0,0,1540448300924062,282418755,1129934339,131007,0,368318400,0.21900001,2.3973038,0,0,0.665,1.3290001,0.62,1.28,110,144,0.062000003,0.058000002,0.023000002,-0.07300001,0.0,0,0,0,3,1,17,0
74034712,0,0,0,1540448300924062,282418755,1129934338,130991,0,368318600,0.24300002,2.3973067,0,0,0.665,1.3290001,0.62,1.28,110,144,0.017,-0.016,0.001,0.049000002,0.0,0,0,0,3,1,17,0
