timestamp,roll,pitch,yaw,thrust
8069049,0.0,0.0,0.0,0.0
8073848,0.0,0.0,0.0,0.0
8078717,0.0,0.0,0.0,0.0
8082754,0.0,0.0,0.0,0.0
8086650,0.0,0.0,0.0,0.0
8090657,0.0,0.0,0.0,0.0
8094684,0.0,0.0,0.0,0.0
8098693,0.0,0.0,0.0,0.0
8102734,0.0,0.0,0.0,0.0
8106643,0.0,0.0,0.0,0.0
8110648,0.0,0.0,0.0,0.0
8114680,0.0,0.0,0.0,0.0
8118685,0.0,0.0,0.0,0.0
8122774,0.0,0.0,0.0,0.0
8126647,0.0,0.0,0.0,0.0
8130676,0.0,0.0,0.0,0.0
8134685,0.0,0.0,0.0,0.0
8138692,0.0,0.0,0.0,0.0
8142757,0.0,0.0,0.0,0.0
8146659,0.0,0.0,0.0,0.0
8150686,0.0,0.0,0.0,0.0
8154718,0.0,0.0,0.0,0.0
8158693,0.0,0.0,0.0,0.0
8162782,0.0,0.0,0.0,0.0
8166640,0.0,0.0,0.0,0.0
8170661,0.0,0.0,0.0,0.0
8174639,0.0,0.0,0.0,0.0
8178666,0.0,0.0,0.0,0.0
8182773,0.0,0.0,0.0,0.0
8186642,0.0,0.0,0.0,0.0
8190669,0.0,0.0,0.0,0.0
8194651,0.0,0.0,0.0,0.0
8198690,0.0,0.0,0.0,0.0
8202782,0.0,0.0,0.0,0.0
8206642,0.0,0.0,0.0,0.0
8210687,0.0,0.0,0.0,0.0
8214653,0.0,0.0,0.0,0.0
8218661,0.0,0.0,0.0,0.0
8222779,0.0,0.0,0.0,0.0
8226644,0.0,0.0,0.0,0.0
8230690,0.0,0.0,0.0,0.0
8234655,0.0,0.0,0.0,0.0
8238652,0.0,0.0,0.0,0.0
8242780,0.0,0.0,0.0,0.0
8246678,0.0,0.0,0.0,0.0
8250694,0.0,0.0,0.0,0.0
8254641,0.0,0.0,0.0,0.0
8258674,0.0,0.0,0.0,0.0
8262754,0.0,0.0,0.0,0.0
8266683,0.0,0.0,0.0,0.0
8270698,0.0,0.0,0.0,0.0
8274666,0.0,0.0,0.0,0.0
8278681,0.0,0.0,0.0,0.0
8282758,0.0,0.0,0.0,0.0
8286683,0.0,0.0,0.0,0.0
8290685,0.0,0.0,0.0,0.0
8294661,0.0,0.0,0.0,0.0
8298683,0.0,0.0,0.0,0.0
8302739,0.0,0.0,0.0,0.0
8306684,0.0,0.0,0.0,0.0
8310737,0.0,0.0,0.0,0.0
8314657,0.0,0.0,0.0,0.0
8318676,0.0,0.0,0.0,0.0
8322735,0.0,0.0,0.0,0.0
8326705,0.0,0.0,0.0,0.0
8330722,0.0,0.0,0.0,0.0
8334665,0.0,0.0,0.0,0.0
8338668,0.0,0.0,0.0,0.0
8342711,0.0,0.0,0.0,0.0
8346652,0.0,0.0,0.0,0.0
8350705,0.0,0.0,0.0,0.0
8354671,0.0,0.0,0.0,0.0
8358683,0.0,0.0,0.0,0.0
8362704,0.0,0.0,0.0,0.0
8366681,0.0,0.0,0.0,0.0
8370698,0.0,0.0,0.0,0.0
8374653,0.0,0.0,0.0,0.0
8378709,0.0,0.0,0.0,0.0
8382722,0.0,0.0,0.0,0.0
8386658,0.0,0.0,0.0,0.0
8390728,0.0,0.0,0.0,0.0
8394648,0.0,0.0,0.0,0.0
8398708,0.0,0.0,0.0,0.0
8402717,0.0,0.0,0.0,0.0
8406657,0.0,0.0,0.0,0.0
8410713,0.0,0.0,0.0,0.0
8414699,0.0,0.0,0.0,0.0
8418710,0.0,0.0,0.0,0.0
8422727,0.0,0.0,0.0,0.0
8426694,0.0,0.0,0.0,0.0
8430697,0.0,0.0,0.0,0.0
8434690,0.0,0.0,0.0,0.0
8438670,0.0,0.0,0.0,0.0
8442719,0.0,0.0,0.0,0.0
8446694,0.0,0.0,0.0,0.0
8450654,0.0,0.0,0.0,0.0
8454679,0.0,0.0,0.0,0.0
8458702,0.0,0.0,0.0,0.0
8462712,0.0,0.0,0.0,0.0
8466677,0.0,0.0,0.0,0.0
8470641,0.0,0.0,0.0,0.0
8474675,0.0,0.0,0.0,0.0
8478683,0.0,0.0,0.0,0.0
8482709,0.0,0.0,0.0,0.0
8486687,0.0,0.0,0.0,0.0
8490654,0.0,0.0,0.0,0.0
8494673,0.0,0.0,0.0,0.0
8498727,0.0,0.0,0.0,0.0
8502705,0.0,0.0,0.0,0.0
8506680,0.0,0.0,0.0,0.0
8510664,0.0,0.0,0.0,0.0
8514663,0.0,0.0,0.0,0.0
8518728,0.0,0.0,0.0,0.0
8522706,0.0,0.0,0.0,0.0
8526666,0.0,0.0,0.0,0.0
8530650,0.0,0.0,0.0,0.0
8534677,0.0,0.0,0.0,0.0
8538745,0.0,0.0,0.0,0.0
8542678,0.0,0.0,0.0,0.0
8546695,0.0,0.0,0.0,0.0
8550646,0.0,0.0,0.0,0.0
8554622,0.0,0.0,0.0,0.0
8558730,0.0,0.0,0.0,0.0
8562773,0.0,0.0,0.0,0.0
8566669,0.0,0.0,0.0,0.0
8570648,0.0,0.0,0.0,0.0
8574688,0.0,0.0,0.0,0.0
8578747,0.0,0.0,0.0,0.0
8582743,0.0,0.0,0.0,0.0
8586682,0.0,0.0,0.0,0.0
8590648,0.0,0.0,0.0,0.0
8594687,0.0,0.0,0.0,0.0
8598660,0.0,0.0,0.0,0.0
8602744,0.0,0.0,0.0,0.0
8606672,0.0,0.0,0.0,0.0
8610647,0.0,0.0,0.0,0.0
8614687,0.0,0.0,0.0,0.0
8618630,0.0,0.0,0.0,0.0
8622740,0.0,0.0,0.0,0.0
8626685,0.0,0.0,0.0,0.0
8630632,0.0,0.0,0.0,0.0
8634652,0.0,0.0,0.0,0.0
8638645,0.0,0.0,0.0,0.0
8642752,0.0,0.0,0.0,0.0
8646733,0.0,0.0,0.0,0.0
8650654,0.0,0.0,0.0,0.0
8654662,0.0,0.0,0.0,0.0
8658623,0.0,0.0,0.0,0.0
8662734,0.0,0.0,0.0,0.0
8666651,0.0,0.0,0.0,0.0
8670636,0.0,0.0,0.0,0.0
8674659,0.0,0.0,0.0,0.0
8678646,0.0,0.0,0.0,0.0
8682732,0.0,0.0,0.0,0.0
8686705,0.0,0.0,0.0,0.0
8690637,0.0,0.0,0.0,0.0
8694679,0.0,0.0,0.0,0.0
8698632,0.0,0.0,0.0,0.0
8702721,0.0,0.0,0.0,0.0
8706688,0.0,0.0,0.0,0.0
8710624,0.0,0.0,0.0,0.0
8714652,0.0,0.0,0.0,0.0
8718623,0.0,0.0,0.0,0.0
8722714,0.0,0.0,0.0,0.0
8726699,0.0,0.0,0.0,0.0
8730619,0.0,0.0,0.0,0.0
8734672,0.0,0.0,0.0,0.0
8738628,0.0,0.0,0.0,0.0
8742702,0.0,0.0,0.0,0.0
8746663,0.0,0.0,0.0,0.0
8750627,0.0,0.0,0.0,0.0
8754649,0.0,0.0,0.0,0.0
8758636,0.0,0.0,0.0,0.0
8762717,0.0,0.0,0.0,0.0
8766630,0.0,0.0,0.0,0.0
8770679,0.0,0.0,0.0,0.0
8774677,0.0,0.0,0.0,0.0
8778620,0.0,0.0,0.0,0.0
8782728,0.0,0.0,0.0,0.0
8786642,0.0,0.0,0.0,0.0
8790685,0.0,0.0,0.0,0.0
8794653,0.0,0.0,0.0,0.0
8798629,0.0,0.0,0.0,0.0
8802720,0.0,0.0,0.0,0.0
8806618,0.0,0.0,0.0,0.0
8810662,0.0,0.0,0.0,0.0
8814670,0.0,0.0,0.0,0.0
8818627,0.0,0.0,0.0,0.0
8822725,0.0,0.0,0.0,0.0
8826633,0.0,0.0,0.0,0.0
8830660,0.0,0.0,0.0,0.0
8834711,0.0,0.0,0.0,0.0
8838620,0.0,0.0,0.0,0.0
8842724,0.0,0.0,0.0,0.0
8846633,0.0,0.0,0.0,0.0
8850652,0.0,0.0,0.0,0.0
8854692,0.0,0.0,0.0,0.0
8858626,0.0,0.0,0.0,0.0
8862736,0.0,0.0,0.0,0.0
8866654,0.0,0.0,0.0,0.0
8870690,0.0,0.0,0.0,0.0
8874744,0.0,0.0,0.0,0.0
8878658,0.0,0.0,0.0,0.0
8882755,0.0,0.0,0.0,0.0
8886654,0.0,0.0,0.0,0.0
8890667,0.0,0.0,0.0,0.0
8894733,0.0,0.0,0.0,0.0
8898650,0.0,0.0,0.0,0.0
8902743,0.0,0.0,0.0,0.0
8906664,0.0,0.0,0.0,0.0
8910676,0.0,0.0,0.0,0.0
8914692,0.0,0.0,0.0,0.0
8918704,0.0,0.0,0.0,0.0
8922748,0.0,0.0,0.0,0.0
8926662,0.0,0.0,0.0,0.0
8930703,0.0,0.0,0.0,0.0
8934664,0.0,0.0,0.0,0.0
8938693,0.0,0.0,0.0,0.0
8942751,0.0,0.0,0.0,0.0
8946656,0.0,0.0,0.0,0.0
8950694,0.0,0.0,0.0,0.0
8954668,0.0,0.0,0.0,0.0
8958701,0.0,0.0,0.0,0.0
8962781,0.0,0.0,0.0,0.0
8966662,0.0,0.0,0.0,0.0
8970693,0.0,0.0,0.0,0.0
8974656,0.0,0.0,0.0,0.0
8978691,0.0,0.0,0.0,0.0
8982773,0.0,0.0,0.0,0.0
8986660,0.0,0.0,0.0,0.0
8990682,0.0,0.0,0.0,0.0
8994659,0.0,0.0,0.0,0.0
8998732,0.0,0.0,0.0,0.0
9002779,0.0,0.0,0.0,0.0
9006648,0.0,0.0,0.0,0.0
9010687,0.0,0.0,0.0,0.0
9014662,0.0,0.0,0.0,0.0
9018678,0.0,0.0,0.0,0.0
9022789,0.0,0.0,0.0,0.0
9026654,0.0,0.0,0.0,0.0
9030691,0.0,0.0,0.0,0.0
9034655,0.0,0.0,0.0,0.0
9038714,0.0,0.0,0.0,0.0
9042798,0.0,0.0,0.0,0.0
9046653,0.0,0.0,0.0,0.0
9050678,0.0,0.0,0.0,0.0
9054657,0.0,0.0,0.0,0.0
9058692,0.0,0.0,0.0,0.0
9062799,0.0,0.0,0.0,0.0
9066653,0.0,0.0,0.0,0.0
9070690,0.0,0.0,0.0,0.0
9074654,0.0,0.0,0.0,0.0
9078701,0.0,0.0,0.0,0.0
9082794,0.0,0.0,0.0,0.0
9086683,0.0,0.0,0.0,0.0
9090688,0.0,0.0,0.0,0.0
9094651,0.0,0.0,0.0,0.0
9098684,0.0,0.0,0.0,0.0
9102849,0.0,0.0,0.0,0.0
9106688,0.0,0.0,0.0,0.0
9110700,0.0,0.0,0.0,0.0
9114652,0.0,0.0,0.0,0.0
9118692,0.0,0.0,0.0,0.0
9122718,0.0,0.0,0.0,0.0
9126737,0.0,0.0,0.0,0.0
9130695,0.0,0.0,0.0,0.0
9135443,0.0,0.0,0.0,0.0
9139485,0.0,0.0,0.0,0.0
9143494,0.0,0.0,0.0,0.0
9147447,0.0,0.0,0.0,0.0
9151474,0.0,0.0,0.0,0.0
9155441,0.0,0.0,0.0,0.0
9159505,0.0,0.0,0.0,0.0
9163481,0.0,0.0,0.0,0.0
9167450,0.0,0.0,0.0,0.0
9171495,0.0,0.0,0.0,0.0
9175447,0.0,0.0,0.0,0.0
9179484,0.0,0.0,0.0,0.0
9183486,0.0,0.0,0.0,0.0
9187496,0.0,0.0,0.0,0.0
9191478,0.0,0.0,0.0,0.0
9195444,0.0,0.0,0.0,0.0
9199485,0.0,0.0,0.0,0.0
9203472,0.0,0.0,0.0,0.0
9207503,0.0,0.0,0.0,0.0
9211487,0.0,0.0,0.0,0.0
9215441,0.0,0.0,0.0,0.0
9219474,0.0,0.0,0.0,0.0
9223440,0.0,0.0,0.0,0.0
9227508,0.0,0.0,0.0,0.0
9231447,0.0,0.0,0.0,0.0
9235452,0.0,0.0,0.0,0.0
9239491,0.0,0.0,0.0,0.0
9243443,0.0,0.0,0.0,0.0
9247488,0.0,0.0,0.0,0.0
9251438,0.0,0.0,0.0,0.0
9255441,0.0,0.0,0.0,0.0
9259490,0.0,0.0,0.0,0.0
9263440,0.0,0.0,0.0,0.0
9267499,0.0,0.0,0.0,0.0
9271492,0.0,0.0,0.0,0.0
9275437,0.0,0.0,0.0,0.0
9279491,0.0,0.0,0.0,0.0
9283447,0.0,0.0,0.0,0.0
9287504,0.0,0.0,0.0,0.0
9291485,0.0,0.0,0.0,0.0
9295438,0.0,0.0,0.0,0.0
9299444,0.0,0.0,0.0,0.0
9303447,0.0,0.0,0.0,0.0
9307487,0.0,0.0,0.0,0.0
9311486,0.0,0.0,0.0,0.0
9315458,0.0,0.0,0.0,0.0
9319492,0.0,0.0,0.0,0.0
9323438,0.0,0.0,0.0,0.0
9327508,0.0,0.0,0.0,0.0
9331484,0.0,0.0,0.0,0.0
9335587,0.0,0.0,0.0,0.0
9339476,0.0,0.0,0.0,0.0
9343457,0.0,0.0,0.0,0.0
9347486,0.0,0.0,0.0,0.0
9351485,0.0,0.0,0.0,0.0
9355510,0.0,0.0,0.0,0.0
9360246,0.0,0.0,0.0,0.0
9364250,0.0,0.0,0.0,0.0
9368316,0.0,0.0,0.0,0.0
9372285,0.0,0.0,0.0,0.0
9376248,0.0,0.0,0.0,0.0
9380288,0.0,0.0,0.0,0.0
9384241,0.0,0.0,0.0,0.0
9388280,0.0,0.0,0.0,0.0
9392262,0.0,0.0,0.0,0.0
9396221,0.0,0.0,0.0,0.0
9400271,0.0,0.0,0.0,0.0
9404224,0.0,0.0,0.0,0.0
9408271,0.0,0.0,0.0,0.0
9412253,0.0,0.0,0.0,0.0
9416222,0.0,0.0,0.0,0.0
9420256,0.0,0.0,0.0,0.0
9424231,0.0,0.0,0.0,0.0
9428244,0.0,0.0,0.0,0.0
9432246,0.0,0.0,0.0,0.0
9436229,0.0,0.0,0.0,0.0
9440275,0.0,0.0,0.0,0.0
9444220,0.0,0.0,0.0,0.0
9448288,0.0,0.0,0.0,0.0
9452243,0.0,0.0,0.0,0.0
9456303,0.0,0.0,0.0,0.0
9460224,0.0,0.0,0.0,0.0
9464222,0.0,0.0,0.0,0.0
9468243,0.0,0.0,0.0,0.0
9472230,0.0,0.0,0.0,0.0
9477040,0.0,0.0,0.0,0.0
9481895,0.0,0.0,0.0,0.0
9485884,0.0,0.0,0.0,0.0
9489923,0.0,0.0,0.0,0.0
9493885,0.0,0.0,0.0,0.0
9497849,0.0,0.0,0.0,0.0
9501868,0.0,0.0,0.0,0.0
9505854,0.0,0.0,0.0,0.0
9509901,0.0,0.0,0.0,0.0
9513839,0.0,0.0,0.0,0.0
9517848,0.0,0.0,0.0,0.0
9521891,0.0,0.0,0.0,0.0
9525829,0.0,0.0,0.0,0.0
9529923,0.0,0.0,0.0,0.0
9533842,0.0,0.0,0.0,0.0
9537840,0.0,0.0,0.0,0.0
9541866,0.0,0.0,0.0,0.0
9545843,0.0,0.0,0.0,0.0
9549938,0.0,0.0,0.0,0.0
9553840,0.0,0.0,0.0,0.0
9557845,0.0,0.0,0.0,0.0
9561890,0.0,0.0,0.0,0.0
9565828,0.0,0.0,0.0,0.0
9569926,0.0,0.0,0.0,0.0
9573889,0.0,0.0,0.0,0.0
9577838,0.0,0.0,0.0,0.0
9581896,0.0,0.0,0.0,0.0
9585863,0.0,0.0,0.0,0.0
9589925,0.0,0.0,0.0,0.0
9593883,0.0,0.0,0.0,0.0
9597844,0.0,0.0,0.0,0.0
9601880,0.0,0.0,0.0,0.0
9605859,0.0,0.0,0.0,0.0
9609902,0.0,0.0,0.0,0.0
9613875,0.0,0.0,0.0,0.0
9617857,0.0,0.0,0.0,0.0
9621888,0.0,0.0,0.0,0.0
9625848,0.0,0.0,0.0,0.0
9629916,0.0,0.0,0.0,0.0
9633875,0.0,0.0,0.0,0.0
9637883,0.0,0.0,0.0,0.0
9641843,0.0,0.0,0.0,0.0
9645846,0.0,0.0,0.0,0.0
9649870,0.0,0.0,0.0,0.0
9653857,0.0,0.0,0.0,0.0
9657882,0.0,0.0,0.0,0.0
9661845,0.0,0.0,0.0,0.0
9665846,0.0,0.0,0.0,0.0
9669885,0.0,0.0,0.0,0.0
9673853,0.0,0.0,0.0,0.0
9677920,0.0,0.0,0.0,0.0
9681845,0.0,0.0,0.0,0.0
9685831,0.0,0.0,0.0,0.0
9689886,0.0,0.0,0.0,0.0
9693852,0.0,0.0,0.0,0.0
9697903,0.0,0.0,0.0,0.0
9701846,0.0,0.0,0.0,0.0
9705842,0.0,0.0,0.0,0.0
9709890,0.0,0.0,0.0,0.0
9713844,0.0,0.0,0.0,0.0
9717926,0.0,0.0,0.0,0.0
9721839,0.0,0.0,0.0,0.0
9725843,0.0,0.0,0.0,0.0
9729875,0.0,0.0,0.0,0.0
9733846,0.0,0.0,0.0,0.0
9737918,0.0,0.0,0.0,0.0
9741829,0.0,0.0,0.0,0.0
9745861,0.0,0.0,0.0,0.0
9749894,0.0,0.0,0.0,0.0
9753854,0.0,0.0,0.0,0.0
9757925,0.0,0.0,0.0,0.0
9761884,0.0,0.0,0.0,0.0
9765881,0.0,0.0,0.0,0.0
9769888,0.0,0.0,0.0,0.0
9773876,0.0,0.0,0.0,0.0
9777893,0.0,0.0,0.0,0.0
9781875,0.0,0.0,0.0,0.0
9785845,0.0,0.0,0.0,0.0
9789839,0.0,0.0,0.0,0.0
9793856,0.0,0.0,0.0,0.0
9797869,0.0,0.0,0.0,0.0
9801894,0.0,0.0,0.0,0.0
9805856,0.0,0.0,0.0,0.0
9809847,0.0,0.0,0.0,0.0
9813850,0.0,0.0,0.0,0.0
9817884,0.0,0.0,0.0,0.0
9821886,0.0,0.0,0.0,0.0
9825937,0.0,0.0,0.0,0.0
9829843,0.0,0.0,0.0,0.0
9833843,0.0,0.0,0.0,0.0
9837861,0.0,0.0,0.0,0.0
9841892,0.0,0.0,0.0,0.0
9845920,0.0,0.0,0.0,0.0
9850671,0.0,0.0,0.0,0.0
9854653,0.0,0.0,0.0,0.0
9858688,0.0,0.0,0.0,0.0
9862750,0.0,0.0,0.0,0.0
9866675,0.0,0.0,0.0,0.0
9870648,0.0,0.0,0.0,0.0
9874646,0.0,0.0,0.0,0.0
9878694,0.0,0.0,0.0,0.0
9882746,0.0,0.0,0.0,0.0
9886661,0.0,0.0,0.0,0.0
9890616,0.0,0.0,0.0,0.0
9894622,0.0,0.0,0.0,0.0
9898648,0.0,0.0,0.0,0.0
9902714,0.0,0.0,0.0,0.0
9906681,0.0,0.0,0.0,0.0
9910625,0.0,0.0,0.0,0.0
9914622,0.0,0.0,0.0,0.0
9918688,0.0,0.0,0.0,0.0
9922745,0.0,0.0,0.0,0.0
9926722,0.0,0.0,0.0,0.0
9930624,0.0,0.0,0.0,0.0
9934618,0.0,0.0,0.0,0.0
9938657,0.0,0.0,0.0,0.0
9942697,0.0,0.0,0.0,0.0
9946700,0.0,0.0,0.0,0.0
9950628,0.0,0.0,0.0,0.0
9954624,0.0,0.0,0.0,0.0
9958668,0.0,0.0,0.0,0.0
9962698,0.0,0.0,0.0,0.0
9966692,0.0,0.0,0.0,0.0
9970647,0.0,0.0,0.0,0.0
9974633,0.0,0.0,0.0,0.0
9978665,0.0,0.0,0.0,0.0
9982687,0.0,0.0,0.0,0.0
9986693,0.0,0.0,0.0,0.0
9990622,0.0,0.0,0.0,0.0
9994665,0.0,0.0,0.0,0.0
9998621,0.0,0.0,0.0,0.0
10002684,0.0,0.0,0.0,0.0
10006691,0.0,0.0,0.0,0.0
10010628,0.0,0.0,0.0,0.0
10014660,0.0,0.0,0.0,0.0
10018628,0.0,0.0,0.0,0.0
10022693,0.0,0.0,0.0,0.0
10026671,0.0,0.0,0.0,0.0
10030647,0.0,0.0,0.0,0.0
10034641,0.0,0.0,0.0,0.0
10038627,0.0,0.0,0.0,0.0
10042687,0.0,0.0,0.0,0.0
10046665,0.0,0.0,0.0,0.0
10050655,0.0,0.0,0.0,0.0
10054644,0.0,0.0,0.0,0.0
10058620,0.0,0.0,0.0,0.0
10062687,0.0,0.0,0.0,0.0
10066674,0.0,0.0,0.0,0.0
10070665,0.0,0.0,0.0,0.0
10074664,0.0,0.0,0.0,0.0
10079487,0.0,0.0,0.0,0.0
10083437,0.0,0.0,0.0,0.0
10087528,0.0,0.0,0.0,0.0
10091443,0.0,0.0,0.0,0.0
10095487,0.0,0.0,0.0,0.0
10099453,0.0,0.0,0.0,0.0
10103437,0.0,0.0,0.0,0.0
10107512,0.0,0.0,0.0,0.0
10111494,0.0,0.0,0.0,0.0
10115451,0.0,0.0,0.0,0.0
10119438,0.0,0.0,0.0,0.0
10123444,0.0,0.0,0.0,0.0
10127520,0.0,0.0,0.0,0.0
10131498,0.0,0.0,0.0,0.0
10135469,0.0,0.0,0.0,0.0
10139438,0.0,0.0,0.0,0.0
10143438,0.0,0.0,0.0,0.0
10147492,0.0,0.0,0.0,0.0
10151493,0.0,0.0,0.0,0.0
10155495,0.0,0.0,0.0,0.0
10159440,0.0,0.0,0.0,0.0
10163453,0.0,0.0,0.0,0.0
10167487,0.0,0.0,0.0,0.0
10171493,0.0,0.0,0.0,0.0
10175536,0.0,0.0,0.0,0.0
10179447,0.0,0.0,0.0,0.0
10183447,0.0,0.0,0.0,0.0
10187485,0.0,0.0,0.0,0.0
10191488,0.0,0.0,0.0,0.0
10195523,0.0,0.0,0.0,0.0
10199448,0.0,0.0,0.0,0.0
10203648,0.0,0.0,0.0,0.0
10207475,0.0,0.0,0.0,0.0
10211457,0.0,0.0,0.0,0.0
10215508,0.0,0.0,0.0,0.0
10219446,0.0,0.0,0.0,0.0
10223459,0.0,0.0,0.0,0.0
10228291,0.0,0.0,0.0,0.0
10232276,0.0,0.0,0.0,0.0
10236270,0.0,0.0,0.0,0.0
10240241,0.0,0.0,0.0,0.0
10244248,0.0,0.0,0.0,0.0
10248297,0.0,0.0,0.0,0.0
10252267,0.0,0.0,0.0,0.0
10256285,0.0,0.0,0.0,0.0
10260253,0.0,0.0,0.0,0.0
10264260,0.0,0.0,0.0,0.0
10268284,0.0,0.0,0.0,0.0
10272473,0.0,0.0,0.0,0.0
10276270,0.0,0.0,0.0,0.0
10280244,0.0,0.0,0.0,0.0
10284250,0.0,0.0,0.0,0.0
10288307,0.0,0.0,0.0,0.0
10292287,0.0,0.0,0.0,0.0
10296322,0.0,0.0,0.0,0.0
10301037,0.0,0.0,0.0,0.0
10305873,0.0,0.0,0.0,0.0
10309864,0.0,0.0,0.0,0.0
10313817,0.0,0.0,0.0,0.0
10317832,0.0,0.0,0.0,0.0
10321814,0.0,0.0,0.0,0.0
10325882,0.0,0.0,0.0,0.0
10329923,0.0,0.0,0.0,0.0
10333846,0.0,0.0,0.0,0.0
10337835,0.0,0.0,0.0,0.0
10341841,0.0,0.0,0.0,0.0
10345858,0.0,0.0,0.0,0.0
10349906,0.0,0.0,0.0,0.0
10353844,0.0,0.0,0.0,0.0
10357850,0.0,0.0,0.0,0.0
10361839,0.0,0.0,0.0,0.0
10365859,0.0,0.0,0.0,0.0
10369907,0.0,0.0,0.0,0.0
10373843,0.0,0.0,0.0,0.0
10377856,0.0,0.0,0.0,0.0
10381855,0.0,0.0,0.0,0.0
10385843,0.0,0.0,0.0,0.0
10389948,0.0,0.0,0.0,0.0
10393841,0.0,0.0,0.0,0.0
10397898,0.0,0.0,0.0,0.0
10401845,0.0,0.0,0.0,0.0
10405841,0.0,0.0,0.0,0.0
10409916,0.0,0.0,0.0,0.0
10413871,0.0,0.0,0.0,0.0
10417891,0.0,0.0,0.0,0.0
10421847,0.0,0.0,0.0,0.0
10425842,0.0,0.0,0.0,0.0
10429919,0.0,0.0,0.0,0.0
10433873,0.0,0.0,0.0,0.0
10437902,0.0,0.0,0.0,0.0
10441847,0.0,0.0,0.0,0.0
10445842,0.0,0.0,0.0,0.0
10449911,0.0,0.0,0.0,0.0
10453870,0.0,0.0,0.0,0.0
10457881,0.0,0.0,0.0,0.0
10461846,0.0,0.0,0.0,0.0
10465847,0.0,0.0,0.0,0.0
10469940,0.0,0.0,0.0,0.0
10473890,0.0,0.0,0.0,0.0
10477934,0.0,0.0,0.0,0.0
10481843,0.0,0.0,0.0,0.0
10485875,0.0,0.0,0.0,0.0
10489882,0.0,0.0,0.0,0.0
10493879,0.0,0.0,0.0,0.0
10497935,0.0,0.0,0.0,0.0
10501841,0.0,0.0,0.0,0.0
10505847,0.0,0.0,0.0,0.0
10509854,0.0,0.0,0.0,0.0
10513857,0.0,0.0,0.0,0.0
10517915,0.0,0.0,0.0,0.0
10521842,0.0,0.0,0.0,0.0
10525862,0.0,0.0,0.0,0.0
10529871,0.0,0.0,0.0,0.0
10533862,0.0,0.0,0.0,0.0
10537901,0.0,0.0,0.0,0.0
10541838,0.0,0.0,0.0,0.0
10545888,0.0,0.0,0.0,0.0
10549855,0.0,0.0,0.0,0.0
10553842,0.0,0.0,0.0,0.0
10557902,0.0,0.0,0.0,0.0
10561837,0.0,0.0,0.0,0.0
10565873,0.0,0.0,0.0,0.0
10569854,0.0,0.0,0.0,0.0
10573854,0.0,0.0,0.0,0.0
10578672,0.0,0.0,0.0,0.0
10582713,0.0,0.0,0.0,0.0
10586690,0.0,0.0,0.0,0.0
10590651,0.0,0.0,0.0,0.0
10594699,0.0,0.0,0.0,0.0
10598735,0.0,0.0,0.0,0.0
10602708,0.0,0.0,0.0,0.0
10606668,0.0,0.0,0.0,0.0
10610653,0.0,0.0,0.0,0.0
10614674,0.0,0.0,0.0,0.0
10618740,0.0,0.0,0.0,0.0
10622707,0.0,0.0,0.0,0.0
10626668,0.0,0.0,0.0,0.0
10630655,0.0,0.0,0.0,0.0
10634684,0.0,0.0,0.0,0.0
10638726,0.0,0.0,0.0,0.0
10642716,0.0,0.0,0.0,0.0
10646682,0.0,0.0,0.0,0.0
10650640,0.0,0.0,0.0,0.0
10654669,0.0,0.0,0.0,0.0
10658706,0.0,0.0,0.0,0.0
10662749,0.0,0.0,0.0,0.0
10666693,0.0,0.0,0.0,0.0
10670643,0.0,0.0,0.0,0.0
10674661,0.0,0.0,0.0,0.0
10678724,0.0,0.0,0.0,0.0
10682745,0.0,0.0,0.0,0.0
10686683,0.0,0.0,0.0,0.0
10690647,0.0,0.0,0.0,0.0
10694643,0.0,0.0,0.0,0.0
10698684,0.0,0.0,0.0,0.0
10702765,0.0,0.0,0.0,0.0
10706688,0.0,0.0,0.0,0.0
10710647,0.0,0.0,0.0,0.0
10714686,0.0,0.0,0.0,0.0
10718703,0.0,0.0,0.0,0.0
10722754,0.0,0.0,0.0,0.0
10726680,0.0,0.0,0.0,0.0
10730655,0.0,0.0,0.0,0.0
10734697,0.0,0.0,0.0,0.0
10739513,0.0,0.0,0.0,0.0
10743450,0.0,0.0,0.0,0.0
10747472,0.0,0.0,0.0,0.0
10751449,0.0,0.0,0.0,0.0
10755460,0.0,0.0,0.0,0.0
10759511,0.0,0.0,0.0,0.0
10763447,0.0,0.0,0.0,0.0
10767658,0.0,0.0,0.0,0.0
10771448,0.0,0.0,0.0,0.0
10775451,0.0,0.0,0.0,0.0
10779517,0.0,0.0,0.0,0.0
10783495,0.0,0.0,0.0,0.0
10787469,0.0,0.0,0.0,0.0
10791536,0.0,0.0,0.0,0.0
10795480,0.0,0.0,0.0,0.0
10799513,0.0,0.0,0.0,0.0
10803487,0.0,0.0,0.0,0.0
10807485,0.0,0.0,0.0,0.0
10811443,0.0,0.0,0.0,0.0
10815620,0.0,0.0,0.0,0.0
10819505,0.0,0.0,0.0,0.0
10823492,0.0,0.0,0.0,0.0
10827478,0.0,0.0,0.0,0.0
10831437,0.0,0.0,0.0,0.0
10835454,0.0,0.0,0.0,0.0
10839616,0.0,0.0,0.0,0.0
10843500,0.0,0.0,0.0,0.0
10847538,0.0,0.0,0.0,0.0
10851445,0.0,0.0,0.0,0.0
10855501,0.0,0.0,0.0,0.0
10859448,0.0,0.0,0.0,0.0
10863454,0.0,0.0,0.0,0.0
10867515,0.0,0.0,0.0,0.0
10871419,0.0,0.0,0.0,0.0
10875487,0.0,0.0,0.0,0.0
10879414,0.0,0.0,0.0,0.0
10883496,0.0,0.0,0.0,0.0
10887543,0.0,0.0,0.0,0.0
10891442,0.0,0.0,0.0,0.0
10895443,0.0,0.0,0.0,0.0
10899414,0.0,0.0,0.0,0.0
10903481,0.0,0.0,0.0,0.0
10907494,0.0,0.0,0.0,0.0
10911632,0.0,0.0,0.0,0.0
10915459,0.0,0.0,0.0,0.0
10919419,0.0,0.0,0.0,0.0
10923419,0.0,0.0,0.0,0.0
10927505,0.0,0.0,0.0,0.0
10931417,0.0,0.0,0.0,0.0
10935538,0.0,0.0,0.0,0.0
10939429,0.0,0.0,0.0,0.0
10943448,0.0,0.0,0.0,0.0
10947515,0.0,0.0,0.0,0.0
10951414,0.0,0.0,0.0,0.0
10955459,0.0,0.0,0.0,0.0
10959530,0.0,0.0,0.0,0.0
10963422,0.0,0.0,0.0,0.0
10967518,0.0,0.0,0.0,0.0
10971458,0.0,0.0,0.0,0.0
10975453,0.0,0.0,0.0,0.0
10979417,0.0,0.0,0.0,0.0
10983609,0.0,0.0,0.0,0.0
10987427,0.0,0.0,0.0,0.0
10991460,0.0,0.0,0.0,0.0
10995468,0.0,0.0,0.0,0.0
10999416,0.0,0.0,0.0,0.0
11003459,0.0,0.0,0.0,0.0
11007545,0.0,0.0,0.0,0.0
11011478,0.0,0.0,0.0,0.0
11015450,0.0,0.0,0.0,0.0
11019438,0.0,0.0,0.0,0.0
11023447,0.0,0.0,0.0,0.0
11027422,0.0,0.0,0.0,0.0
11031649,0.0,0.0,0.0,0.0
11035501,0.0,0.0,0.0,0.0
11039420,0.0,0.0,0.0,0.0
11043452,0.0,0.0,0.0,0.0
11047414,0.0,0.0,0.0,0.0
11051488,0.0,0.0,0.0,0.0
11055645,0.0,0.0,0.0,0.0
11059418,0.0,0.0,0.0,0.0
11063462,0.0,0.0,0.0,0.0
11067414,0.0,0.0,0.0,0.0
11071455,0.0,0.0,0.0,0.0
11075510,0.0,0.0,0.0,0.0
11079519,0.0,0.0,0.0,0.0
11083478,0.0,0.0,0.0,0.0
11087419,0.0,0.0,0.0,0.0
11091447,0.0,0.0,0.0,0.0
11095512,0.0,0.0,0.0,0.0
11099417,0.0,0.0,0.0,0.0
11103574,0.0,0.0,0.0,0.0
11107448,0.0,0.0,0.0,0.0
11111462,0.0,0.0,0.0,0.0
11115527,0.0,0.0,0.0,0.0
11119414,0.0,0.0,0.0,0.0
11123471,0.0,0.0,0.0,0.0
11127437,0.0,0.0,0.0,0.0
11131458,0.0,0.0,0.0,0.0
11135471,0.0,0.0,0.0,0.0
11140251,0.0,0.0,0.0,0.0
11145077,0.0,0.0,0.0,0.0
11149139,0.0,0.0,0.0,0.0
11153112,0.0,0.0,0.0,0.0
11157091,0.0,0.0,0.0,0.0
11161055,0.0,0.0,0.0,0.0
11165076,0.0,0.0,0.0,0.0
11169110,0.0,0.0,0.0,0.0
11173110,0.0,0.0,0.0,0.0
11177105,0.0,0.0,0.0,0.0
11181061,0.0,0.0,0.0,0.0
11185097,0.0,0.0,0.0,0.0
11189061,0.0,0.0,0.0,0.0
11193108,0.0,0.0,0.0,0.0
11197088,0.0,0.0,0.0,0.0
11201053,0.0,0.0,0.0,0.0
11205095,0.0,0.0,0.0,0.0
11209055,0.0,0.0,0.0,0.0
11213105,0.0,0.0,0.0,0.0
11217100,0.0,0.0,0.0,0.0
11221068,0.0,0.0,0.0,0.0
11225099,0.0,0.0,0.0,0.0
11229051,0.0,0.0,0.0,0.0
11233119,0.0,0.0,0.0,0.0
11237128,0.0,0.0,0.0,0.0
11241061,0.0,0.0,0.0,0.0
11245059,0.0,0.0,0.0,0.0
11249047,0.0,0.0,0.0,0.0
11253068,0.0,0.0,0.0,0.0
11257138,0.0,0.0,0.0,0.0
11261047,0.0,0.0,0.0,0.0
11265105,0.0,0.0,0.0,0.0
11269051,0.0,0.0,0.0,0.0
11273091,0.0,0.0,0.0,0.0
11277115,0.0,0.0,0.0,0.0
11281049,0.0,0.0,0.0,0.0
11285103,0.0,0.0,0.0,0.0
11289045,0.0,0.0,0.0,0.0
11293093,0.0,0.0,0.0,0.0
11297136,0.0,0.0,0.0,0.0
11301046,0.0,0.0,0.0,0.0
11305087,0.0,0.0,0.0,0.0
11309045,0.0,0.0,0.0,0.0
11313074,0.0,0.0,0.0,0.0
11317102,0.0,0.0,0.0,0.0
11321100,0.0,0.0,0.0,0.0
11325090,0.0,0.0,0.0,0.0
11329044,0.0,0.0,0.0,0.0
11333090,0.0,0.0,0.0,0.0
11337057,0.0,0.0,0.0,0.0
11341082,0.0,0.0,0.0,0.0
11345068,0.0,0.0,0.0,0.0
11349047,0.0,0.0,0.0,0.0
11353073,0.0,0.0,0.0,0.0
11357070,0.0,0.0,0.0,0.0
11361092,0.0,0.0,0.0,0.0
11365088,0.0,0.0,0.0,0.0
11369036,0.0,0.0,0.0,0.0
11373087,0.0,0.0,0.0,0.0
11377060,0.0,0.0,0.0,0.0
11381100,0.0,0.0,0.0,0.0
11385082,0.0,0.0,0.0,0.0
11389044,0.0,0.0,0.0,0.0
11393064,0.0,0.0,0.0,0.0
11397043,0.0,0.0,0.0,0.0
11401111,0.0,0.0,0.0,0.0
11405137,0.0,0.0,0.0,0.0
11409044,0.0,0.0,0.0,0.0
11413108,0.0,0.0,0.0,0.0
11417043,0.0,0.0,0.0,0.0
11421093,0.0,0.0,0.0,0.0
11425083,0.0,0.0,0.0,0.0
11429051,0.0,0.0,0.0,0.0
11433051,0.0,0.0,0.0,0.0
11437040,0.0,0.0,0.0,0.0
11441102,0.0,0.0,0.0,0.0
11445085,0.0,0.0,0.0,0.0
11449049,0.0,0.0,0.0,0.0
11453059,0.0,0.0,0.0,0.0
11457021,0.0,0.0,0.0,0.0
11461074,0.0,0.0,0.0,0.0
11465088,0.0,0.0,0.0,0.0
11469060,0.0,0.0,0.0,0.0
11473075,0.0,0.0,0.0,0.0
11477041,0.0,0.0,0.0,0.0
11481071,0.0,0.0,0.0,0.0
11485100,0.0,0.0,0.0,0.0
11489118,0.0,0.0,0.0,0.0
11493085,0.0,0.0,0.0,0.0
11497061,0.0,0.0,0.0,0.0
11501064,0.0,0.0,0.0,0.0
11505042,0.0,0.0,0.0,0.0
11509088,0.0,0.0,0.0,0.0
11513096,0.0,0.0,0.0,0.0
11517050,0.0,0.0,0.0,0.0
11521089,0.0,0.0,0.0,0.0
11525048,0.0,0.0,0.0,0.0
11529067,0.0,0.0,0.0,0.0
11533070,0.0,0.0,0.0,0.0
11537048,0.0,0.0,0.0,0.0
11541073,0.0,0.0,0.0,0.0
11545047,0.0,0.0,0.0,0.0
11549110,0.0,0.0,0.0,0.0
11553044,0.0,0.0,0.0,0.0
11557053,0.0,0.0,0.0,0.0
11561104,0.0,0.0,0.0,0.0
11565054,0.0,0.0,0.0,0.0
11569111,0.0,0.0,0.0,0.0
11573073,0.0,0.0,0.0,0.0
11577040,0.0,0.0,0.0,0.0
11581076,0.0,0.0,0.0,0.0
11585046,0.0,0.0,0.0,0.0
11589078,0.0,0.0,0.0,0.0
11593069,0.0,0.0,0.0,0.0
11597038,0.0,0.0,0.0,0.0
11601106,0.0,0.0,0.0,0.0
11605049,0.0,0.0,0.0,0.0
11609097,0.0,0.0,0.0,0.0
11613051,0.0,0.0,0.0,0.0
11617029,0.0,0.0,0.0,0.0
11621046,0.0,0.0,0.0,0.0
11625020,0.0,0.0,0.0,0.0
11629065,0.0,0.0,0.0,0.0
11633067,0.0,0.0,0.0,0.0
11637014,0.0,0.0,0.0,0.0
11641065,0.0,0.0,0.0,0.0
11645019,0.0,0.0,0.0,0.0
11649057,0.0,0.0,0.0,0.0
11653091,0.0,0.0,0.0,0.0
11657025,0.0,0.0,0.0,0.0
11661048,0.0,0.0,0.0,0.0
11665017,0.0,0.0,0.0,0.0
11669056,0.0,0.0,0.0,0.0
11673032,0.0,0.0,0.0,0.0
11677071,0.0,0.0,0.0,0.0
11681017,0.0,0.0,0.0,0.0
11685023,0.0,0.0,0.0,0.0
11689047,0.0,0.0,0.0,0.0
11693034,0.0,0.0,0.0,0.0
11697089,0.0,0.0,0.0,0.0
11701017,0.0,0.0,0.0,0.0
11705017,0.0,0.0,0.0,0.0
11709057,0.0,0.0,0.0,0.0
11713029,0.0,0.0,0.0,0.0
11717072,0.0,0.0,0.0,0.0
11721015,0.0,0.0,0.0,0.0
11725025,0.0,0.0,0.0,0.0
11729050,0.0,0.0,0.0,0.0
11733014,0.0,0.0,0.0,0.0
11737075,0.0,0.0,0.0,0.0
11741023,0.0,0.0,0.0,0.0
11745024,0.0,0.0,0.0,0.0
11749067,0.0,0.0,0.0,0.0
11753014,0.0,0.0,0.0,0.0
11757066,0.0,0.0,0.0,0.0
11761061,0.0,0.0,0.0,0.0
11765033,0.0,0.0,0.0,0.0
11769105,0.0,0.0,0.0,0.0
11773017,0.0,0.0,0.0,0.0
11777051,0.0,0.0,0.0,0.0
11781051,0.0,0.0,0.0,0.0
11785026,0.0,0.0,0.0,0.0
11789062,0.0,0.0,0.0,0.0
11793016,0.0,0.0,0.0,0.0
11797062,0.0,0.0,0.0,0.0
11801039,0.0,0.0,0.0,0.0
11805020,0.0,0.0,0.0,0.0
11809076,0.0,0.0,0.0,0.0
11813017,0.0,0.0,0.0,0.0
11817040,0.0,0.0,0.0,0.0
11821042,0.0,0.0,0.0,0.0
11825113,0.0,0.0,0.0,0.0
11829103,0.0,0.0,0.0,0.0
11833045,0.0,0.0,0.0,0.0
11837086,0.0,0.0,0.0,0.0
11841056,0.0,0.0,0.0,0.0
11845127,0.0,0.0,0.0,0.0
11849041,0.0,0.0,0.0,0.0
11853056,0.0,0.0,0.0,0.0
11857085,0.0,0.0,0.0,0.0
11861048,0.0,0.0,0.0,0.0
11865100,0.0,0.0,0.0,0.0
11869040,0.0,0.0,0.0,0.0
11873050,0.0,0.0,0.0,0.0
11877073,0.0,0.0,0.0,0.0
11881047,0.0,0.0,0.0,0.0
11885111,0.0,0.0,0.0,0.0
11889037,0.0,0.0,0.0,0.0
11893043,0.0,0.0,0.0,0.0
11897094,0.0,0.0,0.0,0.0
11901048,0.0,0.0,0.0,0.0
11905125,0.0,0.0,0.0,0.0
11909098,0.0,0.0,0.0,0.0
11913050,0.0,0.0,0.0,0.0
11917076,0.0,0.0,0.0,0.0
11921046,0.0,0.0,0.0,0.0
11925119,0.0,0.0,0.0,0.0
11929095,0.0,0.0,0.0,0.0
11933057,0.0,0.0,0.0,0.0
11937093,0.0,0.0,0.0,0.0
11941050,0.0,0.0,0.0,0.0
11945076,0.0,0.0,0.0,0.0
11949075,0.0,0.0,0.0,0.0
11953056,0.0,0.0,0.0,0.0
11957070,0.0,0.0,0.0,0.0
11961055,0.0,0.0,0.0,0.0
11965078,0.0,0.0,0.0,0.0
11969100,0.0,0.0,0.0,0.0
11973857,0.0,0.0,0.0,0.0
11977877,0.0,0.0,0.0,0.0
11981851,0.0,0.0,0.0,0.0
11985922,0.0,0.0,0.0,0.0
11989859,0.0,0.0,0.0,0.0
11993845,0.0,0.0,0.0,0.0
11997888,0.0,0.0,0.0,0.0
12001853,0.0,0.0,0.0,0.0
12005929,0.0,0.0,0.0,0.0
12009896,0.0,0.0,0.0,0.0
12013843,0.0,0.0,0.0,0.0
12017877,0.0,0.0,0.0,0.0
12021853,0.0,0.0,0.0,0.0
12025912,0.0,0.0,0.0,0.0
12029914,0.0,0.0,0.0,0.0
12033876,0.0,0.0,0.0,0.0
12037916,0.0,0.0,0.0,0.0
12041881,0.0,0.0,0.0,0.0
12045893,0.0,0.0,0.0,0.0
12049914,0.0,0.0,0.0,0.0
12053867,0.0,0.0,0.0,0.0
12057880,0.0,0.0,0.0,0.0
12061855,0.0,0.0,0.0,0.0
12065892,0.0,0.0,0.0,0.0
12069907,0.0,0.0,0.0,0.0
12073858,0.0,0.0,0.0,0.0
12077853,0.0,0.0,0.0,0.0
12081850,0.0,0.0,0.0,0.0
12085883,0.0,0.0,0.0,0.0
12089912,0.0,0.0,0.0,0.0
12093832,0.0,0.0,0.0,0.0
12097858,0.0,0.0,0.0,0.0
12101890,0.0,0.0,0.0,0.0
12105887,0.0,0.0,0.0,0.0
12109884,0.0,0.0,0.0,0.0
12113902,0.0,0.0,0.0,0.0
12117842,0.0,0.0,0.0,0.0
12121859,0.0,0.0,0.0,0.0
12125855,0.0,0.0,0.0,0.0
12129879,0.0,0.0,0.0,0.0
12133905,0.0,0.0,0.0,0.0
12137856,0.0,0.0,0.0,0.0
12141846,0.0,0.0,0.0,0.0
12145898,0.0,0.0,0.0,0.0
12149885,0.0,0.0,0.0,0.0
12153925,0.0,0.0,0.0,0.0
12157860,0.0,0.0,0.0,0.0
12161848,0.0,0.0,0.0,0.0
12165874,0.0,0.0,0.0,0.0
12169859,0.0,0.0,0.0,0.0
12173902,0.0,0.0,0.0,0.0
12177884,0.0,0.0,0.0,0.0
12181848,0.0,0.0,0.0,0.0
12185889,0.0,0.0,0.0,0.0
12189846,0.0,0.0,0.0,0.0
12193894,0.0,0.0,0.0,0.0
12197886,0.0,0.0,0.0,0.0
12201864,0.0,0.0,0.0,0.0
12205843,0.0,0.0,0.0,0.0
12209860,0.0,0.0,0.0,0.0
12213912,-0.22565123,0.17962287,-0.0035489446,0.0
12217892,-0.22566062,0.17960316,-0.00354868,0.0
12221877,-0.22563967,0.17962754,-0.0035487283,0.0
12225852,-0.22560649,0.17960125,-0.0035476529,0.0
12229864,-0.22560923,0.17959699,-0.0035474305,0.0
12233902,-0.22561009,0.17958814,-0.0035467327,0.0
12237885,-0.22558391,0.17961153,-0.0035467846,0.0
12241875,-0.22556613,0.17958863,-0.0035459767,0.0
12245853,-0.22561328,0.17958273,-0.0035471085,0.0
12249862,-0.22562283,0.1795567,-0.0035464782,0.0
12253890,-0.22562213,0.17952782,-0.003546051,0.0
12257900,-0.22561972,0.17951757,-0.0035466028,0.0
12261936,-0.22557966,0.17950688,-0.0035449723,0.0
12265866,-0.22556514,0.17946413,-0.0035441432,0.0
12269896,-0.22556432,0.17943828,-0.00354358,0.0
12273877,-0.22555836,0.17942327,-0.0035431047,0.0
12277863,-0.22557433,0.17941982,-0.0035431308,0.0
12281916,-0.22555466,0.1794528,-0.0035433383,0.0
12285849,-0.22557944,0.17948157,-0.0035449604,0.0
12289863,-0.22560756,0.17948703,-0.0035453802,0.0
12293901,-0.22560008,0.17951639,-0.0035462326,0.0
12297866,-0.22558582,0.17956474,-0.0035461606,0.0
12301927,-0.22558843,0.17956065,-0.003546378,0.0
12305859,-0.22558771,0.17958196,-0.0035467194,0.0
12309884,-0.22560042,0.17957745,-0.0035471024,0.0
12313887,-0.22560968,0.17956112,-0.003546649,0.0
12317872,-0.22558188,0.17955688,-0.0035461374,0.0
12321925,-0.2255571,0.17956309,-0.0035460608,0.0
12325864,-0.22553784,0.1796116,-0.0035468987,0.0
12330678,-0.22556432,0.17965369,-0.0035479895,0.0
12334687,-0.22558115,0.17969115,-0.0035493174,0.0
12338690,-0.22559232,0.17968169,-0.0035489677,0.0
12342780,-0.22559854,0.17967556,-0.0035488731,0.0
12346663,-0.22555357,0.17964967,-0.003547788,0.0
12350638,-0.22552551,0.17962168,-0.0035465478,0.0
12354681,-0.225535,0.17962468,-0.0035471017,0.0
12358689,-0.22553578,0.17959513,-0.0035462612,0.0
12362794,-0.22555174,0.17956068,-0.0035458263,0.0
12366632,-0.225563,0.17957255,-0.003546127,0.0
12370655,-0.2255605,0.17957781,-0.0035462582,0.0
12374673,-0.22555104,0.17959319,-0.0035466836,0.0
12378646,-0.2255672,0.17959493,-0.003546721,0.0
12382774,-0.22558004,0.17959984,-0.00354656,0.0
12386638,-0.22558767,0.17962362,-0.0035474412,0.0
12390644,-0.22557487,0.17962116,-0.0035473364,0.0
12394677,-0.22557911,0.1795724,-0.003545781,0.0
12398652,-0.22555271,0.17951532,-0.0035449555,0.0
12402778,-0.2255518,0.17948474,-0.0035442493,0.0
12406635,-0.22555257,0.17949514,-0.0035451541,0.0
12410644,-0.22554989,0.1795007,-0.0035440447,0.0
12414660,-0.22553542,0.17945704,-0.0035429255,0.0
12418635,-0.22552936,0.17946611,-0.003542794,0.0
12422777,-0.22552834,0.17943394,-0.0035427513,0.0
12426639,-0.22554441,0.17939676,-0.003542029,0.0
12430682,-0.2255503,0.17937286,-0.0035420156,0.0
12434641,-0.2255561,0.17934556,-0.0035417846,0.0
12438633,-0.22556531,0.17934239,-0.0035415145,0.0
12442764,-0.22554727,0.17934306,-0.0035414856,0.0
12446633,-0.22552931,0.17932983,-0.0035408782,0.0
12450673,-0.22554173,0.1793233,-0.0035404027,0.0
12454635,-0.22555597,0.17931971,-0.0035413557,0.0
12458639,-0.22557168,0.1793246,-0.003541537,0.0
12462735,-0.22557393,0.17932811,-0.0035416416,0.0
12466679,-0.22558981,0.17932491,-0.0035411248,0.0
12470657,-0.22557004,0.17931683,-0.003540883,0.0
12474631,-0.22555698,0.17930721,-0.0035412414,0.0
12478635,-0.225571,0.17929743,-0.0035410274,0.0
12482744,-0.2255783,0.17929584,-0.0035401713,0.0
12486700,-0.22559078,0.17930435,-0.0035413285,0.0
12490659,-0.22557442,0.17931494,-0.0035409948,0.0
12494630,-0.22557507,0.17932521,-0.003541303,0.0
12498640,-0.22558415,0.17933406,-0.0035412183,0.0
12502739,-0.22557448,0.17931747,-0.0035417355,0.0
12506679,-0.22555444,0.17930228,-0.0035402582,0.0
12510714,-0.22556987,0.17931199,-0.0035412565,0.0
12514634,-0.2256027,0.1793359,-0.0035420575,0.0
12519471,-0.2256151,0.17931731,-0.0035416556,0.0
12524285,-0.225628,0.17932123,-0.0035421706,0.0
12528255,-0.2256034,0.17931952,-0.0035422037,0.0
12532259,-0.22559907,0.17932075,-0.003541726,0.0
12536293,-0.2256132,0.1793236,-0.003541948,0.0
12540296,-0.2256122,0.17931323,-0.0035408526,0.0
12544341,-0.22558537,0.17932154,-0.0035414628,0.0
12548253,-0.22558248,0.17934653,-0.0035422656,0.0
12552269,-0.22554384,0.17935872,-0.0035413129,0.0
12556294,-0.22551712,0.17936248,-0.0035415739,0.0
12560292,-0.2254887,0.17936778,-0.0035415748,0.0
12564341,-0.22548418,0.17938186,-0.003540603,0.0
12568255,-0.22550856,0.17939249,-0.0035416232,0.0
12572266,-0.22551772,0.17940147,-0.0035419788,0.0
12576294,-0.22551289,0.17940533,-0.0035416828,0.0
12580268,-0.22551343,0.1793956,-0.0035416307,0.0
12584333,-0.22553973,0.17942177,-0.0035426198,0.0
12588498,-0.22553007,0.17944102,-0.0035434812,0.0
12592285,-0.22554745,0.17942281,-0.0035430023,0.0
12596313,-0.22558382,0.1794267,-0.0035437234,0.0
12600271,-0.22558068,0.1794392,-0.0035437092,0.0
12604330,-0.22556575,0.17942435,-0.003543107,0.0
12608262,-0.22559173,0.17943345,-0.0035440135,0.0
12612501,-0.22560425,0.17947157,-0.0035447113,0.0
12616301,-0.22559452,0.17948571,-0.003544459,0.0
12620258,-0.22563386,0.17948143,-0.0035452768,0.0
12624337,-0.22562416,0.17948402,-0.0035455273,0.0
12628273,-0.22560921,0.17948696,-0.003545016,0.0
12632260,-0.22560626,0.17946936,-0.0035452421,0.0
12636475,-0.22557959,0.17946374,-0.003544218,0.0
12640255,-0.22555631,0.17943262,-0.0035431387,0.0
12644327,-0.22557214,0.17942017,-0.0035432868,0.0
12648299,-0.22557941,0.17938755,-0.0035422978,0.0
12652295,-0.22559698,0.17939565,-0.003542923,0.0
12656252,-0.22557855,0.17937493,-0.0035417147,0.0
12660259,-0.225579,0.17936078,-0.0035416547,0.0
12664310,-0.22557619,0.17937858,-0.0035424388,0.0
12668302,-0.22560064,0.17938012,-0.003542755,0.0
12672318,-0.2256214,0.17935605,-0.0035424423,0.0
12676255,-0.2256118,0.17935583,-0.0035425203,0.0
12680252,-0.22557484,0.17934053,-0.0035419452,0.0
12684501,-0.22556171,0.17933887,-0.0035420898,0.0
12688292,-0.22554341,0.17935364,-0.0035412693,0.0
12692297,-0.22554226,0.17933527,-0.0035408048,0.0
12696256,-0.22553258,0.17932351,-0.0035403508,0.0
12700278,-0.22554821,0.17933674,-0.0035412025,0.0
12704288,-0.22554694,0.17933685,-0.0035408183,0.0
12708483,-0.22554226,0.17934372,-0.0035415376,0.0
12712316,-0.22553936,0.17934193,-0.0035414568,0.0
12716252,-0.2255484,0.17936093,-0.00354189,0.0
12720256,-0.22555058,0.17938516,-0.0035420312,0.0
12724310,-0.22554423,0.17940074,-0.0035417331,0.0
12728266,-0.22556677,0.17939065,-0.0035431127,0.0
12732319,-0.2255927,0.1794145,-0.0035427918,0.0
12736255,-0.22560678,0.17941113,-0.003544003,0.0
12740299,-0.22559203,0.17941661,-0.0035435653,0.0
12744298,-0.22556672,0.17941733,-0.0035431667,0.0
12748279,-0.22556742,0.17944978,-0.0035439443,0.0
12752319,-0.22559857,0.17946517,-0.0035444913,0.0
12756258,-0.22560224,0.17948529,-0.0035448372,0.0
12760299,-0.22561125,0.17951435,-0.0035459856,0.0
12764252,-0.22560476,0.17953551,-0.003545863,0.0
12768267,-0.22560997,0.17953512,-0.003546083,0.0
12772347,-0.22563061,0.17953832,-0.0035463613,0.0
12776255,-0.22561228,0.1795756,-0.0035473213,0.0
12780266,-0.22560745,0.17961358,-0.0035476834,0.0
12784270,-0.2256197,0.17961721,-0.0035478338,0.0
12788252,-0.22563002,0.1796292,-0.0035477343,0.0
12792334,-0.22562006,0.17964818,-0.0035483688,0.0
12796265,-0.2256051,0.17966686,-0.0035489062,0.0
12800314,-0.22557631,0.17967908,-0.003548247,0.0
12804266,-0.2255545,0.17969093,-0.0035484103,0.0
12808274,-0.22554265,0.17967929,-0.003547511,0.0
12812360,-0.22553937,0.17970154,-0.0035483188,0.0
12816298,-0.22553098,0.17968807,-0.003547467,0.0
12820324,-0.22551075,0.17967477,-0.0035467492,0.0
12824447,-0.2255089,0.17965755,-0.0035467516,0.0
12828262,-0.22551578,0.17965919,-0.0035472417,0.0
12832311,-0.22550382,0.17965613,-0.0035466237,0.0
12836287,-0.22548336,0.17965473,-0.0035468827,0.0
12840314,-0.22545461,0.17967671,-0.0035466622,0.0
12844273,-0.22546983,0.1797041,-0.0035475246,0.0
12848298,-0.22548862,0.17972633,-0.0035487222,0.0
12852312,-0.22547318,0.17974877,-0.0035485385,0.0
12856287,-0.22545792,0.1797337,-0.0035480799,0.0
12860292,-0.22546619,0.17972174,-0.0035470612,0.0
12864260,-0.22545591,0.17969804,-0.003546464,0.0
12868271,-0.22543715,0.17970338,-0.0035468095,0.0
12872279,-0.22545221,0.17968309,-0.0035470214,0.0
12876309,-0.2254571,0.17966941,-0.0035462002,0.0
12880348,-0.22547574,0.17966765,-0.003546707,0.0
12884254,-0.2255131,0.17965905,-0.0035469995,0.0
12888294,-0.22553,0.1796236,-0.0035466412,0.0
12892299,-0.22553146,0.17958602,-0.0035459427,0.0
12896301,-0.22552782,0.17956199,-0.0035450035,0.0
12900325,-0.22550575,0.1795844,-0.0035453655,0.0
12904255,-0.22549705,0.1795999,-0.003546133,0.0
12908314,-0.22547472,0.17961031,-0.0035455455,0.0
12912258,-0.2254814,0.17963155,-0.0035455413,0.0
12916449,-0.22550674,0.17962807,-0.0035460938,0.0
12920328,-0.22552022,0.17962849,-0.003546438,0.0
12924261,-0.22554906,0.17965594,-0.0035476296,0.0
12928285,-0.22555242,0.17966345,-0.0035478445,0.0
12932263,-0.22555389,0.1796692,-0.0035477015,0.0
12936301,-0.2255757,0.17966965,-0.0035478296,0.0
12940314,-0.22560982,0.1796599,-0.003548953,0.0
12944253,-0.22565362,0.17966187,-0.003549757,0.0
12948292,-0.22563003,0.17966075,-0.0035485108,0.0
12952269,-0.22559918,0.17963417,-0.0035478368,0.0
12956249,-0.2256008,0.17965001,-0.0035482435,0.0
12960322,-0.22556828,0.17966802,-0.0035480715,0.0
12964515,-0.22555445,0.17968227,-0.003547942,0.0
12968291,-0.22557124,0.17965339,-0.0035470328,0.0
12972253,-0.22555916,0.17965066,-0.003547067,0.0
12976255,-0.22556709,0.17966965,-0.003548296,0.0
12980334,-0.22560942,0.1797097,-0.003548893,0.0
12984300,-0.2255971,0.17970031,-0.0035492422,0.0
12988539,-0.22559349,0.17970614,-0.0035484727,0.0
12992259,-0.22557627,0.17973062,-0.0035492468,0.0
12996256,-0.22557925,0.17973979,-0.0035494803,0.0
13000324,-0.22560966,0.17974406,-0.0035509372,0.0
13004300,-0.22561285,0.17977542,-0.0035510804,0.0
13008285,-0.22561774,0.17979111,-0.0035513525,0.0
13012263,-0.2256175,0.17981586,-0.003551815,0.0
13016268,-0.22558668,0.179859,-0.0035521118,0.0
13020319,-0.22557269,0.17989387,-0.003552872,0.0
13024299,-0.22559626,0.17987385,-0.0035527474,0.0
13028314,-0.22559598,0.1799037,-0.0035526075,0.0
13032256,-0.22563143,0.17991287,-0.0035542292,0.0
13036306,-0.22565335,0.17989823,-0.0035541388,0.0
13040252,-0.22563921,0.17990132,-0.0035534368,0.0
13044290,-0.22562702,0.17989531,-0.003553689,0.0
13048285,-0.22563528,0.17991129,-0.0035533244,0.0
13052261,-0.22560938,0.17990865,-0.0035538075,0.0
13056300,-0.2255919,0.17989056,-0.0035532988,0.0
13060255,-0.22559641,0.17986405,-0.0035520843,0.0
13064277,-0.2256164,0.17987321,-0.0035533393,0.0
13068343,-0.22561945,0.17991133,-0.0035532087,0.0
13072264,-0.2255952,0.17993931,-0.0035540373,0.0
13076284,-0.22559771,0.17994186,-0.003554059,0.0
13080254,-0.2255747,0.17994449,-0.003554094,0.0
13084281,-0.22557954,0.17995705,-0.0035539658,0.0
13088313,-0.22554313,0.17998366,-0.0035540285,0.0
13092235,-0.22553077,0.18001819,-0.0035546264,0.0
13096285,-0.2255013,0.17999505,-0.0035534191,0.0
13100244,-0.22546321,0.17996502,-0.003552237,0.0
13104308,-0.22545911,0.17994155,-0.0035518724,0.0
13108322,-0.22545852,0.1799152,-0.0035514992,0.0
13112235,-0.22549517,0.1799022,-0.003551121,0.0
13116273,-0.22550994,0.17991957,-0.0035521593,0.0
13120237,-0.22553486,0.17994039,-0.003552675,0.0
13124236,-0.2255596,0.17992589,-0.0035529449,0.0
13128309,-0.22556563,0.1799092,-0.0035527737,0.0
13132236,-0.22557168,0.17989257,-0.0035524417,0.0
13136264,-0.22556417,0.17987426,-0.0035519272,0.0
13140239,-0.2255209,0.17986478,-0.0035507195,0.0
13144250,-0.22546054,0.17989925,-0.0035509071,0.0
13148322,-0.22544093,0.17990673,-0.003550417,0.0
13152229,-0.2254436,0.17993626,-0.0035511,0.0
13156275,-0.22545806,0.17995849,-0.003551888,0.0
13160256,-0.22547916,0.17992613,-0.0035520855,0.0
13164245,-0.22548519,0.17992304,-0.0035520173,0.0
13168310,-0.22551851,0.1799541,-0.0035524901,0.0
13172465,-0.2255365,0.17995992,-0.003553206,0.0
13176264,-0.22553727,0.17994946,-0.003552841,0.0
13180233,-0.2255601,0.17996846,-0.00355385,0.0
13184296,-0.22556597,0.17997229,-0.0035541619,0.0
13188305,-0.22557215,0.17995064,-0.0035540368,0.0
13192278,-0.22559305,0.179968,-0.00355406,0.0
13196445,-0.22559398,0.17994826,-0.0035537342,0.0
13200234,-0.22558111,0.17993838,-0.003554322,0.0
13204247,-0.2255648,0.17993025,-0.0035533905,0.0
13208236,-0.22558251,0.17991067,-0.0035530515,0.0
13212283,-0.22559683,0.17990813,-0.0035534487,0.0
13216352,-0.2255942,0.17992124,-0.0035531586,0.0
13220249,-0.22560191,0.17993394,-0.0035538843,0.0
13224285,-0.225613,0.17996153,-0.0035542997,0.0
13228234,-0.22556892,0.17996769,-0.003554649,0.0
13232273,-0.22552752,0.1799551,-0.0035533628,0.0
13236259,-0.22549579,0.17995267,-0.0035520617,0.0
13240255,-0.22543511,0.17995715,-0.0035516203,0.0
13244439,-0.22543411,0.17999378,-0.0035523383,0.0
13248233,-0.22543658,0.18001641,-0.003552641,0.0
13252257,-0.22543569,0.18003263,-0.0035530326,0.0
13256308,-0.2254364,0.18003547,-0.0035531595,0.0
13260238,-0.2254321,0.18003021,-0.003552993,0.0
13264273,-0.22543778,0.18003479,-0.0035531449,0.0
13268247,-0.22545554,0.18005243,-0.0035535225,0.0
13272249,-0.22544593,0.18005,-0.00355366,0.0
13276302,-0.2254415,0.18006496,-0.0035540147,0.0
13280229,-0.22543713,0.18006112,-0.003553232,0.0
13284265,-0.22543606,0.18002327,-0.0035527274,0.0
13288232,-0.2254094,0.18001276,-0.0035517388,0.0
13292439,-0.22540851,0.18000907,-0.0035523283,0.0
13296325,-0.22540751,0.17998765,-0.0035518087,0.0
13300231,-0.2253842,0.1799808,-0.0035510117,0.0
13304291,-0.22536081,0.17996716,-0.003550574,0.0
13308267,-0.22538868,0.17993303,-0.0035506815,0.0
13312266,-0.22542372,0.1799205,-0.0035502284,0.0
13316338,-0.2254448,0.17991352,-0.0035506727,0.0
13320275,-0.22544725,0.17993157,-0.00355147,0.0
13324294,-0.22546346,0.17992826,-0.0035517758,0.0
13328259,-0.22547066,0.17991285,-0.003551966,0.0
13332300,-0.22547999,0.17990609,-0.0035515758,0.0
13336325,-0.22545472,0.17993012,-0.003551275,0.0
13340302,-0.22542505,0.17994697,-0.0035513197,0.0
13344311,-0.22542056,0.17994845,-0.0035511956,0.0
13348262,-0.2254347,0.17996012,-0.0035514836,0.0
13352267,-0.22542842,0.17996505,-0.0035519039,0.0
13356277,-0.22541872,0.17997883,-0.0035521954,0.0
13360269,-0.22541945,0.17996193,-0.0035511125,0.0
13364279,-0.22543366,0.17997904,-0.003552216,0.0
13368262,-0.22547528,0.18000808,-0.0035539386,0.0
13373096,-0.22549291,0.18005395,-0.0035543987,0.0
13377127,-0.2254888,0.18009914,-0.0035551828,0.0
13381056,-0.22547424,0.1801442,-0.0035559542,0.0
13385110,-0.22546466,0.1801724,-0.0035567714,0.0
13389067,-0.22548564,0.1802028,-0.0035571347,0.0
13393090,-0.22548102,0.18015856,-0.0035565507,0.0
13397165,-0.22547314,0.18017209,-0.0035567868,0.0
13401057,-0.2254718,0.18020047,-0.003557253,0.0
13405103,-0.22548246,0.18020526,-0.0035574178,0.0
13409059,-0.22550857,0.18019469,-0.00355791,0.0
13413106,-0.2254851,0.1802031,-0.0035571903,0.0
13417153,-0.22548912,0.18023063,-0.0035580064,0.0
13421114,-0.2254879,0.18025549,-0.0035578373,0.0
13425109,-0.22545245,0.18023954,-0.0035575465,0.0
13429063,-0.22541197,0.18028499,-0.0035582148,0.0
13433098,-0.2253799,0.1802797,-0.003557193,0.0
13437127,-0.22537673,0.18025231,-0.0035568003,0.0
13441101,-0.22538552,0.1802265,-0.0035561884,0.0
13445103,-0.22536881,0.18025312,-0.0035564913,0.0
13449070,-0.22535537,0.18025494,-0.0035559137,0.0
13453085,-0.22538987,0.18028572,-0.0035576867,0.0
13457070,-0.22543786,0.18031967,-0.003558462,0.0
13461092,-0.22542806,0.18034461,-0.0035592488,0.0
13465109,-0.22541822,0.18035974,-0.0035590923,0.0
13469070,-0.22544584,0.18036285,-0.003560302,0.0
13473106,-0.22544442,0.18034874,-0.0035595517,0.0
13477065,-0.22540024,0.18034312,-0.0035584935,0.0
13481105,-0.2253917,0.18036802,-0.0035585992,0.0
13485109,-0.22540551,0.18036582,-0.003559667,0.0
13489863,-0.2254331,0.18035014,-0.0035593638,0.0
13493898,-0.22544394,0.18036006,-0.003560005,0.0
13497923,-0.2254133,0.18035616,-0.0035595,0.0
13501853,-0.2253713,0.18036875,-0.0035590536,0.0
13505858,-0.22533907,0.18041404,-0.003559125,0.0
13509864,-0.22535636,0.18044208,-0.0035604476,0.0
13513898,-0.22535506,0.18043828,-0.0035601128,0.0
13517951,-0.22535019,0.18046351,-0.0035607151,0.0
13521896,-0.22534542,0.18046424,-0.003560875,0.0
13525907,-0.22531335,0.18046826,-0.003560673,0.0
13529876,-0.22528821,0.1805253,-0.0035605314,0.0
13533866,-0.22528838,0.18054183,-0.0035607282,0.0
13537859,-0.22532783,0.18053575,-0.0035616157,0.0
13541895,-0.22536187,0.1805177,-0.0035617147,0.0
13545889,-0.22536038,0.18048793,-0.0035614406,0.0
13549871,-0.22536565,0.18048565,-0.0035613466,0.0
13553904,-0.22539309,0.18050177,-0.003561596,0.0
13557870,-0.22540513,0.18052818,-0.0035628867,0.0
13561891,-0.22543436,0.18056147,-0.003563208,0.0
13565900,-0.22543466,0.18055387,-0.0035638176,0.0
13569850,-0.22539581,0.1805775,-0.0035626218,0.0
13573878,-0.22536872,0.18058199,-0.0035626742,0.0
13577852,-0.22535534,0.18060023,-0.0035635692,0.0
13581905,-0.22533673,0.18061183,-0.0035632919,0.0
13585905,-0.22532165,0.18061678,-0.00356333,0.0
13589861,-0.22532699,0.18061772,-0.003563683,0.0
13593890,-0.22535153,0.18061657,-0.0035637093,0.0
13598665,-0.22533816,0.18064833,-0.0035632341,0.0
13603467,-0.22536436,0.18067016,-0.003564133,0.0
13607477,-0.22537524,0.18068147,-0.003564922,0.0
13611576,-0.22536865,0.18068524,-0.003564326,0.0
13615503,-0.2254098,0.18067178,-0.0035650868,0.0
13619503,-0.22540689,0.18065837,-0.0035653457,0.0
13623522,-0.22540197,0.18066412,-0.0035653226,0.0
13627506,-0.22538836,0.1806707,-0.0035652625,0.0
13631452,-0.22538048,0.18066536,-0.0035648504,0.0
13635510,-0.22532636,0.18066,-0.0035645568,0.0
13639534,-0.22531302,0.18069027,-0.0035641994,0.0
13643461,-0.22530816,0.18067451,-0.0035636672,0.0
13647481,-0.22530663,0.18069796,-0.0035645743,0.0
13651451,-0.22530341,0.18072794,-0.0035648502,0.0
13655609,-0.22526939,0.18071721,-0.00356418,0.0
13659546,-0.22528367,0.18072043,-0.003564258,0.0
13663473,-0.2253092,0.18071285,-0.0035641668,0.0
13667491,-0.2253026,0.18069062,-0.0035641417,0.0
13671449,-0.22530103,0.18068549,-0.0035644455,0.0
13675507,-0.22528574,0.1806378,-0.003563146,0.0
13679617,-0.22527555,0.18062562,-0.003562706,0.0
13683461,-0.2252826,0.18062511,-0.0035622937,0.0
13687492,-0.2252811,0.18060459,-0.0035619293,0.0
13691455,-0.22525215,0.18059261,-0.0035612273,0.0
13695483,-0.22520985,0.18062137,-0.0035615787,0.0
13699556,-0.22521667,0.18061946,-0.003561328,0.0
13703601,-0.22522183,0.1806103,-0.0035617051,0.0
13707508,-0.22524586,0.18064377,-0.0035621647,0.0
13711483,-0.22525114,0.18066917,-0.0035626425,0.0
13715496,-0.22525463,0.18069316,-0.0035629838,0.0
13719490,-0.22524638,0.18074581,-0.0035644232,0.0
13723503,-0.22524305,0.18075041,-0.003564103,0.0
13727573,-0.22521769,0.18076919,-0.003563735,0.0
13731458,-0.22519249,0.18080668,-0.0035648237,0.0
13735502,-0.22519772,0.18083207,-0.0035651752,0.0
13739473,-0.22521316,0.1808436,-0.0035656965,0.0
13743505,-0.22522506,0.18080893,-0.0035651915,0.0
13747502,-0.22520456,0.18080355,-0.0035649328,0.0
13751551,-0.22515203,0.18078618,-0.003563539,0.0
13755487,-0.22514369,0.18076678,-0.0035630136,0.0
13759476,-0.22514878,0.18075058,-0.003562252,0.0
13763498,-0.2251607,0.18074459,-0.003562817,0.0
13767508,-0.22515894,0.18071,-0.0035619303,0.0
13771460,-0.22515216,0.18069065,-0.0035616886,0.0
13775581,-0.22515734,0.18070695,-0.0035617955,0.0
13779481,-0.22515741,0.18073538,-0.003562407,0.0
13783511,-0.22516945,0.18077059,-0.0035633792,0.0
13787517,-0.2251491,0.18081273,-0.0035636995,0.0
13791457,-0.22515099,0.18086822,-0.0035652483,0.0
13795489,-0.22514445,0.18088466,-0.0035648919,0.0
13799575,-0.22512902,0.1808804,-0.003564837,0.0
13803518,-0.22512059,0.18088008,-0.0035644968,0.0
13807546,-0.22512567,0.18088786,-0.0035654707,0.0
13811462,-0.2251306,0.18089692,-0.0035650518,0.0
13815506,-0.22511873,0.18090498,-0.0035656623,0.0
13819457,-0.22509827,0.18091293,-0.0035661503,0.0
13823591,-0.22510485,0.180907,-0.0035653017,0.0
13827537,-0.22512533,0.1809168,-0.0035654677,0.0
13831470,-0.22511509,0.18089369,-0.0035648171,0.0
13835484,-0.22510996,0.18087228,-0.0035651394,0.0
13839449,-0.2251321,0.18089846,-0.0035652544,0.0
13843494,-0.22513221,0.18088755,-0.0035655024,0.0
13847601,-0.22515087,0.18084753,-0.0035653575,0.0
13851478,-0.22518638,0.1808296,-0.0035652886,0.0
13855503,-0.22518976,0.18082878,-0.0035657443,0.0
13859455,-0.22518462,0.18081427,-0.0035640982,0.0
13863515,-0.22516766,0.18079494,-0.0035641587,0.0
13867475,-0.2251486,0.18079555,-0.00356354,0.0
13871633,-0.22514184,0.18080656,-0.0035638236,0.0
13875486,-0.22514518,0.18079995,-0.0035634271,0.0
13879491,-0.22516897,0.18083121,-0.0035645345,0.0
13883479,-0.22517413,0.18081473,-0.0035644379,0.0
13887500,-0.22519279,0.18081388,-0.0035648628,0.0
13891525,-0.2251961,0.18079777,-0.0035642744,0.0
13895547,-0.22523366,0.18081035,-0.0035653827,0.0
13899472,-0.22522517,0.18082976,-0.0035655836,0.0
13903496,-0.22519447,0.18085158,-0.0035653883,0.0
13907472,-0.22515868,0.18084769,-0.003564855,0.0
13911512,-0.22516033,0.18084852,-0.003565157,0.0
13915491,-0.22516032,0.18087168,-0.0035652877,0.0
13919486,-0.22514853,0.18087287,-0.0035651606,0.0
13923501,-0.22515196,0.18087545,-0.0035651294,0.0
13927480,-0.22514859,0.18089202,-0.0035659762,0.0
13931521,-0.22515027,0.1808969,-0.003566165,0.0
13935506,-0.22513838,0.18089996,-0.0035650344,0.0
13939470,-0.22513515,0.18090777,-0.003565696,0.0
13943495,-0.22510964,0.18093246,-0.0035655063,0.0
13947480,-0.22512329,0.18093677,-0.0035661038,0.0
13951522,-0.22512853,0.18091257,-0.003566011,0.0
13955449,-0.22510634,0.18090928,-0.003565424,0.0
13959462,-0.22509982,0.18092905,-0.0035651922,0.0
13963516,-0.22509983,0.18092138,-0.0035649547,0.0
13967471,-0.22510505,0.18092604,-0.0035655114,0.0
13971529,-0.22512405,0.18091758,-0.0035656686,0.0
13975482,-0.2251294,0.18092069,-0.0035657561,0.0
13979449,-0.22514321,0.1809526,-0.0035668307,0.0
13983451,-0.22518942,0.1809794,-0.0035677913,0.0
13987471,-0.2251898,0.18096733,-0.0035675357,0.0
13991513,-0.22520536,0.18098916,-0.0035679494,0.0
13995507,-0.22521764,0.18099895,-0.0035685513,0.0
13999452,-0.22521932,0.18101877,-0.0035691792,0.0
14003498,-0.22522631,0.18103349,-0.0035694125,0.0
14007453,-0.22521463,0.18105003,-0.0035700137,0.0
14011521,-0.22518238,0.1810241,-0.00356871,0.0
14015699,-0.22517388,0.18103544,-0.0035691597,0.0
14019459,-0.22516222,0.18105525,-0.003569292,0.0
14023488,-0.22518449,0.18106002,-0.0035694276,0.0
14027455,-0.22519496,0.18108515,-0.0035700435,0.0
14031496,-0.22521539,0.18110217,-0.0035712987,0.0
14035496,-0.22523262,0.1810523,-0.003569944,0.0
14039666,-0.22522435,0.18104991,-0.0035694782,0.0
14043499,-0.22522978,0.18105255,-0.003570191,0.0
14047470,-0.22524709,0.18104678,-0.003570179,0.0
14051496,-0.22523035,0.18106322,-0.0035702349,0.0
14055463,-0.22523902,0.18107475,-0.0035708984,0.0
14059497,-0.22524123,0.18107428,-0.0035707436,0.0
14063558,-0.22527048,0.1811006,-0.003571883,0.0
14067458,-0.22525537,0.18111335,-0.0035717257,0.0
14071490,-0.22527617,0.18111274,-0.0035723138,0.0
14075472,-0.22528668,0.18111223,-0.0035720125,0.0
14079495,-0.22530234,0.18114397,-0.0035723555,0.0
14083510,-0.225359,0.1811547,-0.0035738754,0.0
14087553,-0.22542372,0.18117061,-0.0035752016,0.0
14091501,-0.22542563,0.18116757,-0.003575001,0.0
14095469,-0.22539371,0.18115823,-0.0035743467,0.0
14099525,-0.22537518,0.18117811,-0.0035747064,0.0
14103503,-0.22537391,0.18117043,-0.003574126,0.0
14107482,-0.22538099,0.1811493,-0.0035749248,0.0
14111662,-0.2253917,0.18118887,-0.0035752829,0.0
14115471,-0.22539052,0.18123701,-0.0035759844,0.0
14119512,-0.22539406,0.18125962,-0.003576971,0.0
14123587,-0.22539108,0.18128943,-0.0035774193,0.0
14127457,-0.2254018,0.18131746,-0.0035778848,0.0
14131509,-0.22537343,0.1813283,-0.003577681,0.0
14135544,-0.22537887,0.18136095,-0.0035785742,0.0
14139514,-0.22541478,0.18134785,-0.00357867,0.0
14143502,-0.22541003,0.18134843,-0.0035784107,0.0
14147457,-0.2253916,0.18135728,-0.003578552,0.0
14151498,-0.22537677,0.18138659,-0.0035789406,0.0
14155454,-0.2253567,0.18138894,-0.0035783018,0.0
14159693,-0.2253555,0.1813688,-0.0035778952,0.0
14163495,-0.22536956,0.18135364,-0.0035785115,0.0
14167471,-0.22537684,0.18135753,-0.0035789202,0.0
14171485,-0.22536534,0.18137139,-0.003578976,0.0
14175476,-0.22537617,0.18138722,-0.0035787334,0.0
14179508,-0.22539695,0.18136181,-0.0035795483,0.0
14183600,-0.22540258,0.18133482,-0.0035784605,0.0
14187487,-0.22541824,0.18134174,-0.0035784268,0.0
14191509,-0.22542056,0.1813846,-0.0035798382,0.0
14195476,-0.22541597,0.18141581,-0.0035805907,0.0
14199500,-0.22541153,0.18139754,-0.0035801798,0.0
14203489,-0.22539335,0.18137237,-0.0035785995,0.0
14207679,-0.22539544,0.18137242,-0.0035792717,0.0
14211496,-0.225396,0.18139425,-0.0035797404,0.0
14215485,-0.22538994,0.18139283,-0.0035795115,0.0
14219508,-0.22538705,0.18138452,-0.0035790557,0.0
14223508,-0.2253792,0.18140866,-0.0035797404,0.0
14227537,-0.22538316,0.1814139,-0.003580182,0.0
14231562,-0.22536685,0.18145552,-0.0035806939,0.0
14235477,-0.22537608,0.18145263,-0.0035802673,0.0
14239509,-0.2254024,0.18143073,-0.003580345,0.0
14243484,-0.22540307,0.18143257,-0.003580242,0.0
14247512,-0.22542258,0.18145448,-0.0035810804,0.0
14251460,-0.22542684,0.18149047,-0.0035816105,0.0
14255557,-0.2254312,0.18154006,-0.0035824575,0.0
14259499,-0.22543222,0.18155746,-0.0035840268,0.0
14263484,-0.22541785,0.18156837,-0.0035832878,0.0
14267524,-0.22543219,0.1815788,-0.0035828282,0.0
14271463,-0.2254552,0.18160594,-0.0035848487,0.0
14275468,-0.22545432,0.18157877,-0.0035838601,0.0
14279625,-0.22544675,0.18159267,-0.003584146,0.0
14283486,-0.22543073,0.1815897,-0.0035838238,0.0
14287559,-0.22540107,0.18159692,-0.0035830596,0.0
14291477,-0.22539532,0.1815854,-0.003583238,0.0
14295456,-0.225415,0.18159762,-0.0035838534,0.0
14299500,-0.2254297,0.1816135,-0.0035840056,0.0
14303640,-0.22545616,0.18162552,-0.003585081,0.0
14307533,-0.22548458,0.18164279,-0.0035862953,0.0
14311506,-0.22549924,0.18164283,-0.0035866862,0.0
14315474,-0.22552069,0.18164152,-0.0035866424,0.0
14319504,-0.22550647,0.18164875,-0.0035861991,0.0
14323459,-0.22548725,0.18167126,-0.0035868778,0.0
14327604,-0.2255139,0.18169166,-0.0035878702,0.0
14331509,-0.2255322,0.18172464,-0.0035878671,0.0
14335461,-0.22552836,0.18176019,-0.0035892958,0.0
14339505,-0.22552961,0.18178427,-0.0035900879,0.0
14343456,-0.22550529,0.18176103,-0.003588163,0.0
14347527,-0.22546896,0.18173921,-0.003586951,0.0
14351629,-0.22545472,0.18169674,-0.0035860483,0.0
14355486,-0.2254578,0.18166171,-0.0035852098,0.0
14359501,-0.22544715,0.18165012,-0.0035850485,0.0
14363471,-0.22549435,0.18165185,-0.0035865966,0.0
14367503,-0.22553493,0.18165241,-0.0035874008,0.0
14371518,-0.22556184,0.18163583,-0.0035864683,0.0
14375598,-0.22558033,0.18161067,-0.003586756,0.0
14379512,-0.2255715,0.18161124,-0.003586637,0.0
14383486,-0.2256002,0.18161333,-0.0035866988,0.0
14387502,-0.22561698,0.18162541,-0.0035874255,0.0
14391499,-0.22565585,0.18163225,-0.0035884727,0.0
14395508,-0.22563007,0.18162043,-0.0035877605,0.0
14399697,-0.22561277,0.18163785,-0.0035874029,0.0
14403476,-0.22559723,0.18163456,-0.0035876976,0.0
14407495,-0.22556297,0.18162291,-0.003586267,0.0
14411517,-0.22555935,0.18164845,-0.0035871253,0.0
14415515,-0.2255642,0.1816486,-0.0035871211,0.0
14419469,-0.22558084,0.1816619,-0.0035884057,0.0
14423468,-0.2255636,0.18167362,-0.0035875554,0.0
14427512,-0.22558722,0.18167686,-0.0035876543,0.0
14431479,-0.22559057,0.18167022,-0.0035884883,0.0
14435552,-0.22561747,0.18165,-0.003588581,0.0
14439492,-0.22564109,0.18163267,-0.003587841,0.0
14443459,-0.22566648,0.18161845,-0.0035880283,0.0
14447581,-0.22566804,0.18163848,-0.0035883947,0.0
14451476,-0.22563559,0.18165532,-0.0035882439,0.0
14455525,-0.22559781,0.18165503,-0.0035879328,0.0
14459456,-0.22560793,0.1816579,-0.0035874671,0.0
14463472,-0.22562155,0.18166766,-0.00358901,0.0
14467516,-0.22560792,0.18167907,-0.00358821,0.0
14471573,-0.22557727,0.18167703,-0.0035875016,0.0
14475554,-0.2255603,0.18166612,-0.0035878958,0.0
14479428,-0.22554643,0.1816691,-0.0035872876,0.0
14483460,-0.22559741,0.18166012,-0.003587291,0.0
14487480,-0.22562656,0.18165985,-0.0035883193,0.0
14491458,-0.22562501,0.1816733,-0.0035882227,0.0
14495607,-0.22562176,0.18170051,-0.003588772,0.0
14499497,-0.22564222,0.18167244,-0.0035891063,0.0
14503476,-0.22566591,0.18161236,-0.0035879929,0.0
14507498,-0.22568326,0.18165807,-0.0035887074,0.0
14511455,-0.22567818,0.18166414,-0.0035894443,0.0
14515496,-0.22570723,0.18163458,-0.0035891747,0.0
14519707,-0.22572778,0.18161382,-0.003588639,0.0
14523501,-0.22572458,0.18160656,-0.003589162,0.0
14527452,-0.22573309,0.18160592,-0.003589106,0.0
14531455,-0.22574346,0.18158494,-0.003588803,0.0
14535494,-0.22576304,0.18163073,-0.0035898786,0.0
14539496,-0.22574617,0.18163526,-0.0035895954,0.0
14543683,-0.22574301,0.18163647,-0.0035898457,0.0
14547454,-0.2257416,0.18161547,-0.0035894152,0.0
14551459,-0.22573166,0.18161494,-0.0035892108,0.0
14555452,-0.22571674,0.18161982,-0.0035892888,0.0
14559491,-0.22572042,0.18162966,-0.0035893105,0.0
14563521,-0.22571404,0.18161418,-0.003588661,0.0
14567571,-0.2257179,0.18163602,-0.003589356,0.0
14571441,-0.2257064,0.18165104,-0.0035896571,0.0
14575479,-0.22574091,0.18166298,-0.003589485,0.0
14579447,-0.22577548,0.18167803,-0.003590993,0.0
14583550,-0.22580488,0.18165551,-0.0035911642,0.0
14587431,-0.22582065,0.18169081,-0.0035915005,0.0
14591537,-0.22580586,0.18171763,-0.0035919207,0.0
14596310,-0.225796,0.18172564,-0.0035923144,0.0
14600288,-0.22580363,0.18171565,-0.003592425,0.0
14604295,-0.22579408,0.18172158,-0.0035924283,0.0
14608291,-0.22578777,0.1817521,-0.0035926432,0.0
14612268,-0.22581714,0.18171911,-0.003592186,0.0
14616294,-0.2258502,0.18171999,-0.0035932837,0.0
14620293,-0.22584902,0.18169895,-0.0035923324,0.0
14624304,-0.22589187,0.18164521,-0.003592118,0.0
14628264,-0.22585797,0.18167073,-0.0035929612,0.0
14632272,-0.22580285,0.18167329,-0.003591789,0.0
14636305,-0.22578786,0.18169133,-0.0035919992,0.0
14640329,-0.22578512,0.18170673,-0.0035918725,0.0
14644276,-0.22579782,0.18171522,-0.0035926607,0.0
14648272,-0.22581708,0.18168627,-0.0035918553,0.0
14652279,-0.22580582,0.18169945,-0.003592266,0.0
14656288,-0.22582696,0.18170932,-0.0035923442,0.0
14660309,-0.2258529,0.18169706,-0.0035924239,0.0
14664341,-0.22586347,0.18172735,-0.0035927955,0.0
14668252,-0.22588286,0.18176816,-0.0035947952,0.0
14672261,-0.22589885,0.18174766,-0.0035946043,0.0
14676294,-0.22589108,0.18174905,-0.0035944674,0.0
14680265,-0.22586627,0.18176411,-0.003594256,0.0
14684332,-0.22587384,0.18179262,-0.0035949387,0.0
14688249,-0.22587265,0.18178165,-0.003594609,0.0
14692259,-0.22586167,0.18177135,-0.003594662,0.0
14696317,-0.22585541,0.18177284,-0.00359442,0.0
14700266,-0.22586477,0.18179159,-0.0035953913,0.0
14704370,-0.22585365,0.18185106,-0.0035958323,0.0
14708256,-0.22586794,0.18189701,-0.0035970705,0.0
14712261,-0.22589725,0.18188818,-0.0035970968,0.0
14716294,-0.22594728,0.18187553,-0.0035972039,0.0
14720266,-0.22595312,0.18188198,-0.003598222,0.0
14724306,-0.22598094,0.18187092,-0.0035974877,0.0
14728472,-0.22602081,0.18185675,-0.0035984698,0.0
14732275,-0.2260268,0.18184084,-0.0035981543,0.0
14736308,-0.2260259,0.18183546,-0.0035982141,0.0
14740262,-0.22607589,0.18181781,-0.0035987191,0.0
14744337,-0.22606638,0.18179691,-0.0035980425,0.0
14748298,-0.22602963,0.18175076,-0.0035966937,0.0
14752527,-0.22602002,0.18173972,-0.003596338,0.0
14756292,-0.2260293,0.18171962,-0.0035958376,0.0
14760258,-0.22605027,0.18169652,-0.0035953454,0.0
14764302,-0.2260662,0.18167041,-0.0035960246,0.0
14768296,-0.22610787,0.18166131,-0.0035957666,0.0
14772316,-0.22610848,0.18165028,-0.0035953913,0.0
14776474,-0.2261386,0.18165639,-0.0035960276,0.0
14780261,-0.22617657,0.1816689,-0.0035971056,0.0
14784310,-0.22622994,0.18168318,-0.0035978253,0.0
14788303,-0.22624604,0.18171503,-0.0035989624,0.0
14792289,-0.22623335,0.18175018,-0.0035999073,0.0
14796270,-0.22625455,0.18172845,-0.0035996533,0.0
14800459,-0.22627395,0.18171932,-0.00360063,0.0
14804288,-0.22629015,0.18175395,-0.0036008095,0.0
14808317,-0.22631629,0.18176672,-0.0036006924,0.0
14812332,-0.22630659,0.18177578,-0.0036012405,0.0
14816263,-0.22630237,0.18177682,-0.0036010868,0.0
14820260,-0.22632535,0.18179311,-0.0036013909,0.0
14824485,-0.22634467,0.1818261,-0.0036025206,0.0
14828291,-0.22634023,0.18184026,-0.0036038503,0.0
14832342,-0.22633749,0.18184932,-0.0036029716,0.0
14836259,-0.22634843,0.18188232,-0.0036040584,0.0
14840277,-0.22639671,0.1818637,-0.003604635,0.0
14844297,-0.22643305,0.18184541,-0.0036043618,0.0
14848548,-0.22646105,0.18186831,-0.0036055935,0.0
14852343,-0.22647047,0.18186049,-0.0036057914,0.0
14856258,-0.22648478,0.1818729,-0.003606702,0.0
14860261,-0.22650616,0.18186171,-0.0036069446,0.0
14864284,-0.2265017,0.1818541,-0.003606346,0.0
14868287,-0.22649723,0.18183796,-0.0036059278,0.0
14872516,-0.22647397,0.18182848,-0.0036048414,0.0
14876260,-0.22649011,0.18184708,-0.0036060538,0.0
14880269,-0.22651121,0.18187197,-0.003606303,0.0
14884282,-0.22652039,0.18184692,-0.0036060568,0.0
14888267,-0.22652274,0.18182427,-0.0036060277,0.0
14892332,-0.2265216,0.18179639,-0.003605319,0.0
14896488,-0.22651044,0.18181252,-0.0036049623,0.0
14900310,-0.22650939,0.1817977,-0.0036046964,0.0
14904253,-0.22653405,0.1817776,-0.003605271,0.0
14908259,-0.22655669,0.18174437,-0.0036046498,0.0
14912335,-0.22655064,0.18177445,-0.003605731,0.0
14916294,-0.22654289,0.18178521,-0.0036060899,0.0
14924247,-0.22654589,0.18172225,-0.0036039245,0.0
14928253,-0.22653292,0.18173318,-0.0036040554,0.0
14932332,-0.22653365,0.18174924,-0.0036048205,0.0
14936288,-0.2265465,0.1817828,-0.0036055597,0.0
14940282,-0.22657269,0.18177651,-0.0036063455,0.0
14944251,-0.22657718,0.18177557,-0.0036057602,0.0
14948269,-0.22658443,0.18173723,-0.0036056421,0.0
14952271,-0.22659199,0.18168531,-0.0036045506,0.0
14956284,-0.22659597,0.18164194,-0.0036028584,0.0
14960282,-0.2266138,0.18163067,-0.0036034058,0.0
14964252,-0.22659577,0.18163821,-0.0036030198,0.0
14968252,-0.2266372,0.18163016,-0.0036045616,0.0
14972414,-0.2266466,0.1816789,-0.0036048482,0.0
14976282,-0.22661676,0.18167776,-0.0036039609,0.0
14980333,-0.22662266,0.18165645,-0.003604402,0.0
15052253,-0.22686039,0.18169834,-0.003608553,0.0
15056247,-0.22685938,0.1817273,-0.0036090326,0.0
15060330,-0.2268837,0.18173811,-0.0036097765,0.0
15092272,-0.22703591,0.18196861,-0.00361714,0.0
15096272,-0.22706738,0.18194658,-0.0036168913,0.0
15100308,-0.22706963,0.18195023,-0.0036172105,0.0
15104298,-0.22702742,0.1819709,-0.0036170164,0.0
15108278,-0.2269856,0.18200186,-0.003617227,0.0
15112436,-0.22695737,0.18200609,-0.0036163542,0.0
15117056,-0.22694096,0.1820111,-0.0036155116,0.0
