timestamp,P_X,P_Y,P_Z,time_utc_usec,lat,lon,alt,alt_ellipsoid,pos_itow,s_variance_m_s,c_variance_rad,fix_quality,sAcc,eph,epv,hdop,vdop,noise_per_ms,jamming_indicator,vel_m_s,vel_n_m_s,vel_e_m_s,vel_d_m_s,cog_rad,timestamp_time_relative,status0,status1,fix_type,vel_ned_valid,satellites_used,gps_kind
24340395,0,0,0,0,282418524,1129934274,127667,110934,368269000,0.0,0.0,0,3,9.8550005,17.160002,0.79999995,0.0,0,0,0.049999997,-0.049999997,0.0,0.0,0.79862773,-24340395,2,2,3,1,15,3
24542109,0,0,0,0,282418488,1129934255,127721,110988,368269200,0.0,0.0,0,3,9.8550005,17.159,0.79999995,0.0,0,0,0.08,-0.07,-0.01,-0.04,0.76425326,-24542109,2,2,3,1,15,3
24740556,0,0,0,0,282418509,1129934254,127875,111142,368269400,0.0,0.0,0,3,9.8550005,17.158,0.79999995,0.0,0,0,0.04,-0.01,0.0,0.04,0.72225016,-24740556,2,2,3,1,15,3
24959646,0,0,0,0,282418892,1129934150,131656,114923,368269600,0.0,0.0,0,3,4.618,8.733001,0.79999995,3.8,0,0,0.099999994,-0.08,-0.02,0.049999997,0.68994486,-24959646,13,13,3,1,15,3
25160564,0,0,0,0,282418926,1129934158,131993,115260,368269800,0.0,0.0,0,3,3.4110003,6.5730004,0.79999995,3.8,0,0,0.03,0.0,-0.03,0.01,0.65665305,-25160564,13,13,3,1,15,3
25364528,0,0,0,0,282418935,1129934163,132220,115487,368270000,0.0,0.0,0,3,2.8290002,5.491,0.79999995,3.8,0,0,0.03,0.0,0.0,-0.03,0.6501531,-25364528,13,13,3,1,15,3
25556526,0,0,0,0,282418936,1129934163,132238,115505,368270200,0.0,0.0,0,3,2.47,4.8120003,0.79999995,3.8,0,0,0.08,-0.03,-0.03,0.06,0.64985186,-25556526,13,13,3,1,15,3
25760531,0,0,0,0,282418937,1129934163,132244,115511,368270400,0.0,0.0,0,3,2.22,4.335,0.79999995,3.8,0,0,0.049999997,-0.01,0.01,0.049999997,0.6520644,-25760531,13,13,3,1,15,3
25959526,0,0,0,0,282418942,1129934164,132238,115505,368270600,0.0,0.0,0,3,2.033,3.976,0.79999995,3.8,0,0,0.049999997,-0.04,0.01,0.03,0.6499941,-25959526,13,13,3,1,15,3
26162826,0,0,0,0,282418947,1129934166,132262,115530,368270800,0.0,0.0,0,3,1.8870001,3.6940002,0.79999995,3.8,0,0,0.04,-0.04,-0.01,0.0,0.64849555,-26162826,13,13,3,1,15,3
26362695,0,0,0,0,282418951,1129934168,132332,115599,368271000,0.0,0.0,0,3,1.7680001,3.4650002,0.79999995,3.8,0,0,0.06,0.02,0.0,0.049999997,0.6483636,-26362695,13,13,3,1,15,3
26563690,0,0,0,0,282418952,1129934168,132336,115603,368271200,0.0,0.0,0,3,1.6700001,3.2730002,0.79999995,3.8,0,0,0.049999997,-0.02,-0.01,0.04,0.6437266,-26563690,13,13,3,1,15,3
26755592,0,0,0,0,282418967,1129934175,132403,115670,368271400,0.0,0.0,0,3,1.5860001,3.1100001,0.79999995,3.8,0,0,0.04,-0.04,0.01,0.01,0.63192135,-26755592,13,13,3,1,15,3
26958681,0,0,0,0,282418978,1129934179,132435,115703,368271600,0.0,0.0,0,3,1.5130001,2.969,0.79999995,3.8,0,0,0.13,-0.01,-0.02,0.13,0.619703,-26958681,13,13,3,1,15,3
27159581,0,0,0,0,282418984,1129934182,132435,115703,368271800,0.0,0.0,0,3,1.45,2.8460002,0.79999995,3.8,0,0,0.06,0.02,0.03,-0.04,0.6205837,-27159581,13,13,3,1,15,3
27360804,0,0,0,0,282418989,1129934184,132433,115700,368272000,0.0,0.0,0,3,1.394,2.7370002,0.79999995,3.8,0,0,0.02,0.0,0.02,0.0,0.62054217,-27360804,13,13,3,1,15,3
27565063,0,0,0,0,282418994,1129934185,132433,115700,368272200,0.0,0.0,0,3,1.3440001,2.64,0.79999995,3.8,0,0,0.02,0.0,0.02,0.01,0.6253303,-27565063,13,13,3,1,15,3
27756636,0,0,0,0,282418997,1129934186,132401,115669,368272400,0.0,0.0,0,3,1.299,2.552,0.79999995,3.8,0,0,0.06,-0.049999997,-0.01,-0.02,0.62406725,-27756636,13,13,3,1,15,3
27957543,0,0,0,0,282419000,1129934187,132369,115636,368272600,0.0,0.0,0,3,1.2590001,2.4720001,0.79999995,3.8,0,0,0.14,-0.06,-0.01,0.13,0.6217489,-27957543,13,13,3,1,15,3
28158573,0,0,0,0,282419004,1129934187,132334,115601,368272800,0.0,0.0,0,3,1.2210001,2.4,0.79999995,3.8,0,0,0.17,-0.08,-0.049999997,0.14,0.62203795,-28158573,13,13,3,1,15,3
28358707,0,0,0,0,282419007,1129934188,132305,115572,368273000,0.0,0.0,0,3,1.187,2.3330002,0.79999995,3.8,0,0,0.04,0.01,0.01,-0.04,0.62463254,-28358707,13,13,3,1,15,3
28564760,0,0,0,0,282419010,1129934188,132281,115549,368273200,0.0,0.0,0,3,1.156,2.272,0.79999995,3.8,0,0,0.06,0.049999997,0.0,-0.01,0.62317395,-28564760,13,13,3,1,15,3
28773009,0,0,0,0,282419013,1129934190,132275,115542,368273400,0.0,0.0,0,3,1.1270001,2.2150002,0.79999995,3.8,0,0,0.049999997,0.049999997,0.0,0.0,0.6273275,-28773009,13,13,3,1,15,3
28983926,0,0,0,0,282419013,1129934189,132268,115535,368273600,0.0,0.0,0,3,1.1,2.1620002,0.79999995,3.8,0,0,0.13,-0.03,-0.02,0.12,0.6367088,-28983926,13,13,3,1,15,3
29185530,0,0,0,0,282419012,1129934188,132248,115515,368273800,0.0,0.0,0,3,1.075,2.1130002,0.79999995,3.8,0,0,0.06,0.04,0.03,-0.03,0.64522916,-29185530,13,13,3,1,15,3
29388576,0,0,0,0,282419011,1129934187,132221,115488,368274000,0.0,0.0,0,3,1.052,2.0670002,0.79999995,3.8,0,0,0.12,0.11,0.04,-0.02,0.66029954,-29388576,13,13,3,1,15,3
29588538,0,0,0,0,282419011,1129934186,132199,115466,368274200,0.0,0.0,0,3,1.0300001,2.0240002,0.79999995,3.8,0,0,0.03,0.0,0.0,-0.03,0.6740842,-29588538,13,13,3,1,15,3
29781528,0,0,0,0,282419009,1129934185,132173,115440,368274400,0.0,0.0,0,3,1.0090001,1.9840001,0.79999995,3.8,0,0,0.049999997,-0.01,-0.02,0.049999997,0.6910013,-29781528,13,13,3,1,15,3
29979725,0,0,0,0,282419008,1129934185,132148,115415,368274600,0.0,0.0,0,3,0.99000007,1.9460001,0.79999995,3.8,0,0,0.06,0.0,0.0,0.06,0.71543574,-29979725,13,13,3,1,15,3
30181597,0,0,0,0,282419007,1129934183,132108,115375,368274800,0.0,0.0,0,3,0.97200006,1.9100001,0.79999995,3.8,0,0,0.049999997,0.049999997,0.01,-0.01,0.73696226,-30181597,13,13,3,1,15,3
30382836,0,0,0,0,282419006,1129934183,132082,115349,368275000,0.0,0.0,0,3,0.95400006,1.876,0.79999995,3.8,0,0,0.07,0.0,0.02,-0.07,0.75306815,-30382836,13,13,3,1,15,3
30583775,0,0,0,0,282419005,1129934183,132053,115320,368275200,0.0,0.0,0,3,0.938,1.843,0.79999995,3.8,0,0,0.14,0.12,0.02,-0.06,0.77361035,-30583775,13,13,3,1,15,3
30785526,0,0,0,0,282419004,1129934182,132033,115300,368275400,0.0,0.0,0,3,0.92200005,1.8130001,0.79999995,3.8,0,0,0.03,0.03,0.0,0.0,0.79475325,-30785526,13,13,3,1,15,3
30977837,0,0,0,0,282419005,1129934183,132073,115340,368275600,0.0,0.0,0,3,0.90700006,1.7830001,0.79999995,3.8,0,0,0.089999996,0.049999997,0.01,-0.07,0.8191542,-30977837,13,13,3,1,15,3
31177531,0,0,0,0,282419006,1129934184,132104,115371,368275800,0.0,0.0,0,3,0.89300007,1.7550001,0.79999995,3.8,0,0,0.049999997,0.049999997,-0.01,0.0,0.8359481,-31177531,13,13,3,1,15,3
31380528,0,0,0,0,282419008,1129934186,132128,115395,368276000,0.0,0.0,0,3,0.88000005,1.7290001,0.79999995,3.8,0,0,0.03,0.0,0.01,-0.02,0.85295594,-31380528,13,13,3,1,15,3
31584620,0,0,0,0,282419010,1129934186,132154,115421,368276200,0.0,0.0,0,3,0.86700004,1.7030001,0.79999995,3.8,0,0,0.04,-0.01,-0.01,0.04,0.86354226,-31584620,13,13,3,1,15,3
31784631,0,0,0,0,282419012,1129934188,132178,115446,368276400,0.0,0.0,0,3,0.85400003,1.6790001,0.79999995,3.8,0,0,0.089999996,0.02,0.0,0.08,0.8752922,-31784631,13,13,3,1,15,3
31984528,0,0,0,0,282419014,1129934189,132196,115463,368276600,0.0,0.0,0,3,0.84200007,1.6560001,0.79999995,3.8,0,0,0.08,0.06,0.02,-0.049999997,0.8852603,-31984528,13,13,3,1,15,3
32164573,0,0,0,0,282419015,1129934189,132223,115490,368276800,0.0,0.0,0,3,0.83100003,1.6330001,0.79999995,3.8,0,0,0.08,-0.08,0.0,0.01,0.8852603,-32164573,13,13,3,1,15,3
32385528,0,0,0,0,282419017,1129934191,132263,115530,368277000,0.0,0.0,0,3,0.82000005,1.6120001,0.79999995,3.8,0,0,0.01,-0.01,0.0,0.0,0.8863647,-32385528,13,13,3,1,15,3
32576532,0,0,0,0,282419019,1129934192,132295,115562,368277200,0.0,0.0,0,3,0.81000006,1.5910001,0.79999995,3.8,0,0,0.12,-0.049999997,-0.04,0.099999994,0.8898351,-32576532,13,13,3,1,15,3
32777562,0,0,0,0,282419019,1129934192,132339,115607,368277400,0.0,0.0,0,3,0.799,1.5710001,0.79999995,3.8,0,0,0.01,0.01,0.0,0.0,0.89260393,-32777562,13,13,3,1,15,3
32978682,0,0,0,0,282419021,1129934194,132397,115664,368277600,0.0,0.0,0,3,0.79,1.552,0.79999995,3.8,0,0,0.089999996,0.08,0.01,0.0,0.90188766,-32978682,13,13,3,1,15,3
33179637,0,0,0,0,282419024,1129934196,132465,115732,368277800,0.0,0.0,0,3,0.78000003,1.534,0.79999995,3.8,0,0,0.02,-0.01,0.0,0.0,0.888882,-33179637,13,13,3,1,15,3
33382824,0,0,0,0,282419028,1129934198,132516,115783,368278000,0.0,0.0,0,3,0.771,1.516,0.79999995,3.8,0,0,0.11,0.02,-0.04,0.099999994,0.8790827,-33382824,13,13,3,1,15,3
33582751,0,0,0,0,282419030,1129934199,132567,115835,368278200,0.0,0.0,0,3,0.762,1.498,0.79999995,3.8,0,0,0.03,-0.03,0.0,-0.01,0.87839466,-33582751,13,13,3,1,15,3
33783532,0,0,0,0,282419032,1129934200,132604,115871,368278400,0.0,0.0,0,3,0.754,1.4820001,0.79999995,3.8,0,0,0.12,-0.02,0.03,-0.12,0.87832505,-33783532,13,13,3,1,15,3
33984526,0,0,0,0,282419033,1129934201,132639,115906,368278600,0.0,0.0,0,3,0.74600005,1.4660001,0.79999995,3.8,0,0,0.22999999,-0.11,-0.06,0.19,0.8678869,-33984526,13,13,3,1,15,3
34164526,0,0,0,0,282419036,1129934202,132679,115947,368278800,0.0,0.0,0,3,0.73800004,1.45,0.79999995,3.8,0,0,0.12,0.07,0.02,-0.099999994,0.8678869,-34164526,13,13,3,1,15,3
34384651,0,0,0,0,282419037,1129934203,132725,115992,368279000,0.0,0.0,0,3,0.73,1.4350001,0.79999995,3.8,0,0,0.02,0.0,0.0,0.02,0.8764511,-34384651,13,13,3,1,15,3
34574617,0,0,0,0,282419039,1129934204,132770,116037,368279200,0.0,0.0,0,3,0.72300005,1.4200001,0.79999995,3.8,0,0,0.06,0.06,-0.01,-0.01,0.86752146,-34574617,13,13,3,1,15,3
34794616,0,0,0,0,282419040,1129934205,132814,116081,368279400,0.0,0.0,0,3,0.716,1.406,0.79999995,3.8,0,0,0.04,-0.02,0.0,0.03,0.8658077,-34794616,13,13,3,1,15,3
34977046,0,0,0,0,282419040,1129934205,132850,116117,368279600,0.0,0.0,0,3,0.70900005,1.3920001,0.79999995,3.8,0,0,0.02,-0.01,-0.01,0.01,0.8639926,-34977046,13,13,3,1,15,3
35177533,0,0,0,0,282419040,1129934205,132881,116148,368279800,0.0,0.0,0,3,0.702,1.3790001,0.79999995,3.8,0,0,0.03,-0.02,0.01,0.01,0.85277635,-35177533,13,13,3,1,15,3
35380631,0,0,0,0,282419041,1129934204,132902,116169,368280000,0.0,0.0,0,3,0.69500005,1.366,0.79999995,3.8,0,0,0.08,0.06,0.0,-0.06,0.85272557,-35380631,13,13,3,1,15,3
35581546,0,0,0,0,282419041,1129934204,132922,116189,368280200,0.0,0.0,0,3,0.689,1.353,0.79999995,3.8,0,0,0.12,0.07,0.03,-0.089999996,0.8476493,-35581546,13,13,3,1,15,3
35780537,0,0,0,0,282419041,1129934204,132925,116192,368280400,0.0,0.0,0,3,0.68200004,1.3410001,0.79999995,3.8,0,0,0.22,-0.089999996,-0.03,0.19999999,0.8444635,-35780537,13,13,3,1,15,3
35980546,0,0,0,0,282419041,1129934203,132931,116198,368280600,0.0,0.0,0,3,0.67600006,1.3290001,0.79999995,3.8,0,0,0.04,0.02,0.0,0.03,0.83413345,-35980546,13,13,3,1,15,3
36180556,0,0,0,0,282419040,1129934203,132942,116209,368280800,0.0,0.0,0,3,0.67,1.317,0.79999995,3.8,0,0,0.04,-0.03,0.0,-0.03,0.82695526,-36180556,13,13,3,1,15,3
36381528,0,0,0,0,282419040,1129934202,132949,116216,368281000,0.0,0.0,0,3,0.665,1.3060001,0.79999995,3.8,0,0,0.13,0.08,0.03,-0.089999996,0.8162468,-36381528,13,13,3,1,15,3
36581925,0,0,0,0,282419040,1129934201,132949,116216,368281200,0.0,0.0,0,3,0.65900004,1.2950001,0.79999995,3.8,0,0,0.06,0.03,0.01,0.049999997,0.811876,-36581925,13,13,3,1,15,3
36780568,0,0,0,0,282419041,1129934201,132979,116246,368281400,0.0,0.0,0,3,0.65400004,1.284,0.79999995,3.8,0,0,0.04,0.01,0.0,-0.04,0.8043726,-36780568,13,13,3,1,15,3
36981186,0,0,0,0,282419044,1129934201,133004,116271,368281600,0.0,0.0,0,3,0.648,1.273,0.79999995,3.8,0,0,0.049999997,-0.01,-0.01,0.04,0.7989766,-36981186,13,13,3,1,15,3
37177530,0,0,0,0,282419046,1129934201,133026,116293,368281800,0.0,0.0,0,3,0.643,1.263,0.79999995,3.8,0,0,0.099999994,-0.089999996,0.02,-0.03,0.7917094,-37177530,13,13,3,1,15,3
37377528,0,0,0,0,282419049,1129934201,133048,116316,368282000,0.0,0.0,0,3,0.638,1.253,0.79999995,3.8,0,0,0.03,0.01,0.01,0.02,0.7863303,-37377528,13,13,3,1,15,3
37575777,0,0,0,0,282419052,1129934202,133070,116337,368282200,0.0,0.0,0,3,0.633,1.243,0.79999995,3.8,0,0,0.03,0.03,-0.01,0.01,0.7804119,-37575777,13,13,3,1,15,3
37791739,0,0,0,0,282419036,1129934197,132946,116213,368282400,0.0,0.0,0,3,0.619,1.1880001,0.79999995,2.3799999,0,0,0.049999997,0.02,0.01,-0.04,0.8214985,-37791739,13,13,3,1,15,3
37993526,0,0,0,0,282419024,1129934194,132847,116115,368282600,0.0,0.0,0,3,0.60700005,1.1450001,0.79999995,2.3799999,0,0,0.02,0.0,0.01,0.02,0.8581183,-37993526,13,13,3,1,15,3
38196526,0,0,0,0,282419015,1129934191,132770,116037,368282800,0.0,0.0,0,3,0.596,1.1060001,0.79999995,2.3799999,0,0,0.03,0.02,0.0,-0.02,0.88067514,-38196526,13,13,3,1,15,3
38397533,0,0,0,0,282419007,1129934188,132703,115970,368283000,0.0,0.0,0,3,0.586,1.0710001,0.79999995,2.3799999,0,0,0.04,0.02,-0.01,-0.02,0.9123481,-38397533,13,13,3,1,15,3
38587606,0,0,0,0,282419000,1129934186,132637,115905,368283200,0.0,0.0,0,3,0.57600003,1.039,0.79999995,2.3799999,0,0,0.04,0.02,0.01,0.03,0.94565547,-38587606,13,13,3,1,15,3
38791671,0,0,0,0,282418994,1129934183,132579,115846,368283400,0.0,0.0,0,3,0.56700003,1.0090001,0.79999995,2.3799999,0,0,0.02,0.01,0.0,-0.01,0.9718654,-38791671,13,13,3,1,15,3
38992716,0,0,0,0,282418989,1129934181,132522,115789,368283600,0.0,0.0,0,3,0.558,0.98300004,0.79999995,2.3799999,0,0,0.11,-0.01,-0.03,0.11,0.9981415,-38992716,13,13,3,1,15,3
39194793,0,0,0,0,282418984,1129934179,132475,115742,368283800,0.0,0.0,0,3,0.55,0.95800006,0.79999995,2.3799999,0,0,0.03,-0.02,0.0,0.01,1.0259277,-39194793,13,13,3,1,15,3
39395531,0,0,0,0,282418980,1129934178,132438,115705,368284000,0.0,0.0,0,3,0.54200006,0.93500006,0.79999995,2.3799999,0,0,0.07,0.049999997,0.02,-0.03,1.053477,-39395531,13,13,3,1,15,3
39598672,0,0,0,0,282418976,1129934176,132390,115657,368284200,0.0,0.0,0,3,0.53400004,0.91300005,0.79999995,2.3799999,0,0,0.03,0.03,0.0,0.01,1.0776325,-39598672,13,13,3,1,15,3
39790623,0,0,0,0,282418972,1129934173,132340,115607,368284400,0.0,0.0,0,3,0.527,0.89300007,0.79999995,2.3799999,0,0,0.03,0.02,-0.02,0.0,1.1063976,-39790623,13,13,3,1,15,3
39991570,0,0,0,0,282418969,1129934172,132306,115574,368284600,0.0,0.0,0,3,0.52000004,0.87500006,0.79999995,2.3799999,0,0,0.03,0.02,-0.01,0.01,1.1307594,-39991570,13,13,3,1,15,3
40191539,0,0,0,0,282418967,1129934170,132273,115540,368284800,0.0,0.0,0,3,0.513,0.85700005,0.79999995,2.3799999,0,0,0.06,0.01,0.0,-0.06,1.1274273,-40191539,13,13,3,1,15,3
40394614,0,0,0,0,282418965,1129934169,132245,115512,368285000,0.0,0.0,0,3,0.507,0.841,0.79999995,2.3799999,0,0,0.02,0.01,0.0,0.02,1.13875,-40394614,13,13,3,1,15,3
40587543,0,0,0,0,282418963,1129934167,132219,115486,368285200,0.0,0.0,0,3,0.50100005,0.82500005,0.79999995,2.3799999,0,0,0.04,0.0,0.0,-0.04,1.1517183,-40587543,13,13,3,1,15,3
40789528,0,0,0,0,282418962,1129934166,132199,115466,368285400,0.0,0.0,0,3,0.49500003,0.81000006,0.79999995,2.3799999,0,0,0.03,-0.01,0.0,0.02,1.1490034,-40789528,13,13,3,1,15,3
40990706,0,0,0,0,282418960,1129934165,132171,115439,368285600,0.0,0.0,0,3,0.48900002,0.79700005,0.79999995,2.3799999,0,0,0.02,0.02,0.0,0.0,1.1450851,-40990706,13,13,3,1,15,3
41193786,0,0,0,0,282418959,1129934164,132155,115422,368285800,0.0,0.0,0,3,0.48400003,0.78300005,0.79999995,2.3799999,0,0,0.03,0.0,0.0,0.03,1.146129,-41193786,13,13,3,1,15,3
41397531,0,0,0,0,282418958,1129934163,132133,115400,368286000,0.0,0.0,0,3,0.47900003,0.771,0.79999995,2.3799999,0,0,0.049999997,0.02,0.02,-0.03,1.1449335,-41397531,13,13,3,1,15,3
41588585,0,0,0,0,282418957,1129934162,132113,115380,368286200,0.0,0.0,0,3,0.47400004,0.75900006,0.79999995,2.3799999,0,0,0.03,0.0,0.01,-0.03,1.1464442,-41588585,13,13,3,1,15,3
41790039,0,0,0,0,282418956,1129934161,132094,115362,368286400,0.0,0.0,0,3,0.469,0.74700004,0.79999995,2.3799999,0,0,0.02,0.01,0.0,-0.01,1.1498653,-41790039,13,13,3,1,15,3
41993562,0,0,0,0,282418955,1129934160,132074,115341,368286600,0.0,0.0,0,3,0.46400002,0.73600006,0.79999995,2.3799999,0,0,0.049999997,0.03,0.0,0.04,1.1486385,-41993562,13,13,3,1,15,3
42195542,0,0,0,0,282418953,1129934159,132054,115322,368286800,0.0,0.0,0,3,0.45900002,0.726,0.79999995,2.3799999,0,0,0.01,0.01,0.0,-0.01,1.1365583,-42195542,13,13,3,1,15,3
42395526,0,0,0,0,282418952,1129934158,132028,115296,368287000,0.0,0.0,0,3,0.455,0.716,0.79999995,2.3799999,0,0,0.03,0.0,0.0,-0.03,1.1378014,-42395526,13,13,3,1,15,3
42588528,0,0,0,0,282418950,1129934157,132004,115271,368287200,0.0,0.0,0,3,0.45100003,0.70600003,0.79999995,2.3799999,0,0,0.049999997,0.0,-0.01,0.049999997,1.1243707,-42588528,13,13,3,1,15,3
42793347,0,0,0,0,282418949,1129934156,131984,115251,368287400,0.0,0.0,0,3,0.44700003,0.697,0.79999995,2.3799999,0,0,0.06,0.02,0.0,-0.049999997,1.1290512,-42793347,13,13,3,1,15,3
42992564,0,0,0,0,282418948,1129934155,131972,115239,368287600,0.0,0.0,0,3,0.44200003,0.688,0.79999995,2.3799999,0,0,0.04,0.03,0.0,-0.02,1.130259,-42992564,13,13,3,1,15,3
43193394,0,0,0,0,282418946,1129934154,131955,115222,368287800,0.0,0.0,0,3,0.439,0.679,0.79999995,2.3799999,0,0,0.07,-0.01,-0.01,0.07,1.1281066,-43193394,13,13,3,1,15,3
43396737,0,0,0,0,282418946,1129934154,131944,115211,368288000,0.0,0.0,0,3,0.43500003,0.671,0.79999995,2.3799999,0,0,0.06,0.03,0.01,-0.049999997,1.1142037,-43396737,13,13,3,1,15,3
43573526,0,0,0,0,282418945,1129934153,131926,115193,368288200,0.0,0.0,0,3,0.43100002,0.66300005,0.79999995,2.3799999,0,0,0.049999997,0.03,-0.01,0.03,1.1142037,-43573526,13,13,3,1,15,3
43795539,0,0,0,0,282418944,1129934152,131911,115178,368288400,0.0,0.0,0,3,0.42700002,0.65500003,0.79999995,2.3799999,0,0,0.01,0.0,-0.01,0.0,1.1134614,-43795539,13,13,3,1,15,3
43987721,0,0,0,0,282418944,1129934152,131898,115165,368288600,0.0,0.0,0,3,0.42400002,0.648,0.79999995,2.3799999,0,0,0.01,0.0,0.01,0.0,1.0924755,-43987721,13,13,3,1,15,3
44189569,0,0,0,0,282418944,1129934151,131887,115154,368288800,0.0,0.0,0,3,0.42000002,0.64100003,0.79999995,2.3799999,0,0,0.07,0.06,0.01,-0.01,1.0760654,-44189569,13,13,3,1,15,3
44392674,0,0,0,0,282418943,1129934150,131878,115145,368289000,0.0,0.0,0,3,0.41700003,0.634,0.79999995,2.3799999,0,0,0.049999997,-0.04,-0.02,0.0,1.056269,-44392674,13,13,3,1,15,3
44592572,0,0,0,0,282418943,1129934150,131869,115136,368289200,0.0,0.0,0,3,0.41400003,0.62700003,0.79999995,2.3799999,0,0,0.03,-0.01,0.0,-0.03,1.0477735,-44592572,13,13,3,1,15,3
44796562,0,0,0,0,282418944,1129934150,131863,115131,368289400,0.0,0.0,0,3,0.41000003,0.62100005,0.79999995,2.3799999,0,0,0.03,-0.01,0.0,-0.03,1.0477735,-44796562,13,13,3,1,15,3
44989610,0,0,0,0,282418944,1129934149,131858,115126,368289600,0.0,0.0,0,3,0.407,0.615,0.79999995,2.3799999,0,0,0.04,0.01,0.0,0.04,1.0131601,-44989610,13,13,3,1,15,3
45191542,0,0,0,0,282418944,1129934149,131857,115124,368289800,0.0,0.0,0,3,0.404,0.60800004,0.79999995,2.3799999,0,0,0.049999997,0.02,0.02,-0.04,0.99856406,-45191542,13,13,3,1,15,3
45394759,0,0,0,0,282418943,1129934148,131858,115125,368290000,0.0,0.0,0,3,0.40100002,0.60200006,0.79999995,2.3799999,0,0,0.03,-0.03,0.0,0.0,0.97461253,-45394759,13,13,3,1,15,3
45598664,0,0,0,0,282418943,1129934148,131860,115127,368290200,0.0,0.0,0,3,0.39800003,0.597,0.79999995,2.3799999,0,0,0.03,0.0,0.0,-0.02,0.9557405,-45598664,13,13,3,1,15,3
45800526,0,0,0,0,282418943,1129934148,131857,115125,368290400,0.0,0.0,0,3,0.39600003,0.591,0.79999995,2.3799999,0,0,0.03,0.0,0.0,-0.02,0.9373117,-45800526,13,13,3,1,15,3
45994717,0,0,0,0,282418942,1129934147,131852,115120,368290600,0.0,0.0,0,3,0.393,0.586,0.79999995,2.3799999,0,0,0.06,-0.01,-0.02,0.06,0.9289022,-45994717,13,13,3,1,15,3
46199531,0,0,0,0,282418942,1129934147,131852,115119,368290800,0.0,0.0,0,3,0.39000002,0.58000004,0.79999995,2.3799999,0,0,0.02,0.0,0.0,-0.01,0.89938855,-46199531,13,13,3,1,15,3
46390650,0,0,0,0,282418942,1129934147,131851,115118,368291000,0.0,0.0,0,3,0.38700002,0.57500005,0.79999995,2.3799999,0,0,0.03,0.02,-0.01,0.01,0.8887818,-46390650,13,13,3,1,15,3
46594798,0,0,0,0,282418942,1129934147,131851,115119,368291200,0.0,0.0,0,3,0.38500002,0.57000005,0.79999995,2.3799999,0,0,0.01,0.01,0.0,0.0,0.8889951,-46594798,13,13,3,1,15,3
46798674,0,0,0,0,282418942,1129934147,131852,115120,368291400,0.0,0.0,0,3,0.38200003,0.565,0.79999995,2.3799999,0,0,0.02,0.01,0.01,0.0,0.88956213,-46798674,13,13,3,1,15,3
46994238,0,0,0,0,282418942,1129934147,131856,115123,368291600,0.0,0.0,0,3,0.38000003,0.56100005,0.79999995,2.3799999,0,0,0.04,0.02,0.0,-0.03,0.87297034,-46994238,13,13,3,1,15,3
47215526,0,0,0,0,282418939,1129934147,131811,115078,368291800,0.0,0.0,0,5,0.377,0.549,0.79999995,2.06,0,0,0.06,0.02,0.0,-0.049999997,1.6727226,-47215526,13,13,3,1,15,3
47419653,0,0,0,0,282418936,1129934147,131772,115039,368292000,0.0,0.0,0,5,0.37300003,0.53900003,0.79999995,2.06,0,0,0.02,-0.01,0.0,-0.02,1.6850113,-47419653,13,13,3,1,15,3
47609757,0,0,0,0,282418933,1129934147,131733,115001,368292200,0.0,0.0,0,5,0.37,0.52900004,0.79999995,2.06,0,0,0.089999996,-0.049999997,-0.01,0.07,1.6861988,-47609757,13,13,3,1,15,3
47810596,0,0,0,0,282418930,1129934147,131699,114966,368292400,0.0,0.0,0,5,0.367,0.52000004,0.79999995,2.06,0,0,0.02,0.01,-0.01,-0.02,1.679888,-47810596,13,13,3,1,15,3
48013529,0,0,0,0,282418928,1129934147,131672,114939,368292600,0.0,0.0,0,5,0.365,0.51100004,0.79999995,2.06,0,0,0.02,-0.01,0.0,0.0,1.6810515,-48013529,13,13,3,1,15,3
48213912,0,0,0,0,282418926,1129934147,131645,114913,368292800,0.0,0.0,0,5,0.36200002,0.503,0.79999995,2.06,0,0,0.02,0.0,0.0,-0.02,1.6820308,-48213912,13,13,3,1,15,3
48416666,0,0,0,0,282418925,1129934147,131622,114890,368293000,0.0,0.0,0,5,0.35900003,0.49500003,0.79999995,2.06,0,0,0.04,0.02,-0.01,-0.03,1.6790382,-48416666,13,13,3,1,15,3
48617776,0,0,0,0,282418923,1129934148,131595,114862,368293200,0.0,0.0,0,5,0.356,0.48800004,0.79999995,2.06,0,0,0.03,0.03,0.01,0.0,1.6845765,-48617776,13,13,3,1,15,3
48807546,0,0,0,0,282418922,1129934148,131576,114844,368293400,0.0,0.0,0,5,0.354,0.48100004,0.79999995,2.06,0,0,0.06,0.0,0.01,-0.06,1.676108,-48807546,13,13,3,1,15,3
49008526,0,0,0,0,282418921,1129934148,131555,114822,368293600,0.0,0.0,0,5,0.351,0.47400004,0.79999995,2.06,0,0,0.049999997,0.0,-0.01,-0.049999997,1.6734946,-49008526,13,13,3,1,15,3
49211779,0,0,0,0,282418920,1129934148,131536,114803,368293800,0.0,0.0,0,5,0.349,0.46800002,0.79999995,2.06,0,0,0.03,0.02,0.0,0.01,1.6784141,-49211779,13,13,3,1,15,3
49413526,0,0,0,0,282418919,1129934148,131517,114785,368294000,0.0,0.0,0,5,0.34600002,0.462,0.79999995,2.06,0,0,0.01,0.0,0.01,0.01,1.6694515,-49413526,13,13,3,1,15,3
49613577,0,0,0,0,282418918,1129934148,131498,114765,368294200,0.0,0.0,0,3,0.344,0.45600003,0.79999995,2.06,0,0,0.07,-0.02,0.0,0.07,0.7549575,-49613577,13,13,3,1,15,3
49811866,0,0,0,0,282418917,1129934148,131480,114747,368294400,0.0,0.0,0,3,0.342,0.45000002,0.79999995,2.06,0,0,0.089999996,0.03,-0.02,-0.08,0.73922807,-49811866,13,13,3,1,15,3
50009606,0,0,0,0,282418916,1129934148,131454,114721,368294600,0.0,0.0,0,3,0.33900002,0.44500002,0.79999995,2.06,0,0,0.07,0.02,0.0,0.07,0.7120866,-50009606,13,13,3,1,15,3
50206626,0,0,0,0,282418915,1129934148,131429,114696,368294800,0.0,0.0,0,3,0.337,0.44000003,0.79999995,2.06,0,0,0.11,0.0,-0.01,0.11,0.68692315,-50206626,13,13,3,1,15,3
50407641,0,0,0,0,282418914,1129934148,131402,114670,368295000,0.0,0.0,0,3,0.335,0.43500003,0.79999995,2.06,0,0,0.08,-0.01,-0.01,0.08,0.65640604,-50407641,3,3,3,1,15,3
50605565,0,0,0,0,282418914,1129934148,131382,114649,368295200,0.0,0.0,0,3,0.333,0.43,0.79999995,2.06,0,0,0.06,0.0,0.0,0.06,0.6285628,-50605565,3,3,3,1,15,3
50804601,0,0,0,0,282418913,1129934148,131364,114631,368295400,0.0,0.0,0,3,0.33100003,0.425,0.79999995,2.06,0,0,0.02,0.02,0.0,0.0,0.6069656,-50804601,3,3,3,1,15,3
51004537,0,0,0,0,282418912,1129934149,131344,114611,368295600,0.0,0.0,0,3,0.32900003,0.42100003,0.79999995,2.06,0,0,0.01,0.0,0.0,0.01,0.5989725,-51004537,3,3,3,1,15,3
51212532,0,0,0,0,282418911,1129934149,131322,114590,368295800,0.0,0.0,0,3,0.32700002,0.416,0.79999995,2.06,0,0,0.03,0.02,0.02,0.0,0.5858534,-51212532,3,3,3,1,15,3
51412529,0,0,0,0,282418911,1129934149,131298,114565,368296000,0.0,0.0,0,3,0.32500002,0.41200003,0.79999995,2.06,0,0,0.099999994,-0.03,-0.02,0.089999996,0.5849659,-51412529,3,3,3,1,15,3
51613529,0,0,0,0,282418910,1129934150,131277,114544,368296200,0.0,0.0,0,3,0.323,0.40800002,0.79999995,2.06,0,0,0.03,0.01,0.01,-0.02,0.5777436,-51613529,3,3,3,1,15,3
51809843,0,0,0,0,282418909,1129934150,131259,114526,368296400,0.0,0.0,0,3,0.321,0.404,0.79999995,2.06,0,0,0.049999997,0.01,0.0,-0.049999997,0.5688304,-51809843,3,3,3,1,15,3
52008596,0,0,0,0,282418908,1129934151,131239,114506,368296600,0.0,0.0,0,3,0.319,0.4,0.79999995,2.06,0,0,0.04,-0.03,0.0,0.02,0.56530863,-52008596,3,3,3,1,15,3
52208531,0,0,0,0,282418908,1129934151,131224,114492,368296800,0.0,0.0,0,3,0.317,0.397,0.79999995,2.06,0,0,0.04,0.02,0.01,-0.03,0.54901266,-52208531,3,3,3,1,15,3
52408526,0,0,0,0,282418907,1129934151,131210,114477,368297000,0.0,0.0,0,3,0.316,0.393,0.79999995,2.06,0,0,0.01,0.0,-0.01,0.0,0.53775233,-52408526,3,3,3,1,15,3
52607737,0,0,0,0,282418906,1129934152,131192,114460,368297200,0.0,0.0,0,3,0.314,0.38900003,0.79999995,2.06,0,0,0.04,-0.02,0.0,0.04,0.526418,-52607737,3,3,3,1,15,3
52808519,0,0,0,0,282418906,1129934152,131178,114446,368297400,0.0,0.0,0,3,0.312,0.386,0.79999995,2.06,0,0,0.13,0.02,0.01,-0.13,0.5144733,-52808519,3,3,3,1,15,3
53006680,0,0,0,0,282418905,1129934152,131163,114430,368297600,0.0,0.0,0,3,0.31,0.38300002,0.79999995,2.06,0,0,0.02,-0.01,0.01,0.01,0.49934688,-53006680,3,3,3,1,15,3
53207711,0,0,0,0,282418905,1129934153,131147,114414,368297800,0.0,0.0,0,3,0.30900002,0.38000003,0.79999995,2.06,0,0,0.04,0.03,0.02,-0.01,0.49183112,-53207711,3,3,3,1,15,3
53410675,0,0,0,0,282418904,1129934153,131130,114398,368298000,0.0,0.0,0,3,0.307,0.37600002,0.79999995,2.06,0,0,0.02,0.0,0.0,-0.02,0.48589596,-53410675,3,3,3,1,15,3
53626706,0,0,0,0,282418899,1129934152,131087,114354,368298200,0.0,0.0,0,5,0.305,0.36800003,0.79999995,1.81,0,0,0.0,0.0,0.0,0.0,1.6937732,-53626706,3,3,3,1,15,3
53830751,0,0,0,0,282418896,1129934151,131051,114318,368298400,0.0,0.0,0,5,0.303,0.36100003,0.79999995,1.81,0,0,0.03,0.01,-0.01,0.02,1.6913289,-53830751,3,3,3,1,15,3
54026699,0,0,0,0,282418892,1129934150,131018,114285,368298600,0.0,0.0,0,5,0.30100003,0.354,0.79999995,1.81,0,0,0.03,0.01,0.0,-0.02,1.6939837,-54026699,3,3,3,1,15,3
54223526,0,0,0,0,282418889,1129934150,130986,114254,368298800,0.0,0.0,0,5,0.29900002,0.34800002,0.79999995,1.81,0,0,0.01,0.0,0.01,0.01,1.6946771,-54223526,3,3,3,1,15,3
54431528,0,0,0,0,282418886,1129934149,130953,114221,368299000,0.0,0.0,0,5,0.29700002,0.342,0.79999995,1.81,0,0,0.04,0.0,0.0,-0.03,1.7006253,-54431528,3,3,3,1,15,3
54627562,0,0,0,0,282418884,1129934148,130924,114191,368299200,0.0,0.0,0,5,0.296,0.33600003,0.79999995,1.81,0,0,0.099999994,0.0,0.0,0.099999994,1.6929,-54627562,3,3,3,1,15,3
54821573,0,0,0,0,282418881,1129934148,130894,114161,368299400,0.0,0.0,0,5,0.294,0.33100003,0.79999995,1.81,0,0,0.01,0.0,0.0,-0.01,1.6861813,-54821573,3,3,3,1,15,3
55029529,0,0,0,0,282418880,1129934147,130864,114131,368299600,0.0,0.0,0,5,0.29200003,0.326,0.79999995,1.81,0,0,0.06,0.02,0.049999997,0.0,1.6936069,-55029529,3,3,3,1,15,3
55222695,0,0,0,0,282418877,1129934147,130836,114103,368299800,0.0,0.0,0,5,0.291,0.32200003,0.79999995,1.81,0,0,0.049999997,0.03,0.0,0.04,1.6890606,-55222695,3,3,3,1,15,3
57827603,0,0,0,0,282418864,1129934142,130586,113854,368302400,0.0,0.0,0,5,0.272,0.27600002,0.79999995,1.81,0,0,0.04,0.03,0.0,0.01,1.6759249,-57827603,3,3,3,1,15,3
58227640,0,0,0,0,282418862,1129934141,130561,113828,368302800,0.0,0.0,0,5,0.26900002,0.27,0.79999995,1.81,0,0,0.02,0.0,0.01,0.01,1.6760521,-58227640,3,3,3,1,15,3
58421533,0,0,0,0,282418862,1129934141,130544,113811,368303000,0.0,0.0,0,5,0.268,0.268,0.79999995,1.81,0,0,0.049999997,0.0,-0.03,0.04,1.6754789,-58421533,3,3,3,1,15,3
58627533,0,0,0,0,282418861,1129934141,130531,113798,368303200,0.0,0.0,0,5,0.26700002,0.26500002,0.79999995,1.81,0,0,0.089999996,0.0,-0.01,0.089999996,1.681592,-58627533,3,3,3,1,15,3
58799612,0,0,0,0,282418861,1129934141,130517,113784,368303400,0.0,0.0,0,5,0.266,0.263,0.79999995,1.81,0,0,0.06,0.0,-0.03,0.049999997,1.681592,-58799612,3,3,3,1,15,3
59023531,0,0,0,0,282418861,1129934141,130503,113770,368303600,0.0,0.0,0,5,0.26500002,0.261,0.79999995,1.81,0,0,0.06,0.0,0.0,-0.06,1.6807593,-59023531,3,3,3,1,15,3
59244526,0,0,0,0,282418860,1129934140,130486,113754,368303800,0.0,0.0,0,3,0.263,0.25800002,0.79999995,1.81,0,0,0.02,0.0,0.01,-0.02,1.8401272,-59244526,3,3,3,1,15,3
59427615,0,0,0,0,282418860,1129934140,130475,113742,368304000,0.0,0.0,0,3,0.26200002,0.256,0.79999995,1.81,0,0,0.099999994,0.02,0.0,0.099999994,1.8994834,-59427615,3,3,3,1,15,3
59617767,0,0,0,0,282418859,1129934140,130463,113731,368304200,0.0,0.0,0,3,0.261,0.254,0.79999995,1.81,0,0,0.03,0.02,0.01,-0.02,1.9517428,-59617767,3,3,3,1,15,3
59799661,0,0,0,0,282418858,1129934140,130455,113722,368304400,0.0,0.0,0,3,0.26000002,0.252,0.79999995,1.81,0,0,0.11,-0.02,0.01,-0.099999994,1.9517428,-59799661,3,3,3,1,15,3
60019526,0,0,0,0,282418858,1129934139,130446,113713,368304600,0.0,0.0,0,3,0.259,0.25,0.79999995,1.81,0,0,0.03,-0.01,0.0,0.02,2.0131454,-60019526,3,3,3,1,15,3
60222803,0,0,0,0,282418857,1129934139,130438,113705,368304800,0.0,0.0,0,3,0.25800002,0.24800001,0.79999995,1.81,0,0,0.02,0.01,0.01,0.0,2.0296698,-60222803,3,3,3,1,15,3
60426968,0,0,0,0,282418857,1129934139,130426,113694,368305000,0.0,0.0,0,3,0.257,0.246,0.79999995,1.81,0,0,0.02,0.0,-0.01,-0.01,2.084415,-60426968,3,3,3,1,15,3
60626807,0,0,0,0,282418856,1129934139,130416,113683,368305200,0.0,0.0,0,3,0.256,0.245,0.79999995,1.81,0,0,0.01,0.0,0.01,0.0,2.1289456,-60626807,3,3,3,1,15,3
60797536,0,0,0,0,282418856,1129934139,130407,113674,368305400,0.0,0.0,0,3,0.25500003,0.24300002,0.79999995,1.81,0,0,0.049999997,0.04,0.02,0.0,2.1289456,-60797536,3,3,3,1,15,3
61020526,0,0,0,0,282418856,1129934139,130399,113666,368305600,0.0,0.0,0,3,0.254,0.24100001,0.79999995,1.81,0,0,0.03,-0.01,0.0,-0.02,2.163824,-61020526,3,3,3,1,15,3
61225273,0,0,0,0,282418855,1129934139,130391,113659,368305800,0.0,0.0,0,5,0.25300002,0.23900001,0.79999995,1.81,0,0,0.07,0.0,0.01,-0.07,1.682495,-61225273,3,3,3,1,15,3
61429834,0,0,0,0,282418855,1129934139,130381,113648,368306000,0.0,0.0,0,5,0.252,0.238,0.79999995,1.81,0,0,0.01,0.0,0.0,0.01,1.682821,-61429834,3,3,3,1,15,3
61625183,0,0,0,0,282418855,1129934139,130373,113641,368306200,0.0,0.0,0,5,0.25100002,0.23600002,0.79999995,1.81,0,0,0.07,-0.02,0.02,-0.06,1.6814029,-61625183,3,3,3,1,15,3
61833602,0,0,0,0,282418854,1129934138,130366,113634,368306400,0.0,0.0,0,5,0.25,0.23400001,0.79999995,1.81,0,0,0.01,-0.01,0.01,0.01,1.6815412,-61833602,3,3,3,1,15,3
62022719,0,0,0,0,282418854,1129934138,130359,113627,368306600,0.0,0.0,0,5,0.24900001,0.23300001,0.79999995,1.81,0,0,0.04,0.0,0.01,-0.04,1.6809019,-62022719,3,3,3,1,15,3
62228556,0,0,0,0,282418854,1129934138,130350,113618,368306800,0.0,0.0,0,5,0.24800001,0.231,0.79999995,1.81,0,0,0.02,0.01,0.01,-0.01,1.678137,-62228556,3,3,3,1,15,3
62421325,0,0,0,0,282418854,1129934138,130342,113609,368307000,0.0,0.0,0,5,0.24700001,0.23,0.79999995,1.81,0,0,0.04,0.0,-0.04,0.0,1.6784058,-62421325,3,3,3,1,15,3
62625556,0,0,0,0,282418854,1129934138,130337,113604,368307200,0.0,0.0,0,5,0.246,0.22800002,0.79999995,1.81,0,0,0.04,0.0,-0.01,0.03,1.6777823,-62625556,3,3,3,1,15,3
62840533,0,0,0,0,282418853,1129934138,130327,113595,368307400,0.0,0.0,0,3,0.245,0.22700001,0.79999995,1.81,0,0,0.0,0.0,0.0,0.0,2.3511558,-62840533,3,3,3,1,15,3
63020604,0,0,0,0,282418853,1129934137,130322,113589,368307600,0.0,0.0,0,3,0.24400002,0.22600001,0.79999995,1.81,0,0,0.07,-0.01,0.0,-0.07,2.3845115,-63020604,3,3,3,1,15,3
63221570,0,0,0,0,282418853,1129934137,130313,113580,368307800,0.0,0.0,0,3,0.24300002,0.224,0.79999995,1.81,0,0,0.02,0.0,0.0,-0.02,2.4176245,-63221570,3,3,3,1,15,3
63425567,0,0,0,0,282418853,1129934137,130307,113574,368308000,0.0,0.0,0,3,0.24300002,0.223,0.79999995,1.81,0,0,0.02,0.01,0.0,-0.01,2.4386284,-63425567,3,3,3,1,15,3
63640687,0,0,0,0,282418852,1129934137,130300,113567,368308200,0.0,0.0,0,5,0.24200001,0.22100002,0.79999995,1.7199999,0,0,0.0,0.0,0.0,0.0,1.6807942,-63640687,3,3,3,1,15,3
63835592,0,0,0,0,282418852,1129934137,130295,113562,368308400,0.0,0.0,0,5,0.24100001,0.22000001,0.79999995,1.7199999,0,0,0.03,-0.01,-0.02,-0.02,1.6785194,-63835592,3,3,3,1,15,3
64041526,0,0,0,0,282418852,1129934137,130287,113554,368308600,0.0,0.0,0,5,0.24000001,0.21900001,0.79999995,1.7199999,0,0,0.06,-0.02,-0.02,0.049999997,1.678519,-64041526,3,3,3,1,15,3
64236689,0,0,0,0,282418852,1129934136,130280,113547,368308800,0.0,0.0,0,5,0.23900001,0.21700001,0.79999995,1.7199999,0,0,0.02,0.0,-0.01,0.0,1.6800793,-64236689,3,3,3,1,15,3
64433533,0,0,0,0,282418851,1129934136,130276,113543,368309000,0.0,0.0,0,5,0.238,0.216,0.79999995,1.7199999,0,0,0.04,0.01,0.01,-0.03,1.6794543,-64433533,3,3,3,1,15,3
64637556,0,0,0,0,282418851,1129934136,130275,113542,368309200,0.0,0.0,0,5,0.23700002,0.215,0.79999995,1.7199999,0,0,0.04,0.0,0.0,0.04,1.6801735,-64637556,3,3,3,1,15,3
64843160,0,0,0,0,282418851,1129934136,130276,113543,368309400,0.0,0.0,0,5,0.23600002,0.21400002,0.79999995,1.7199999,0,0,0.02,0.01,0.01,0.01,1.6784611,-64843160,3,3,3,1,15,3
65039528,0,0,0,0,282418850,1129934136,130273,113541,368309600,0.0,0.0,0,5,0.23500001,0.21200001,0.79999995,1.7199999,0,0,0.01,0.0,0.0,-0.01,1.6836846,-65039528,3,3,3,1,15,3
65235726,0,0,0,0,282418850,1129934136,130275,113542,368309800,0.0,0.0,0,5,0.23400001,0.21100001,0.79999995,1.7199999,0,0,0.01,0.0,-0.01,0.01,1.6823186,-65235726,3,3,3,1,15,3
65443629,0,0,0,0,282418850,1129934136,130274,113541,368310000,0.0,0.0,0,5,0.23300001,0.21000001,0.79999995,1.7199999,0,0,0.04,0.0,-0.02,0.03,1.6797676,-65443629,3,3,3,1,15,3
65640594,0,0,0,0,282418850,1129934136,130272,113540,368310200,0.0,0.0,0,5,0.23200001,0.209,0.79999995,1.7199999,0,0,0.01,0.0,0.0,0.01,1.682095,-65640594,3,3,3,1,15,3
65835528,0,0,0,0,282418849,1129934136,130270,113537,368310400,0.0,0.0,0,5,0.231,0.208,0.79999995,1.7199999,0,0,0.049999997,0.0,0.0,0.049999997,1.6783602,-65835528,3,3,3,1,15,3
66040526,0,0,0,0,282418849,1129934136,130271,113539,368310600,0.0,0.0,0,5,0.231,0.20700002,0.79999995,1.7199999,0,0,0.01,0.01,0.0,0.01,1.682557,-66040526,3,3,3,1,15,3
66240526,0,0,0,0,282418849,1129934136,130274,113541,368310800,0.0,0.0,0,5,0.23,0.20600002,0.79999995,1.7199999,0,0,0.11,0.0,0.03,-0.11,1.6812714,-66240526,3,3,3,1,15,3
66434764,0,0,0,0,282418849,1129934136,130274,113541,368311000,0.0,0.0,0,5,0.22900002,0.20400001,0.79999995,1.7199999,0,0,0.01,0.01,0.0,0.0,1.6791307,-66434764,3,3,3,1,15,3
66639590,0,0,0,0,282418848,1129934136,130273,113540,368311200,0.0,0.0,0,5,0.22800002,0.20300001,0.79999995,1.7199999,0,0,0.03,-0.02,0.0,0.02,1.6831881,-66639590,3,3,3,1,15,3
66839136,0,0,0,0,282418848,1129934136,130273,113540,368311400,0.0,0.0,0,5,0.22700001,0.202,0.79999995,1.7199999,0,0,0.04,-0.01,0.02,-0.02,1.680847,-66839136,3,3,3,1,15,3
67034621,0,0,0,0,282418848,1129934136,130273,113540,368311600,0.0,0.0,0,5,0.22700001,0.201,0.79999995,1.7199999,0,0,0.04,0.02,0.01,0.03,1.6831708,-67034621,3,3,3,1,15,3
67243606,0,0,0,0,282418848,1129934136,130270,113537,368311800,0.0,0.0,0,5,0.22600001,0.2,0.79999995,1.7199999,0,0,0.11,0.0,0.01,0.11,1.6821071,-67243606,3,3,3,1,15,3
67438841,0,0,0,0,282418848,1129934135,130272,113539,368312000,0.0,0.0,0,5,0.22500001,0.19900002,0.79999995,1.7199999,0,0,0.11,0.0,0.02,-0.099999994,1.6807102,-67438841,3,3,3,1,15,3
67635556,0,0,0,0,282418848,1129934135,130272,113539,368312200,0.0,0.0,0,5,0.224,0.19900002,0.79999995,1.7199999,0,0,0.04,-0.02,0.0,-0.03,1.6823238,-67635556,3,3,3,1,15,3
67840543,0,0,0,0,282418847,1129934135,130272,113539,368312400,0.0,0.0,0,5,0.224,0.19800001,0.79999995,1.7199999,0,0,0.099999994,0.03,0.0,0.099999994,1.6825386,-67840543,3,3,3,1,15,3
68037533,0,0,0,0,282418847,1129934135,130272,113539,368312600,0.0,0.0,0,5,0.223,0.19700001,0.79999995,1.7199999,0,0,0.0,0.0,0.0,0.0,1.6821692,-68037533,3,3,3,1,15,3
68233533,0,0,0,0,282418847,1129934135,130271,113538,368312800,0.0,0.0,0,5,0.22200002,0.19600001,0.79999995,1.7199999,0,0,0.049999997,-0.01,0.0,-0.049999997,1.6808027,-68233533,3,3,3,1,15,3
68438658,0,0,0,0,282418847,1129934135,130269,113536,368313000,0.0,0.0,0,5,0.22100002,0.19500001,0.79999995,1.7199999,0,0,0.0,0.0,0.0,0.0,1.6809677,-68438658,3,3,3,1,15,3
68634750,0,0,0,0,282418847,1129934135,130268,113535,368313200,0.0,0.0,0,5,0.22100002,0.194,0.79999995,1.7199999,0,0,0.03,0.02,0.0,0.02,1.6772681,-68634750,3,3,3,1,15,3
68842949,0,0,0,0,282418850,1129934138,130362,113629,368313400,0.0,0.0,0,5,0.21400002,0.18900001,0.79999995,1.7199999,0,0,0.06,0.01,0.03,-0.049999997,1.6797534,-68842949,13,13,3,1,15,3
69036528,0,0,0,0,282418851,1129934138,130398,113665,368313600,0.0,0.0,0,5,0.21300001,0.187,0.79999995,1.7199999,0,0,0.06,-0.04,0.0,0.049999997,1.6821404,-69036528,13,13,3,1,15,3
69207846,0,0,0,0,282418853,1129934139,130419,113686,368313800,0.0,0.0,0,5,0.21100001,0.186,0.79999995,1.7199999,0,0,0.06,0.01,0.0,0.049999997,1.6821404,-69207846,13,13,3,1,15,3
69441772,0,0,0,0,282418874,1129934185,130574,113841,368314000,0.0,0.0,0,5,0.008,0.006,0.79999995,1.7199999,0,0,0.03,0.0,0.0,0.03,1.6816517,-69441772,15,15,3,1,15,3
69639876,0,0,0,0,282418874,1129934185,130569,113836,368314200,0.0,0.0,0,5,0.008,0.006,0.79999995,1.7199999,0,0,0.04,0.0,0.0,0.04,1.6821817,-69639876,15,15,3,1,15,3
69836762,0,0,0,0,282418874,1129934185,130570,113837,368314400,0.0,0.0,0,5,0.008,0.006,0.79999995,1.7199999,0,0,0.12,-0.03,-0.01,-0.12,1.6890283,-69836762,15,15,3,1,15,3
70041567,0,0,0,0,282418874,1129934185,130570,113837,368314600,0.0,0.0,0,5,0.008,0.007,0.79999995,1.7199999,0,0,0.13,0.03,0.0,0.12,1.671668,-70041567,15,15,3,1,15,3
70237825,0,0,0,0,282418874,1129934185,130573,113841,368314800,0.0,0.0,0,5,0.008,0.007,0.79999995,1.7199999,0,0,0.049999997,0.03,0.0,0.04,1.682489,-70237825,15,15,3,1,15,3
70434602,0,0,0,0,282418874,1129934185,130572,113839,368315000,0.0,0.0,0,5,0.009000001,0.007,0.79999995,1.7199999,0,0,0.049999997,0.03,0.0,0.04,1.682489,-70434602,15,15,3,1,15,3
70726762,0,0,0,0,282418874,1129934185,130563,113831,368315200,0.0,0.0,0,5,0.009000001,0.007,0.79999995,1.7199999,0,0,0.089999996,0.0,0.0,0.089999996,1.6843107,-70726762,15,15,3,1,15,3
70911772,0,0,0,0,282418874,1129934185,130569,113836,368315400,0.0,0.0,0,5,0.008,0.007,0.79999995,1.7199999,0,0,0.06,0.01,0.02,-0.049999997,1.6828688,-70911772,15,15,3,1,15,3
71096676,0,0,0,0,282418874,1129934185,130571,113839,368315600,0.0,0.0,0,5,0.008,0.006,0.79999995,1.7199999,0,0,0.03,-0.01,-0.01,-0.03,1.6812403,-71096676,15,15,3,1,15,3
71296530,0,0,0,0,282418874,1129934185,130570,113837,368315800,0.0,0.0,0,5,0.008,0.006,0.79999995,1.7199999,0,0,0.01,0.0,-0.01,0.01,1.6820902,-71296530,15,15,3,1,15,3
71509533,0,0,0,0,282418874,1129934185,130573,113840,368316000,0.0,0.0,0,5,0.008,0.006,0.79999995,1.7199999,0,0,0.02,0.02,0.0,0.0,1.681662,-71509533,15,15,3,1,15,3
71700526,0,0,0,0,282418874,1129934185,130572,113839,368316200,0.0,0.0,0,5,0.008,0.006,0.79999995,1.7199999,0,0,0.0,0.0,0.0,0.0,1.6833925,-71700526,15,15,3,1,15,3
71900680,0,0,0,0,282418874,1129934185,130572,113839,368316400,0.0,0.0,0,5,0.008,0.007,0.79999995,1.7199999,0,0,0.049999997,0.01,0.0,-0.04,1.683678,-71900680,15,15,3,1,15,3
72100526,0,0,0,0,282418874,1129934185,130571,113838,368316600,0.0,0.0,0,5,0.008,0.007,0.79999995,1.7199999,0,0,0.03,0.01,0.0,-0.02,1.685596,-72100526,15,15,3,1,15,3
72303573,0,0,0,0,282418874,1129934185,130570,113837,368316800,0.0,0.0,0,5,0.009000001,0.007,0.79999995,1.7199999,0,0,0.02,0.01,0.0,0.02,1.6815616,-72303573,15,15,3,1,15,3
72504591,0,0,0,0,282418874,1129934185,130570,113838,368317000,0.0,0.0,0,5,0.009000001,0.007,0.79999995,1.7199999,0,0,0.049999997,0.0,0.01,-0.049999997,1.6806045,-72504591,15,15,3,1,15,3
72637589,0,0,0,0,282418874,1129934185,130574,113842,368317200,0.0,0.0,0,5,0.009000001,0.007,0.79999995,1.7199999,0,0,0.049999997,0.04,0.02,0.0,1.6827323,-72637589,15,15,3,1,15,3
72854732,0,0,0,0,282418874,1129934185,130577,113845,368317400,0.0,0.0,0,5,0.009000001,0.007,0.79999995,1.7199999,0,0,0.06,-0.01,0.0,0.06,1.6786661,-72854732,15,15,3,1,15,3
73034707,0,0,0,0,282418875,1129934185,130580,113847,368317600,0.0,0.0,0,5,0.008,0.006,0.79999995,1.7199999,0,0,0.07,0.0,0.0,-0.07,1.6806977,-73034707,15,15,3,1,15,3
73238367,0,0,0,0,282418875,1129934185,130577,113844,368317800,0.0,0.0,0,5,0.008,0.006,0.79999995,1.7199999,0,0,0.08,0.0,-0.01,-0.08,1.6699201,-73238367,15,15,3,1,15,3
73403624,0,0,0,0,282418875,1129934185,130577,113845,368318000,0.0,0.0,0,5,0.008,0.006,0.79999995,1.7199999,0,0,0.04,-0.01,0.01,-0.04,1.6699201,-73403624,15,15,3,1,15,3
73638796,0,0,0,0,282418875,1129934185,130578,113845,368318200,0.0,0.0,0,5,0.008,0.007,0.79999995,1.7199999,0,0,0.07,-0.01,-0.02,-0.06,1.6769633,-73638796,15,15,3,1,15,3
73898579,0,0,0,0,282418875,1129934185,130573,113840,368318400,0.0,0.0,0,5,0.008,0.007,0.79999995,1.7199999,0,0,0.02,0.0,0.0,0.01,1.6752393,-73898579,15,15,3,1,15,3
74099693,0,0,0,0,282418874,1129934185,130563,113831,368318600,0.0,0.0,0,5,0.008,0.007,0.79999995,1.7199999,0,0,0.08,-0.01,0.01,-0.07,1.6804116,-74099693,15,15,3,1,15,3
74299571,0,0,0,0,282418874,1129934185,130558,113825,368318800,0.0,0.0,0,5,0.009000001,0.007,0.79999995,1.7199999,0,0,0.02,-0.01,-0.01,0.01,1.6844559,-74299571,15,15,3,1,15,3
74501528,0,0,0,0,282418874,1129934185,130557,113824,368319000,0.0,0.0,0,5,0.009000001,0.007,0.79999995,1.7199999,0,0,0.03,0.0,0.0,0.03,1.6838771,-74501528,15,15,3,1,15,3
74713868,0,0,0,0,282418874,1129934185,130558,113825,368319200,0.0,0.0,0,5,0.009000001,0.007,0.79999995,1.7199999,0,0,0.049999997,0.0,0.0,-0.049999997,1.6870921,-74713868,15,15,3,1,15,3
74905821,0,0,0,0,282418874,1129934185,130558,113825,368319400,0.0,0.0,0,5,0.008,0.006,0.79999995,1.7199999,0,0,0.089999996,0.01,-0.01,0.08,1.6843162,-74905821,15,15,3,1,15,3
75109048,0,0,0,0,282418874,1129934185,130562,113829,368319600,0.0,0.0,0,5,0.008,0.006,0.79999995,1.7199999,0,0,0.04,-0.04,-0.01,0.02,1.6826758,-75109048,15,15,3,1,15,3
75302760,0,0,0,0,282418874,1129934185,130565,113832,368319800,0.0,0.0,0,5,0.008,0.006,0.79999995,1.7199999,0,0,0.049999997,0.03,-0.01,0.03,1.6822711,-75302760,15,15,3,1,15,3
75503563,0,0,0,0,282418874,1129934185,130562,113830,368320000,0.0,0.0,0,5,0.008,0.006,0.79999995,1.7199999,0,0,0.089999996,0.01,0.02,-0.08,1.685217,-75503563,15,15,3,1,15,3
75708683,0,0,0,0,282418874,1129934185,130562,113829,368320200,0.0,0.0,0,5,0.008,0.006,0.79999995,1.7199999,0,0,0.02,0.0,-0.01,0.02,1.6819845,-75708683,15,15,3,1,15,3
75908528,0,0,0,0,282418874,1129934185,130562,113829,368320400,0.0,0.0,0,5,0.008,0.006,0.79999995,1.7199999,0,0,0.099999994,0.0,0.02,-0.089999996,1.6819221,-75908528,15,15,3,1,15,3
76111795,0,0,0,0,282418874,1129934185,130561,113828,368320600,0.0,0.0,0,5,0.008,0.007,0.79999995,1.7199999,0,0,0.02,0.01,0.02,0.0,1.6758887,-76111795,15,15,3,1,15,3
76303891,0,0,0,0,282418874,1129934185,130561,113828,368320800,0.0,0.0,0,5,0.008,0.007,0.79999995,1.7199999,0,0,0.04,0.03,0.0,-0.03,1.680228,-76303891,15,15,3,1,15,3
76508206,0,0,0,0,282418874,1129934185,130562,113829,368321000,0.0,0.0,0,5,0.009000001,0.007,0.79999995,1.7199999,0,0,0.03,0.01,0.0,-0.03,1.6786764,-76508206,15,15,3,1,15,3
76708831,0,0,0,0,282418874,1129934184,130563,113830,368321200,0.0,0.0,0,5,0.009000001,0.007,0.79999995,1.7199999,0,0,0.089999996,-0.02,0.0,-0.089999996,1.6783938,-76708831,15,15,3,1,15,3
76924535,0,0,0,0,282418874,1129934185,130564,113831,368321400,0.0,0.0,0,5,0.009000001,0.007,0.79999995,1.7199999,0,0,0.04,0.0,-0.01,-0.04,1.6788826,-76924535,15,15,3,1,15,3
77109536,0,0,0,0,282418874,1129934185,130568,113835,368321600,0.0,0.0,0,5,0.008,0.006,0.79999995,1.7199999,0,0,0.03,0.0,0.02,-0.01,1.678863,-77109536,15,15,3,1,15,3
77378627,0,0,0,0,282418874,1129934184,130573,113840,368321800,0.0,0.0,0,5,0.008,0.006,0.79999995,1.7199999,0,0,0.08,-0.02,0.0,-0.07,1.6803961,-77378627,15,15,3,1,15,3
77566720,0,0,0,0,282418874,1129934184,130572,113840,368322000,0.0,0.0,0,5,0.008,0.007,0.79999995,1.7199999,0,0,0.02,0.0,-0.02,-0.01,1.682575,-77566720,15,15,3,1,15,3
77751782,0,0,0,0,282418874,1129934184,130572,113839,368322200,0.0,0.0,0,5,0.008,0.007,0.79999995,1.7199999,0,0,0.049999997,-0.01,0.01,-0.049999997,1.6836325,-77751782,15,15,3,1,15,3
77940526,0,0,0,0,282418874,1129934184,130568,113835,368322400,0.0,0.0,0,5,0.008,0.007,0.79999995,1.7199999,0,0,0.17,0.0,-0.01,0.17,1.6833655,-77940526,15,15,3,1,15,3
78130805,0,0,0,0,282418874,1129934184,130572,113839,368322600,0.0,0.0,0,5,0.008,0.007,0.79999995,1.7199999,0,0,0.03,0.01,-0.02,0.02,1.6877183,-78130805,15,15,3,1,15,3
78323582,0,0,0,0,282418874,1129934184,130572,113839,368322800,0.0,0.0,0,5,0.008,0.007,0.79999995,1.7199999,0,0,0.08,0.0,0.0,-0.08,1.678041,-78323582,15,15,3,1,15,3
78509567,0,0,0,0,282418874,1129934184,130572,113840,368323000,0.0,0.0,0,5,0.009000001,0.007,0.79999995,1.7199999,0,0,0.02,0.0,0.01,0.01,1.6830726,-78509567,15,15,3,1,15,3
78708577,0,0,0,0,282418874,1129934184,130571,113839,368323200,0.0,0.0,0,5,0.009000001,0.007,0.79999995,1.7199999,0,0,0.01,0.0,0.0,0.01,1.6806647,-78708577,15,15,3,1,15,3
78931533,0,0,0,0,282418874,1129934184,130575,113842,368323400,0.0,0.0,0,5,0.009000001,0.007,0.79999995,1.7199999,0,0,0.03,0.0,-0.01,-0.03,1.6833681,-78931533,15,15,3,1,15,3
79127475,0,0,0,0,282418874,1129934184,130579,113846,368323600,0.0,0.0,0,5,0.008,0.006,0.79999995,1.7199999,0,0,0.03,0.01,0.02,-0.01,1.6755669,-79127475,15,15,3,1,15,3
79312545,0,0,0,0,282418874,1129934184,130577,113844,368323800,0.0,0.0,0,5,0.008,0.006,0.79999995,1.7199999,0,0,0.049999997,0.04,-0.02,0.02,1.6798229,-79312545,15,15,3,1,15,3
79511651,0,0,0,0,282418874,1129934185,130577,113844,368324000,0.0,0.0,0,5,0.008,0.006,0.79999995,1.7199999,0,0,0.04,0.0,0.0,0.04,1.6856214,-79511651,15,15,3,1,15,3
79714803,0,0,0,0,282418874,1129934185,130579,113846,368324200,0.0,0.0,0,5,0.008,0.006,0.79999995,1.7199999,0,0,0.089999996,-0.01,0.0,-0.089999996,1.6837635,-79714803,15,15,3,1,15,3
79914731,0,0,0,0,282418874,1129934185,130578,113845,368324400,0.0,0.0,0,5,0.008,0.006,0.79999995,1.7199999,0,0,0.02,0.0,0.02,0.01,1.6825973,-79914731,15,15,3,1,15,3
80114717,0,0,0,0,282418874,1129934185,130576,113843,368324600,0.0,0.0,0,5,0.008,0.007,0.79999995,1.7199999,0,0,0.03,0.01,0.02,-0.02,1.6846273,-80114717,15,15,3,1,15,3
80386805,0,0,0,0,282418874,1129934184,130574,113841,368324800,0.0,0.0,0,5,0.009000001,0.007,0.79999995,1.7199999,0,0,0.03,0.0,-0.01,0.03,1.6857247,-80386805,15,15,3,1,15,3
80577917,0,0,0,0,282418874,1129934184,130575,113842,368325000,0.0,0.0,0,5,0.009000001,0.007,0.79999995,1.7199999,0,0,0.03,0.03,0.0,0.01,1.6867962,-80577917,15,15,3,1,15,3
80723825,0,0,0,0,282418874,1129934184,130577,113844,368325200,0.0,0.0,0,5,0.009000001,0.007,0.79999995,1.7199999,0,0,0.02,0.01,-0.01,0.0,1.6841716,-80723825,15,15,3,1,15,3
80843682,0,0,0,0,282418874,1129934185,130573,113841,368325400,0.0,0.0,0,5,0.008,0.006,0.79999995,1.7199999,0,0,0.049999997,0.03,0.0,-0.04,1.673761,-80843682,15,15,3,1,15,3
81040666,0,0,0,0,282418874,1129934185,130573,113841,368325600,0.0,0.0,0,5,0.008,0.006,0.79999995,1.7199999,0,0,0.04,0.02,-0.01,-0.03,1.6772023,-81040666,15,15,3,1,15,3
81241531,0,0,0,0,282418874,1129934185,130573,113840,368325800,0.0,0.0,0,5,0.008,0.006,0.79999995,1.7199999,0,0,0.04,-0.01,-0.01,0.03,1.6736916,-81241531,15,15,3,1,15,3
81442667,0,0,0,0,282418874,1129934185,130575,113842,368326000,0.0,0.0,0,5,0.008,0.006,0.79999995,1.7199999,0,0,0.01,0.0,0.0,-0.01,1.6685147,-81442667,15,15,3,1,15,3
81641825,0,0,0,0,282418874,1129934185,130579,113847,368326200,0.0,0.0,0,5,0.008,0.006,0.79999995,1.7199999,0,0,0.01,0.0,0.0,0.01,1.6729534,-81641825,15,15,3,1,15,3
81842878,0,0,0,0,282418874,1129934185,130578,113846,368326400,0.0,0.0,0,5,0.008,0.006,0.79999995,1.7199999,0,0,0.04,0.0,0.0,0.04,1.6759576,-81842878,15,15,3,1,15,3
82042708,0,0,0,0,282418874,1129934184,130575,113842,368326600,0.0,0.0,0,5,0.008,0.007,0.79999995,1.7199999,0,0,0.0,0.0,0.0,0.0,1.6779612,-82042708,15,15,3,1,15,3
82240592,0,0,0,0,282418874,1129934184,130571,113838,368326800,0.0,0.0,0,5,0.008,0.007,0.79999995,1.7199999,0,0,0.08,0.0,0.0,-0.08,1.6866668,-82240592,15,15,3,1,15,3
82441532,0,0,0,0,282418874,1129934184,130573,113840,368327000,0.0,0.0,0,5,0.009000001,0.007,0.79999995,1.7199999,0,0,0.04,0.03,0.0,-0.02,1.6849089,-82441532,15,15,3,1,15,3
82651984,0,0,0,0,282418874,1129934184,130576,113843,368327200,0.0,0.0,0,5,0.009000001,0.007,0.79999995,1.7199999,0,0,0.049999997,0.0,0.0,0.049999997,1.6790047,-82651984,15,15,3,1,15,3
82861567,0,0,0,0,282418874,1129934184,130575,113842,368327400,0.0,0.0,0,5,0.009000001,0.007,0.79999995,1.7199999,0,0,0.03,0.0,0.0,-0.03,1.6785468,-82861567,15,15,3,1,15,3
83040434,0,0,0,0,282418874,1129934184,130575,113842,368327600,0.0,0.0,0,5,0.008,0.006,0.79999995,1.7199999,0,0,0.03,-0.01,0.0,0.02,1.6796916,-83040434,15,15,3,1,15,3
83246605,0,0,0,0,282418874,1129934185,130576,113843,368327800,0.0,0.0,0,5,0.008,0.006,0.79999995,1.7199999,0,0,0.01,0.0,0.0,-0.01,1.6826193,-83246605,15,15,3,1,15,3
83447528,0,0,0,0,282418874,1129934184,130572,113839,368328000,0.0,0.0,0,5,0.008,0.006,0.79999995,1.7199999,0,0,0.04,0.01,-0.02,0.03,1.685445,-83447528,15,15,3,1,15,3
83647662,0,0,0,0,282418874,1129934184,130573,113840,368328200,0.0,0.0,0,5,0.008,0.006,0.79999995,1.7199999,0,0,0.03,0.0,0.0,0.03,1.6786942,-83647662,15,15,3,1,15,3
83848641,0,0,0,0,282418874,1129934184,130577,113844,368328400,0.0,0.0,0,5,0.008,0.006,0.79999995,1.7199999,0,0,0.01,0.0,0.0,-0.01,1.6838815,-83848641,15,15,3,1,15,3
84040615,0,0,0,0,282418874,1129934184,130578,113845,368328600,0.0,0.0,0,5,0.008,0.007,0.79999995,1.7199999,0,0,0.04,0.0,-0.01,-0.04,1.6765819,-84040615,15,15,3,1,15,3
84249576,0,0,0,0,282418874,1129934184,130577,113844,368328800,0.0,0.0,0,5,0.008,0.007,0.79999995,1.7199999,0,0,0.02,0.01,0.01,-0.01,1.6837105,-84249576,15,15,3,1,15,3
84449590,0,0,0,0,282418874,1129934184,130577,113844,368329000,0.0,0.0,0,5,0.009000001,0.007,0.79999995,1.7199999,0,0,0.03,0.01,0.0,0.03,1.6754555,-84449590,15,15,3,1,15,3
84649594,0,0,0,0,282418874,1129934184,130578,113846,368329200,0.0,0.0,0,5,0.009000001,0.007,0.79999995,1.7199999,0,0,0.02,0.0,0.0,0.02,1.6795212,-84649594,15,15,3,1,15,3
84842982,0,0,0,0,282418874,1129934184,130580,113847,368329400,0.0,0.0,0,5,0.008,0.006,0.79999995,1.7199999,0,0,0.02,0.0,-0.01,0.02,1.6770046,-84842982,15,15,3,1,15,3
85039647,0,0,0,0,282418874,1129934184,130578,113846,368329600,0.0,0.0,0,5,0.008,0.006,0.79999995,1.7199999,0,0,0.02,0.0,-0.01,0.01,1.6755803,-85039647,15,15,3,1,15,3
85240612,0,0,0,0,282418874,1129934184,130579,113846,368329800,0.0,0.0,0,5,0.008,0.006,0.79999995,1.7199999,0,0,0.02,0.01,0.0,-0.02,1.6774906,-85240612,15,15,3,1,15,3
85442917,0,0,0,0,282418874,1129934184,130577,113844,368330000,0.0,0.0,0,5,0.008,0.006,0.79999995,1.7199999,0,0,0.02,0.0,0.0,-0.02,1.6773276,-85442917,15,15,3,1,15,3
85643668,0,0,0,0,282418874,1129934184,130577,113844,368330200,0.0,0.0,0,5,0.008,0.006,0.79999995,1.7199999,0,0,0.049999997,-0.01,0.02,-0.04,1.6764957,-85643668,15,15,3,1,15,3
85845536,0,0,0,0,282418874,1129934184,130576,113843,368330400,0.0,0.0,0,5,0.008,0.006,0.79999995,1.7199999,0,0,0.03,0.01,0.01,0.03,1.6732497,-85845536,15,15,3,1,15,3
86046633,0,0,0,0,282418874,1129934184,130575,113842,368330600,0.0,0.0,0,5,0.008,0.007,0.79999995,1.7199999,0,0,0.03,0.0,0.0,-0.03,1.6738452,-86046633,15,15,3,1,15,3
86247526,0,0,0,0,282418874,1129934184,130577,113844,368330800,0.0,0.0,0,5,0.008,0.007,0.79999995,1.7199999,0,0,0.099999994,0.0,0.01,-0.099999994,1.6760505,-86247526,15,15,3,1,15,3
86449049,0,0,0,0,282418874,1129934184,130578,113846,368331000,0.0,0.0,0,5,0.009000001,0.007,0.79999995,1.7199999,0,0,0.01,0.0,0.01,-0.01,1.6763198,-86449049,15,15,3,1,15,3
86648530,0,0,0,0,282418874,1129934184,130578,113845,368331200,0.0,0.0,0,5,0.009000001,0.007,0.79999995,1.7199999,0,0,0.12,0.01,0.02,-0.12,1.6737223,-86648530,15,15,3,1,15,3
86859902,0,0,0,0,282418874,1129934184,130576,113843,368331400,0.0,0.0,0,5,0.009000001,0.007,0.79999995,1.7199999,0,0,0.01,0.0,-0.01,0.0,1.6768711,-86859902,15,15,3,1,15,3
87048669,0,0,0,0,282418874,1129934185,130576,113843,368331600,0.0,0.0,0,5,0.008,0.006,0.79999995,1.7199999,0,0,0.06,0.01,0.01,-0.06,1.6728823,-87048669,15,15,3,1,15,3
87240528,0,0,0,0,282418874,1129934185,130577,113844,368331800,0.0,0.0,0,5,0.008,0.006,0.79999995,1.7199999,0,0,0.11,0.0,0.02,-0.099999994,1.6757793,-87240528,15,15,3,1,15,3
87451595,0,0,0,0,282418874,1129934185,130577,113844,368332000,0.0,0.0,0,5,0.008,0.006,0.79999995,1.7199999,0,0,0.04,-0.01,0.02,-0.02,1.6786511,-87451595,15,15,3,1,15,3
87642855,0,0,0,0,282418874,1129934184,130574,113842,368332200,0.0,0.0,0,5,0.008,0.006,0.79999995,1.7199999,0,0,0.02,0.0,0.0,-0.01,1.6728137,-87642855,15,15,3,1,15,3
87843652,0,0,0,0,282418874,1129934184,130576,113843,368332400,0.0,0.0,0,5,0.008,0.006,0.79999995,1.7199999,0,0,0.12,-0.04,0.0,-0.11,1.677043,-87843652,15,15,3,1,15,3
88045528,0,0,0,0,282418874,1129934184,130576,113844,368332600,0.0,0.0,0,5,0.008,0.007,0.79999995,1.7199999,0,0,0.19,-0.01,0.02,-0.19,1.676274,-88045528,15,15,3,1,15,3
88244958,0,0,0,0,282418874,1129934184,130574,113841,368332800,0.0,0.0,0,5,0.008,0.007,0.79999995,1.7199999,0,0,0.02,0.02,-0.01,0.0,1.6723838,-88244958,15,15,3,1,15,3
88445528,0,0,0,0,282418873,1129934184,130572,113840,368333000,0.0,0.0,0,5,0.009000001,0.007,0.79999995,1.7199999,0,0,0.049999997,-0.01,0.0,0.049999997,1.6775124,-88445528,15,15,3,1,15,3
88646943,0,0,0,0,282418873,1129934184,130575,113842,368333200,0.0,0.0,0,5,0.009000001,0.007,0.79999995,1.7199999,0,0,0.049999997,0.0,0.01,-0.049999997,1.6778692,-88646943,15,15,3,1,15,3
88844536,0,0,0,0,282418874,1129934184,130579,113846,368333400,0.0,0.0,0,5,0.008,0.006,0.79999995,1.7199999,0,0,0.049999997,-0.01,-0.01,0.049999997,1.6814345,-88844536,15,15,3,1,15,3
89045746,0,0,0,0,282418874,1129934184,130580,113847,368333600,0.0,0.0,0,5,0.008,0.006,0.79999995,1.7199999,0,0,0.02,0.0,0.0,-0.02,1.676366,-89045746,15,15,3,1,15,3
89249526,0,0,0,0,282418874,1129934184,130582,113850,368333800,0.0,0.0,0,5,0.008,0.006,0.79999995,1.7199999,0,0,0.04,-0.01,0.0,-0.04,1.6770968,-89249526,15,15,3,1,15,3
89456528,0,0,0,0,282418874,1129934184,130578,113845,368334000,0.0,0.0,0,5,0.008,0.006,0.79999995,1.7199999,0,0,0.12,-0.01,-0.02,0.12,1.6751494,-89456528,15,15,3,1,15,3
89649526,0,0,0,0,282418874,1129934184,130579,113846,368334200,0.0,0.0,0,5,0.008,0.006,0.79999995,1.7199999,0,0,0.01,0.01,0.0,0.0,1.6758612,-89649526,15,15,3,1,15,3
89857818,0,0,0,0,282418874,1129934184,130578,113845,368334400,0.0,0.0,0,5,0.008,0.006,0.79999995,1.7199999,0,0,0.06,0.0,0.0,0.06,1.6757125,-89857818,15,15,3,1,15,3
90050620,0,0,0,0,282418874,1129934184,130577,113844,368334600,0.0,0.0,0,5,0.008,0.007,0.79999995,1.7199999,0,0,0.02,0.0,0.0,0.02,1.6772933,-90050620,15,15,3,1,15,3
90245532,0,0,0,0,282418874,1129934184,130573,113840,368334800,0.0,0.0,0,5,0.008,0.007,0.79999995,1.7199999,0,0,0.089999996,-0.01,-0.02,0.089999996,1.6781975,-90245532,15,15,3,1,15,3
90450109,0,0,0,0,282418874,1129934184,130574,113841,368335000,0.0,0.0,0,5,0.009000001,0.007,0.79999995,1.7199999,0,0,0.07,0.02,-0.02,0.07,1.674965,-90450109,15,15,3,1,15,3
90652697,0,0,0,0,282418874,1129934184,130577,113844,368335200,0.0,0.0,0,5,0.009000001,0.007,0.79999995,1.7199999,0,0,0.01,0.0,0.01,0.0,1.6745379,-90652697,15,15,3,1,15,3
90848543,0,0,0,0,282418874,1129934184,130578,113845,368335400,0.0,0.0,0,5,0.008,0.006,0.79999995,1.7199999,0,0,0.04,-0.02,-0.01,-0.03,1.6723462,-90848543,15,15,3,1,15,3
91049570,0,0,0,0,282418874,1129934184,130582,113849,368335600,0.0,0.0,0,5,0.008,0.006,0.79999995,1.7199999,0,0,0.11,0.02,0.01,-0.099999994,1.6724393,-91049570,15,15,3,1,15,3
91252582,0,0,0,0,282418874,1129934184,130583,113850,368335800,0.0,0.0,0,5,0.008,0.006,0.79999995,1.7199999,0,0,0.06,0.0,0.01,-0.06,1.6742857,-91252582,15,15,3,1,15,3
91445571,0,0,0,0,282418874,1129934184,130580,113847,368336000,0.0,0.0,0,5,0.008,0.006,0.79999995,1.7199999,0,0,0.049999997,0.02,0.0,0.049999997,1.6748334,-91445571,15,15,3,1,15,3
91650980,0,0,0,0,282418874,1129934184,130578,113845,368336200,0.0,0.0,0,5,0.008,0.006,0.79999995,1.7199999,0,0,0.089999996,0.02,0.0,0.08,1.6803709,-91650980,15,15,3,1,15,3
91852549,0,0,0,0,282418874,1129934184,130577,113845,368336400,0.0,0.0,0,5,0.008,0.006,0.79999995,1.7199999,0,0,0.0,0.0,0.0,0.0,1.6854732,-91852549,15,15,3,1,15,3
92047528,0,0,0,0,282418874,1129934184,130579,113846,368336600,0.0,0.0,0,5,0.008,0.007,0.79999995,1.7199999,0,0,0.07,0.03,0.0,-0.049999997,1.6804116,-92047528,15,15,3,1,15,3
92247526,0,0,0,0,282418874,1129934185,130576,113844,368336800,0.0,0.0,0,5,0.008,0.007,0.79999995,1.7199999,0,0,0.02,0.0,0.0,0.01,1.6780388,-92247526,15,15,3,1,15,3
92449529,0,0,0,0,282418874,1129934185,130575,113842,368337000,0.0,0.0,0,5,0.009000001,0.007,0.79999995,1.7199999,0,0,0.01,0.0,0.0,0.0,1.6776236,-92449529,15,15,3,1,15,3
92644541,0,0,0,0,282418874,1129934185,130575,113842,368337200,0.0,0.0,0,5,0.009000001,0.007,0.79999995,1.7199999,0,0,0.02,0.0,0.01,-0.02,1.6785074,-92644541,15,15,3,1,15,3
92871545,0,0,0,0,282418874,1129934184,130576,113843,368337400,0.0,0.0,0,5,0.009000001,0.007,0.79999995,1.7199999,0,0,0.03,0.02,-0.01,-0.02,1.6806897,-92871545,15,15,3,1,15,3
93050598,0,0,0,0,282418874,1129934185,130575,113842,368337600,0.0,0.0,0,5,0.008,0.006,0.79999995,1.7199999,0,0,0.01,0.01,-0.01,-0.01,1.6822777,-93050598,15,15,3,1,15,3
93246023,0,0,0,0,282418874,1129934185,130576,113844,368337800,0.0,0.0,0,5,0.008,0.006,0.79999995,1.7199999,0,0,0.07,0.03,-0.01,0.06,1.6820123,-93246023,15,15,3,1,15,3
93446747,0,0,0,0,282418874,1129934185,130575,113842,368338000,0.0,0.0,0,5,0.008,0.006,0.79999995,1.7199999,0,0,0.02,0.0,-0.01,-0.01,1.6839368,-93446747,15,15,3,1,15,3
93650683,0,0,0,0,282418874,1129934184,130574,113842,368338200,0.0,0.0,0,5,0.008,0.006,0.79999995,1.7199999,0,0,0.049999997,0.0,0.0,-0.04,1.683739,-93650683,15,15,3,1,15,3
93843529,0,0,0,0,282418874,1129934184,130571,113838,368338400,0.0,0.0,0,5,0.008,0.006,0.79999995,1.7199999,0,0,0.049999997,0.03,0.0,0.03,1.6780481,-93843529,15,15,3,1,15,3
94043607,0,0,0,0,282418874,1129934185,130572,113840,368338600,0.0,0.0,0,5,0.008,0.007,0.79999995,1.7199999,0,0,0.02,0.02,0.0,0.0,1.6825863,-94043607,15,15,3,1,15,3
94245533,0,0,0,0,282418874,1129934184,130572,113839,368338800,0.0,0.0,0,5,0.008,0.007,0.79999995,1.7199999,0,0,0.04,-0.01,0.0,-0.04,1.6831958,-94245533,15,15,3,1,15,3
94449874,0,0,0,0,282418874,1129934184,130574,113841,368339000,0.0,0.0,0,5,0.009000001,0.007,0.79999995,1.7199999,0,0,0.06,-0.01,-0.02,0.06,1.6820112,-94449874,15,15,3,1,15,3
94666762,0,0,0,0,282418874,1129934184,130574,113841,368339200,0.0,0.0,0,5,0.009000001,0.007,0.79999995,1.7199999,0,0,0.04,0.0,0.0,-0.04,1.6805254,-94666762,15,15,3,1,15,3
94849533,0,0,0,0,282418874,1129934185,130580,113847,368339400,0.0,0.0,0,5,0.008,0.006,0.79999995,1.7199999,0,0,0.02,0.01,0.0,-0.01,1.678138,-94849533,15,15,3,1,15,3
95042263,0,0,0,0,282418874,1129934185,130581,113849,368339600,0.0,0.0,0,5,0.008,0.006,0.79999995,1.7199999,0,0,0.02,0.01,0.01,0.0,1.6809223,-95042263,15,15,3,1,15,3
95245541,0,0,0,0,282418874,1129934185,130581,113848,368339800,0.0,0.0,0,5,0.008,0.006,0.79999995,1.7199999,0,0,0.0,0.0,0.0,0.0,1.6804514,-95245541,15,15,3,1,15,3
95448530,0,0,0,0,282418874,1129934185,130581,113848,368340000,0.0,0.0,0,5,0.008,0.006,0.79999995,1.7199999,0,0,0.01,0.0,0.0,0.0,1.6799978,-95448530,15,15,3,1,15,3
95640530,0,0,0,0,282418874,1129934185,130581,113848,368340200,0.0,0.0,0,5,0.008,0.006,0.79999995,1.7199999,0,0,0.049999997,0.01,0.0,0.049999997,1.684194,-95640530,15,15,3,1,15,3
95844607,0,0,0,0,282418874,1129934185,130578,113845,368340400,0.0,0.0,0,5,0.008,0.006,0.79999995,1.7199999,0,0,0.01,0.0,0.0,-0.01,1.6807826,-95844607,15,15,3,1,15,3
96045603,0,0,0,0,282418874,1129934185,130578,113846,368340600,0.0,0.0,0,5,0.008,0.007,0.79999995,1.7199999,0,0,0.01,-0.01,0.0,0.0,1.682803,-96045603,15,15,3,1,15,3
96248754,0,0,0,0,282418874,1129934185,130576,113844,368340800,0.0,0.0,0,5,0.008,0.007,0.79999995,1.7199999,0,0,0.089999996,0.0,0.0,0.089999996,1.6804408,-96248754,15,15,3,1,15,3
96441567,0,0,0,0,282418874,1129934185,130580,113847,368341000,0.0,0.0,0,5,0.009000001,0.007,0.79999995,1.7199999,0,0,0.01,0.0,0.0,0.0,1.680276,-96441567,15,15,3,1,15,3
96656526,0,0,0,0,282418874,1129934185,130581,113848,368341200,0.0,0.0,0,5,0.009000001,0.007,0.79999995,1.7199999,0,0,0.01,-0.01,0.0,-0.01,1.6803354,-96656526,15,15,3,1,15,3
96849536,0,0,0,0,282418874,1129934185,130584,113851,368341400,0.0,0.0,0,5,0.008,0.006,0.79999995,1.7199999,0,0,0.08,0.01,0.0,-0.08,1.6763366,-96849536,15,15,3,1,15,3
97043980,0,0,0,0,282418874,1129934185,130584,113851,368341600,0.0,0.0,0,5,0.008,0.006,0.79999995,1.7199999,0,0,0.049999997,0.02,-0.01,-0.04,1.6811936,-97043980,15,15,3,1,15,3
