timestamp,baro_alt_meter,baro_temp_celcius,baro_pressure_pa,rho
2882498,225.9791,45.14,98640.0,1.1720064
2904448,226.06364,45.14,98638.99,1.1719944
2915441,225.7228,45.14,98643.0,1.172042
2925437,226.2354,45.14,98637.0,1.1719707
2947436,225.89455,45.149998,98641.0,1.1720183
2958626,225.9791,45.149998,98640.0,1.1720064
2969436,225.89455,45.149998,98641.0,1.1720183
2991451,225.80998,45.16,98642.0,1.1720301
3002568,225.55368,45.16,98644.99,1.1720657
3013439,225.80998,45.16,98642.0,1.1720301
3035436,225.12827,45.16,98650.0,1.1721252
3045442,225.04372,45.16,98650.99,1.172137
3056459,225.46913,45.16,98646.0,1.1720777
3078537,225.7228,45.16,98643.0,1.172042
3089493,226.48906,45.16,98634.0,1.1719351
3100448,225.12827,45.16,98650.0,1.1721252
3121454,225.55368,45.17,98644.99,1.1720657
3132457,225.7228,45.17,98643.0,1.172042
3143486,225.89455,45.17,98641.0,1.1720183
3165454,225.9791,45.17,98640.0,1.1720064
3176454,225.9791,45.17,98640.0,1.1720064
3187455,225.80998,45.17,98642.0,1.1720301
3209480,225.46913,45.17,98646.0,1.1720777
3220455,225.46913,45.17,98646.0,1.1720777
3231454,225.63823,45.17,98644.0,1.1720539
3253456,225.55368,45.17,98644.99,1.1720657
3264454,226.06364,45.17,98638.99,1.1719944
3275472,225.63823,45.17,98644.0,1.1720539
3297557,225.55368,45.18,98644.99,1.1720657
3308455,225.7228,45.18,98643.0,1.172042
3319455,225.29738,45.18,98648.0,1.1721014
3341793,225.55368,45.19,98644.99,1.1720657
3352463,225.89455,45.19,98641.0,1.1720183
3363456,225.38457,45.19,98647.0,1.1720896
3385516,225.21281,45.19,98649.0,1.1721133
3396454,225.63823,45.19,98644.0,1.1720539
3407454,225.7228,45.19,98643.0,1.172042
3429552,225.7228,45.19,98643.0,1.172042
3440456,225.89455,45.19,98641.0,1.1720183
3451452,225.38457,45.19,98647.0,1.1720896
3472448,225.21281,45.19,98649.0,1.1721133
3483448,225.29738,45.19,98648.0,1.1721014
3494495,225.29738,45.19,98648.0,1.1721014
3515482,225.38457,45.2,98647.0,1.1720896
3525742,225.55368,45.2,98644.99,1.1720657
3536447,225.7228,45.2,98643.0,1.172042
3557436,225.63823,45.2,98644.0,1.1720539
3568436,225.55368,45.2,98644.99,1.1720657
3579436,225.38457,45.2,98647.0,1.1720896
3601441,225.7228,45.2,98643.0,1.172042
3611535,225.12827,45.2,98650.0,1.1721252
3622481,226.06364,45.2,98638.99,1.1719944
3644436,225.80998,45.2,98642.0,1.1720301
3654544,225.89455,45.2,98641.0,1.1720183
3665451,226.14821,45.2,98638.0,1.1719826
3687448,225.38457,45.2,98647.0,1.1720896
3698793,225.63823,45.2,98644.0,1.1720539
3709448,224.95915,45.2,98651.99,1.1721488
3731450,225.38457,45.21,98647.0,1.1720896
3742514,225.21281,45.21,98649.0,1.1721133
3753436,225.38457,45.21,98647.0,1.1720896
3775436,226.06364,45.21,98638.99,1.1719944
3786690,225.29738,45.21,98648.0,1.1721014
3797448,225.38457,45.21,98647.0,1.1720896
3820945,225.04372,45.21,98650.99,1.172137
3831972,225.46913,45.21,98646.0,1.1720777
3842550,225.46913,45.21,98646.0,1.1720777
3864164,225.46913,45.21,98646.0,1.1720777
3874530,225.29738,45.21,98648.0,1.1721014
3885437,225.55368,45.21,98644.99,1.1720657
3906534,225.29738,45.21,98648.0,1.1721014
3917449,225.63823,45.21,98644.0,1.1720539
3927896,225.7228,45.21,98643.0,1.172042
3949496,225.55368,45.21,98644.99,1.1720657
3959909,225.46913,45.21,98646.0,1.1720777
3970514,225.7228,45.21,98643.0,1.172042
3992104,225.9791,45.219997,98640.0,1.1720064
4002525,225.46913,45.219997,98646.0,1.1720777
4013754,225.38457,45.219997,98647.0,1.1720896
4034646,225.7228,45.219997,98643.0,1.172042
4044910,225.80998,45.219997,98642.0,1.1720301
4056149,225.63823,45.219997,98644.0,1.1720539
4076615,225.46913,45.219997,98646.0,1.1720777
4087843,224.87196,45.219997,98653.0,1.1721609
4098528,225.7228,45.219997,98643.0,1.172042
4119880,225.55368,45.21,98644.99,1.1720657
4130520,225.55368,45.21,98644.99,1.1720657
4141439,226.2354,45.21,98637.0,1.1719707
4163436,225.55368,45.219997,98644.99,1.1720657
4173795,225.46913,45.219997,98646.0,1.1720777
4184751,225.38457,45.219997,98647.0,1.1720896
4206506,225.46913,45.219997,98646.0,1.1720777
4216718,225.46913,45.219997,98646.0,1.1720777
4227449,225.29738,45.219997,98648.0,1.1721014
4248731,225.04372,45.219997,98650.99,1.172137
4259445,225.21281,45.219997,98649.0,1.1721133
4270550,225.12827,45.219997,98650.0,1.1721252
4293149,225.80998,45.219997,98642.0,1.1720301
4303461,225.46913,45.219997,98646.0,1.1720777
4314509,225.9791,45.219997,98640.0,1.1720064
4336701,225.55368,45.219997,98644.99,1.1720657
4347492,225.04372,45.219997,98650.99,1.172137
4358606,225.38457,45.219997,98647.0,1.1720896
4379481,225.21281,45.219997,98649.0,1.1721133
4390573,225.63823,45.219997,98644.0,1.1720539
4401443,225.55368,45.219997,98644.99,1.1720657
4422530,225.55368,45.219997,98644.99,1.1720657
4433721,225.38457,45.219997,98647.0,1.1720896
4445098,225.46913,45.219997,98646.0,1.1720777
4466576,225.12827,45.219997,98650.0,1.1721252
4477439,225.38457,45.219997,98647.0,1.1720896
4488746,225.38457,45.219997,98647.0,1.1720896
4510681,225.46913,45.219997,98646.0,1.1720777
4521482,226.06364,45.219997,98638.99,1.1719944
4531436,225.21281,45.219997,98649.0,1.1721133
4553439,225.21281,45.23,98649.0,1.1721133
4564469,225.9791,45.23,98640.0,1.1720064
4575438,225.21281,45.23,98649.0,1.1721133
4597436,225.46913,45.219997,98646.0,1.1720777
4608438,225.21281,45.219997,98649.0,1.1721133
4619932,225.46913,45.219997,98646.0,1.1720777
4641436,225.29738,45.219997,98648.0,1.1721014
4652675,225.29738,45.219997,98648.0,1.1721014
4663448,225.89455,45.219997,98641.0,1.1720183
4684686,225.55368,45.219997,98644.99,1.1720657
4695448,225.63823,45.219997,98644.0,1.1720539
4706603,225.55368,45.219997,98644.99,1.1720657
4729370,225.63823,45.219997,98644.0,1.1720539
4739448,225.38457,45.219997,98647.0,1.1720896
4750519,225.55368,45.219997,98644.99,1.1720657
4772687,225.29738,45.219997,98648.0,1.1721014
4783448,225.38457,45.219997,98647.0,1.1720896
4794519,225.21281,45.219997,98649.0,1.1721133
4815447,225.38457,45.219997,98647.0,1.1720896
4825450,225.7228,45.219997,98643.0,1.172042
4836666,225.21281,45.219997,98649.0,1.1721133
4858513,225.9791,45.219997,98640.0,1.1720064
4868729,225.29738,45.219997,98648.0,1.1721014
4879448,225.80998,45.219997,98642.0,1.1720301
4900696,225.29738,45.219997,98648.0,1.1721014
4911436,225.12827,45.219997,98650.0,1.1721252
4922495,225.46913,45.219997,98646.0,1.1720777
4943436,225.55368,45.219997,98644.99,1.1720657
4954840,225.29738,45.219997,98648.0,1.1721014
4965739,225.63823,45.219997,98644.0,1.1720539
4987439,225.89455,45.219997,98641.0,1.1720183
4998615,225.29738,45.219997,98648.0,1.1721014
5009448,225.46913,45.219997,98646.0,1.1720777
5031445,225.80998,45.219997,98642.0,1.1720301
5041444,225.63823,45.219997,98644.0,1.1720539
5052436,225.55368,45.219997,98644.99,1.1720657
5073470,225.29738,45.219997,98648.0,1.1721014
5084248,225.63823,45.219997,98644.0,1.1720539
5095143,225.12827,45.219997,98650.0,1.1721252
5115523,224.95915,45.219997,98651.99,1.1721488
5127367,225.80998,45.219997,98642.0,1.1720301
5137447,225.55368,45.219997,98644.99,1.1720657
5159135,225.63823,45.219997,98644.0,1.1720539
5169441,225.7228,45.219997,98643.0,1.172042
5179842,225.55368,45.219997,98644.99,1.1720657
5203839,225.46913,45.219997,98646.0,1.1720777
5215144,225.38457,45.219997,98647.0,1.1720896
5225443,225.38457,45.219997,98647.0,1.1720896
5247439,225.63823,45.219997,98644.0,1.1720539
5257436,224.87196,45.219997,98653.0,1.1721609
5268436,225.9791,45.219997,98640.0,1.1720064
5289436,225.21281,45.23,98649.0,1.1721133
5299874,225.29738,45.23,98648.0,1.1721014
5311123,225.21281,45.23,98649.0,1.1721133
5331581,224.95915,45.219997,98651.99,1.1721488
5343119,225.38457,45.219997,98647.0,1.1720896
5353436,225.55368,45.219997,98644.99,1.1720657
5375096,225.55368,45.219997,98644.99,1.1720657
5385436,224.95915,45.219997,98651.99,1.1721488
5396454,225.63823,45.219997,98644.0,1.1720539
5417467,225.38457,45.23,98647.0,1.1720896
5428308,225.55368,45.23,98644.99,1.1720657
5439109,225.38457,45.23,98647.0,1.1720896
5459466,225.04372,45.219997,98650.99,1.172137
5471267,224.87196,45.219997,98653.0,1.1721609
5481449,225.55368,45.219997,98644.99,1.1720657
5503135,225.12827,45.219997,98650.0,1.1721252
5513448,225.29738,45.219997,98648.0,1.1721014
5523796,225.46913,45.219997,98646.0,1.1720777
5545447,225.12827,45.219997,98650.0,1.1721252
5556436,225.46913,45.219997,98646.0,1.1720777
5567077,225.55368,45.219997,98644.99,1.1720657
5587456,225.46913,45.219997,98646.0,1.1720777
5599129,225.55368,45.219997,98644.99,1.1720657
5609506,225.55368,45.219997,98644.99,1.1720657
5631412,224.95915,45.219997,98651.99,1.1721488
5643500,225.29738,45.219997,98648.0,1.1721014
5655106,225.29738,45.219997,98648.0,1.1721014
5675797,225.63823,45.219997,98644.0,1.1720539
5687065,225.29738,45.219997,98648.0,1.1721014
5697447,225.21281,45.219997,98649.0,1.1721133
5719303,225.55368,45.219997,98644.99,1.1720657
5729441,225.80998,45.219997,98642.0,1.1720301
5740556,225.46913,45.219997,98646.0,1.1720777
5761482,225.21281,45.219997,98649.0,1.1721133
5772351,225.55368,45.219997,98644.99,1.1720657
5782563,225.29738,45.219997,98648.0,1.1721014
5803511,225.55368,45.219997,98644.99,1.1720657
5813786,225.89455,45.219997,98641.0,1.1720183
5824701,225.80998,45.219997,98642.0,1.1720301
5846560,225.55368,45.219997,98644.99,1.1720657
5857446,225.7228,45.219997,98643.0,1.172042
5867436,225.46913,45.219997,98646.0,1.1720777
5888700,224.95915,45.219997,98651.99,1.1721488
5899448,225.63823,45.219997,98644.0,1.1720539
5910498,225.63823,45.219997,98644.0,1.1720539
5931494,226.2354,45.219997,98637.0,1.1719707
5942548,225.38457,45.219997,98647.0,1.1720896
5953445,225.38457,45.219997,98647.0,1.1720896
5974513,225.46913,45.219997,98646.0,1.1720777
5984711,225.7228,45.219997,98643.0,1.172042
5995454,225.21281,45.219997,98649.0,1.1721133
6016705,225.55368,45.219997,98644.99,1.1720657
6027495,225.12827,45.219997,98650.0,1.1721252
6037529,226.06364,45.219997,98638.99,1.1719944
6059464,224.87196,45.219997,98653.0,1.1721609
6069857,225.63823,45.219997,98644.0,1.1720539
6080716,225.29738,45.219997,98648.0,1.1721014
6102516,224.78741,45.219997,98654.0,1.1721727
6112715,225.38457,45.219997,98647.0,1.1720896
6123436,225.63823,45.219997,98644.0,1.1720539
6144723,225.46913,45.219997,98646.0,1.1720777
6155536,225.21281,45.219997,98649.0,1.1721133
6166507,225.7228,45.219997,98643.0,1.172042
6187448,225.29738,45.219997,98648.0,1.1721014
6198506,225.38457,45.219997,98647.0,1.1720896
6209511,225.55368,45.219997,98644.99,1.1720657
6231448,225.46913,45.219997,98646.0,1.1720777
6241505,225.21281,45.219997,98649.0,1.1721133
6252436,225.46913,45.219997,98646.0,1.1720777
6273595,225.38457,45.219997,98647.0,1.1720896
6284448,225.89455,45.219997,98641.0,1.1720183
6295436,225.55368,45.219997,98644.99,1.1720657
6317927,225.9791,45.219997,98640.0,1.1720064
6328436,225.12827,45.219997,98650.0,1.1721252
6339446,225.12827,45.219997,98650.0,1.1721252
6361549,225.21281,45.219997,98649.0,1.1721133
6372436,225.55368,45.219997,98644.99,1.1720657
6383485,225.63823,45.219997,98644.0,1.1720539
6404483,225.38457,45.219997,98647.0,1.1720896
6415442,225.63823,45.219997,98644.0,1.1720539
6426579,225.38457,45.219997,98647.0,1.1720896
6447482,225.46913,45.21,98646.0,1.1720777
6457489,225.80998,45.21,98642.0,1.1720301
6468447,225.46913,45.21,98646.0,1.1720777
6490604,225.55368,45.219997,98644.99,1.1720657
6500438,225.46913,45.219997,98646.0,1.1720777
6511436,225.63823,45.219997,98644.0,1.1720539
6533436,225.46913,45.219997,98646.0,1.1720777
6544183,225.46913,45.219997,98646.0,1.1720777
6555128,225.80998,45.219997,98642.0,1.1720301
6576505,225.12827,45.219997,98650.0,1.1721252
6587187,225.04372,45.219997,98650.99,1.172137
6597508,225.38457,45.219997,98647.0,1.1720896
6619436,225.38457,45.219997,98647.0,1.1720896
6629436,225.80998,45.219997,98642.0,1.1720301
6639663,225.21281,45.219997,98649.0,1.1721133
6661465,225.29738,45.219997,98648.0,1.1721014
6672389,225.12827,45.219997,98650.0,1.1721252
6683155,225.80998,45.219997,98642.0,1.1720301
6704436,225.04372,45.219997,98650.99,1.172137
6715048,225.04372,45.219997,98650.99,1.172137
6725436,225.12827,45.219997,98650.0,1.1721252
6747113,225.21281,45.219997,98649.0,1.1721133
6757469,225.21281,45.219997,98649.0,1.1721133
6767691,225.9791,45.219997,98640.0,1.1720064
6789467,225.38457,45.219997,98647.0,1.1720896
6799922,225.04372,45.219997,98650.99,1.172137
6811133,225.89455,45.219997,98641.0,1.1720183
6831533,225.46913,45.219997,98646.0,1.1720777
6843114,225.46913,45.219997,98646.0,1.1720777
6853436,225.29738,45.219997,98648.0,1.1721014
6875900,225.7228,45.219997,98643.0,1.172042
6886554,225.63823,45.219997,98644.0,1.1720539
6897436,225.46913,45.219997,98646.0,1.1720777
6919443,225.29738,45.21,98648.0,1.1721014
6929935,225.12827,45.21,98650.0,1.1721252
6940732,225.21281,45.21,98649.0,1.1721133
6962555,225.04372,45.21,98650.99,1.172137
6973452,225.7228,45.21,98643.0,1.172042
6985201,225.55368,45.21,98644.99,1.1720657
7006509,225.63823,45.219997,98644.0,1.1720539
7017807,225.55368,45.219997,98644.99,1.1720657
7028721,225.63823,45.219997,98644.0,1.1720539
7049439,225.63823,45.219997,98644.0,1.1720539
7060725,225.38457,45.219997,98647.0,1.1720896
7071438,225.63823,45.219997,98644.0,1.1720539
7093437,224.6183,45.21,98656.0,1.1721965
7103438,225.7228,45.21,98643.0,1.172042
7114543,225.29738,45.21,98648.0,1.1721014
7135436,225.21281,45.21,98649.0,1.1721133
7145454,225.38457,45.21,98647.0,1.1720896
7156706,225.38457,45.21,98647.0,1.1720896
7178598,225.21281,45.219997,98649.0,1.1721133
7188679,225.55368,45.219997,98644.99,1.1720657
7199439,224.70285,45.219997,98655.0,1.1721846
7222582,225.29738,45.21,98648.0,1.1721014
7233476,225.46913,45.21,98646.0,1.1720777
7244467,225.38457,45.21,98647.0,1.1720896
7266756,225.21281,45.21,98649.0,1.1721133
7277436,225.46913,45.21,98646.0,1.1720777
7288436,225.7228,45.21,98643.0,1.172042
7311886,225.21281,45.21,98649.0,1.1721133
7321437,225.29738,45.21,98648.0,1.1721014
7332522,225.46913,45.21,98646.0,1.1720777
7355378,224.95915,45.21,98651.99,1.1721488
7365448,225.04372,45.21,98650.99,1.172137
7376526,225.29738,45.21,98648.0,1.1721014
7398540,225.38457,45.21,98647.0,1.1720896
7409441,225.7228,45.21,98643.0,1.172042
7420436,225.7228,45.21,98643.0,1.172042
7441436,225.7228,45.21,98643.0,1.172042
7451536,225.38457,45.21,98647.0,1.1720896
7463119,225.7228,45.21,98643.0,1.172042
7483766,225.63823,45.21,98644.0,1.1720539
7495120,225.29738,45.21,98648.0,1.1721014
7505448,225.38457,45.21,98647.0,1.1720896
7527136,225.38457,45.21,98647.0,1.1720896
7537441,225.29738,45.21,98648.0,1.1721014
7548436,224.95915,45.21,98651.99,1.1721488
7569446,225.04372,45.21,98650.99,1.172137
7579903,225.38457,45.21,98647.0,1.1720896
7591087,225.80998,45.21,98642.0,1.1720301
7611799,225.21281,45.21,98649.0,1.1721133
7622563,225.55368,45.21,98644.99,1.1720657
7633445,225.29738,45.21,98648.0,1.1721014
7655449,225.29738,45.21,98648.0,1.1721014
7666586,225.29738,45.21,98648.0,1.1721014
7677913,225.7228,45.21,98643.0,1.172042
7699448,225.55368,45.21,98644.99,1.1720657
7710645,225.38457,45.21,98647.0,1.1720896
7721702,225.12827,45.21,98650.0,1.1721252
7743448,225.29738,45.21,98648.0,1.1721014
7754533,225.29738,45.21,98648.0,1.1721014
7766091,225.63823,45.21,98644.0,1.1720539
7787441,225.29738,45.21,98648.0,1.1721014
7798982,225.12827,45.21,98650.0,1.1721252
7809859,225.29738,45.21,98648.0,1.1721014
7831497,225.04372,45.21,98650.99,1.172137
7841791,225.21281,45.21,98649.0,1.1721133
7852486,225.12827,45.21,98650.0,1.1721252
7874575,225.29738,45.21,98648.0,1.1721014
7884449,225.7228,45.21,98643.0,1.172042
7894639,224.95915,45.21,98651.99,1.1721488
7916455,225.38457,45.21,98647.0,1.1720896
7927454,225.21281,45.21,98649.0,1.1721133
7938707,225.89455,45.21,98641.0,1.1720183
7960448,225.55368,45.21,98644.99,1.1720657
7970653,225.7228,45.21,98643.0,1.172042
7981448,225.55368,45.21,98644.99,1.1720657
8003608,225.38457,45.21,98647.0,1.1720896
8015807,225.29738,45.21,98648.0,1.1721014
8027461,225.80998,45.21,98642.0,1.1720301
8047751,225.46913,45.2,98646.0,1.1720777
8059411,225.46913,45.2,98646.0,1.1720777
8072507,225.38457,45.2,98647.0,1.1720896
8094570,225.55368,45.21,98644.99,1.1720657
8105485,225.29738,45.21,98648.0,1.1721014
8117033,225.80998,45.21,98642.0,1.1720301
8138033,225.38457,45.21,98647.0,1.1720896
8149055,225.12827,45.21,98650.0,1.1721252
8159436,225.38457,45.21,98647.0,1.1720896
8181095,225.46913,45.21,98646.0,1.1720777
8191436,225.38457,45.21,98647.0,1.1720896
8201725,224.95915,45.21,98651.99,1.1721488
8223451,225.38457,45.2,98647.0,1.1720896
8233925,225.7228,45.2,98643.0,1.172042
8244999,225.04372,45.2,98650.99,1.172137
8266483,224.95915,45.21,98651.99,1.1721488
8277441,225.7228,45.21,98643.0,1.172042
8289697,225.04372,45.21,98650.99,1.172137
8311457,225.38457,45.21,98647.0,1.1720896
8322094,225.21281,45.21,98649.0,1.1721133
8333003,225.21281,45.21,98649.0,1.1721133
8354474,225.55368,45.21,98644.99,1.1720657
8365790,225.46913,45.21,98646.0,1.1720777
8376448,225.38457,45.21,98647.0,1.1720896
8398532,225.38457,45.2,98647.0,1.1720896
8408450,225.12827,45.2,98650.0,1.1721252
8419449,225.12827,45.2,98650.0,1.1721252
8440449,225.12827,45.2,98650.0,1.1721252
8450844,225.29738,45.2,98648.0,1.1721014
8461850,225.63823,45.2,98644.0,1.1720539
8483457,225.46913,45.21,98646.0,1.1720777
8493962,225.21281,45.21,98649.0,1.1721133
8504458,225.12827,45.21,98650.0,1.1721252
8526626,225.7228,45.21,98643.0,1.172042
8537496,225.21281,45.21,98649.0,1.1721133
8548436,225.04372,45.21,98650.99,1.172137
8569436,225.29738,45.21,98648.0,1.1721014
8581258,225.7228,45.21,98643.0,1.172042
8592311,225.46913,45.21,98646.0,1.1720777
8612509,225.46913,45.21,98646.0,1.1720777
8624359,225.38457,45.21,98647.0,1.1720896
8634508,225.46913,45.21,98646.0,1.1720777
8656164,225.12827,45.21,98650.0,1.1721252
8666527,225.29738,45.21,98648.0,1.1721014
8676473,225.55368,45.21,98644.99,1.1720657
8698581,225.38457,45.2,98647.0,1.1720896
8709436,225.46913,45.2,98646.0,1.1720777
8720225,224.95915,45.2,98651.99,1.1721488
8740613,225.46913,45.2,98646.0,1.1720777
8752278,225.46913,45.2,98646.0,1.1720777
8762533,225.29738,45.2,98648.0,1.1721014
8784248,225.12827,45.21,98650.0,1.1721252
8794555,225.38457,45.21,98647.0,1.1720896
8804481,225.29738,45.21,98648.0,1.1721014
8826566,225.7228,45.2,98643.0,1.172042
8837444,225.46913,45.2,98646.0,1.1720777
8848270,225.55368,45.2,98644.99,1.1720657
8868660,225.38457,45.2,98647.0,1.1720896
8880212,225.29738,45.2,98648.0,1.1721014
8890570,225.38457,45.2,98647.0,1.1720896
8913122,225.29738,45.21,98648.0,1.1721014
8923445,225.29738,45.21,98648.0,1.1721014
8934541,225.04372,45.21,98650.99,1.172137
8956447,225.12827,45.2,98650.0,1.1721252
8966864,225.12827,45.2,98650.0,1.1721252
8977859,225.38457,45.2,98647.0,1.1720896
8999697,225.7228,45.21,98643.0,1.172042
9011336,225.46913,45.21,98646.0,1.1720777
9021447,225.12827,45.21,98650.0,1.1721252
9043454,225.63823,45.2,98644.0,1.1720539
9056350,225.21281,45.2,98649.0,1.1721133
9067466,225.63823,45.2,98644.0,1.1720539
9091480,225.46913,45.2,98646.0,1.1720777
9101436,225.29738,45.2,98648.0,1.1721014
9113318,225.63823,45.2,98644.0,1.1720539
9134568,225.46913,45.2,98646.0,1.1720777
9145439,225.80998,45.2,98642.0,1.1720301
9156304,225.63823,45.2,98644.0,1.1720539
9176641,225.38457,45.2,98647.0,1.1720896
9188316,225.21281,45.2,98649.0,1.1721133
9198614,225.7228,45.2,98643.0,1.172042
9220260,225.38457,45.2,98647.0,1.1720896
9230522,225.12827,45.2,98650.0,1.1721252
9241436,225.46913,45.2,98646.0,1.1720777
9263447,225.46913,45.2,98646.0,1.1720777
9275525,224.70285,45.2,98655.0,1.1721846
9286696,225.46913,45.2,98646.0,1.1720777
9308436,225.46913,45.2,98646.0,1.1720777
9318676,224.95915,45.2,98651.99,1.1721488
9329446,224.95915,45.2,98651.99,1.1721488
9350690,225.21281,45.2,98649.0,1.1721133
9361449,224.87196,45.2,98653.0,1.1721609
9372436,226.06364,45.2,98638.99,1.1719944
9393490,225.12827,45.21,98650.0,1.1721252
9403760,225.55368,45.21,98644.99,1.1720657
9414795,225.29738,45.21,98648.0,1.1721014
9436436,225.29738,45.2,98648.0,1.1721014
9446620,225.55368,45.2,98644.99,1.1720657
9457447,225.80998,45.2,98642.0,1.1720301
9478614,225.12827,45.2,98650.0,1.1721252
9489497,225.21281,45.2,98649.0,1.1721133
9500439,225.63823,45.2,98644.0,1.1720539
9521465,224.95915,45.2,98651.99,1.1721488
9532132,225.89455,45.2,98641.0,1.1720183
9542621,225.38457,45.2,98647.0,1.1720896
9564436,225.29738,45.2,98648.0,1.1721014
9574777,225.63823,45.2,98644.0,1.1720539
9585448,225.46913,45.2,98646.0,1.1720777
9606639,225.38457,45.2,98647.0,1.1720896
9617454,224.95915,45.2,98651.99,1.1721488
9628456,225.55368,45.2,98644.99,1.1720657
9651050,225.21281,45.2,98649.0,1.1721133
9661436,225.46913,45.2,98646.0,1.1720777
9672436,225.21281,45.2,98649.0,1.1721133
9694654,225.21281,45.21,98649.0,1.1721133
9705437,225.55368,45.21,98644.99,1.1720657
9716480,225.12827,45.21,98650.0,1.1721252
9737492,225.38457,45.2,98647.0,1.1720896
9748436,225.12827,45.2,98650.0,1.1721252
9759446,225.29738,45.2,98648.0,1.1721014
9780436,225.55368,45.2,98644.99,1.1720657
9791465,225.7228,45.2,98643.0,1.172042
9803946,225.89455,45.2,98641.0,1.1720183
9829893,224.87196,45.2,98653.0,1.1721609
9839509,225.21281,45.2,98649.0,1.1721133
9852555,225.38457,45.2,98647.0,1.1720896
9876432,225.12827,45.19,98650.0,1.1721252
9887412,225.21281,45.19,98649.0,1.1721133
9899704,225.12827,45.19,98650.0,1.1721252
9923705,225.38457,45.19,98647.0,1.1720896
9935388,225.38457,45.19,98647.0,1.1720896
9947631,225.7228,45.19,98643.0,1.172042
9969435,225.29738,45.19,98648.0,1.1721014
9980171,225.63823,45.19,98644.0,1.1720539
9991464,225.63823,45.19,98644.0,1.1720539
10011651,225.80998,45.19,98642.0,1.1720301
10023594,225.29738,45.19,98648.0,1.1721014
10036152,225.55368,45.19,98644.99,1.1720657
10057436,225.04372,45.19,98650.99,1.172137
10067735,225.55368,45.19,98644.99,1.1720657
10079391,225.55368,45.19,98644.99,1.1720657
10103393,225.38457,45.19,98647.0,1.1720896
10113476,225.9791,45.19,98640.0,1.1720064
10124291,226.06364,45.19,98638.99,1.1719944
10145447,224.87196,45.19,98653.0,1.1721609
10156648,225.80998,45.19,98642.0,1.1720301
10167439,225.38457,45.19,98647.0,1.1720896
10189436,225.29738,45.19,98648.0,1.1721014
10201034,224.78741,45.19,98654.0,1.1721727
10211482,225.63823,45.19,98644.0,1.1720539
10233124,225.38457,45.19,98647.0,1.1720896
10243448,225.12827,45.19,98650.0,1.1721252
10253868,225.21281,45.19,98649.0,1.1721133
10275458,225.12827,45.2,98650.0,1.1721252
10286559,225.21281,45.2,98649.0,1.1721133
10297491,225.89455,45.2,98641.0,1.1720183
10318534,225.55368,45.2,98644.99,1.1720657
10329010,225.46913,45.2,98646.0,1.1720777
10339481,225.12827,45.2,98650.0,1.1721252
10361070,224.87196,45.2,98653.0,1.1721609
10371437,225.21281,45.2,98649.0,1.1721133
10381560,225.7228,45.2,98643.0,1.172042
10403448,225.29738,45.2,98648.0,1.1721014
10414124,225.7228,45.2,98643.0,1.172042
10425028,225.29738,45.2,98648.0,1.1721014
10446495,225.29738,45.2,98648.0,1.1721014
10457848,225.12827,45.2,98650.0,1.1721252
10468447,225.63823,45.2,98644.0,1.1720539
10489836,225.55368,45.2,98644.99,1.1720657
10500493,225.63823,45.2,98644.0,1.1720539
10511448,225.04372,45.2,98650.99,1.172137
10533449,225.55368,45.2,98644.99,1.1720657
10544124,225.63823,45.2,98644.0,1.1720539
10554688,225.55368,45.2,98644.99,1.1720657
10576436,225.46913,45.19,98646.0,1.1720777
10586597,225.29738,45.19,98648.0,1.1721014
10597437,225.38457,45.19,98647.0,1.1720896
10620194,225.38457,45.2,98647.0,1.1720896
10630557,225.29738,45.2,98648.0,1.1721014
10640652,225.46913,45.2,98646.0,1.1720777
10662518,225.29738,45.19,98648.0,1.1721014
10673451,225.46913,45.19,98646.0,1.1720777
10684311,225.38457,45.19,98647.0,1.1720896
10704565,225.29738,45.2,98648.0,1.1721014
10716219,225.12827,45.2,98650.0,1.1721252
10726518,225.7228,45.2,98643.0,1.172042
10748136,225.55368,45.2,98644.99,1.1720657
10758552,225.21281,45.2,98649.0,1.1721133
10768491,225.21281,45.2,98649.0,1.1721133
10790514,225.12827,45.2,98650.0,1.1721252
10801451,225.21281,45.2,98649.0,1.1721133
10812375,225.38457,45.2,98647.0,1.1720896
10832487,224.95915,45.2,98651.99,1.1721488
10844294,225.38457,45.2,98647.0,1.1720896
10854522,225.12827,45.2,98650.0,1.1721252
10876174,225.7228,45.2,98643.0,1.172042
10886543,225.04372,45.2,98650.99,1.172137
10896491,225.63823,45.2,98644.0,1.1720539
10918584,225.9791,45.19,98640.0,1.1720064
10929772,225.12827,45.19,98650.0,1.1721252
10941003,225.46913,45.19,98646.0,1.1720777
10961548,225.89455,45.19,98641.0,1.1720183
10973109,225.80998,45.19,98642.0,1.1720301
10983533,225.55368,45.19,98644.99,1.1720657
11005099,224.70285,45.2,98655.0,1.1721846
11015451,225.38457,45.2,98647.0,1.1720896
11026497,225.46913,45.2,98646.0,1.1720777
11047452,225.38457,45.2,98647.0,1.1720896
11057773,225.29738,45.2,98648.0,1.1721014
11069058,225.7228,45.2,98643.0,1.172042
11090531,225.21281,45.2,98649.0,1.1721133
11101098,225.21281,45.2,98649.0,1.1721133
11111436,225.63823,45.2,98644.0,1.1720539
11132437,225.63823,45.2,98644.0,1.1720539
11143591,225.55368,45.2,98644.99,1.1720657
11155693,225.21281,45.2,98649.0,1.1721133
11179670,225.38457,45.2,98647.0,1.1720896
11191533,225.63823,45.2,98644.0,1.1720539
11204335,225.29738,45.2,98648.0,1.1721014
11228277,225.46913,45.19,98646.0,1.1720777
11239428,225.29738,45.19,98648.0,1.1721014
11252582,225.29738,45.19,98648.0,1.1721014
11273485,225.04372,45.19,98650.99,1.172137
11284573,225.63823,45.19,98644.0,1.1720539
11296309,225.55368,45.19,98644.99,1.1720657
11317439,225.89455,45.19,98641.0,1.1720183
11328185,225.46913,45.19,98646.0,1.1720777
11338555,225.29738,45.19,98648.0,1.1721014
11360478,225.46913,45.19,98646.0,1.1720777
11371439,225.29738,45.19,98648.0,1.1721014
11383459,225.29738,45.19,98648.0,1.1721014
11405479,225.89455,45.19,98641.0,1.1720183
11415683,225.46913,45.19,98646.0,1.1720777
11426633,225.7228,45.19,98643.0,1.172042
11448439,225.46913,45.19,98646.0,1.1720777
11458636,225.12827,45.19,98650.0,1.1721252
11469447,225.12827,45.19,98650.0,1.1721252
11490678,225.46913,45.19,98646.0,1.1720777
11501500,225.55368,45.19,98644.99,1.1720657
11511432,226.06364,45.19,98638.99,1.1719944
11533478,225.21281,45.19,98649.0,1.1721133
11543433,225.89455,45.19,98641.0,1.1720183
11554723,225.55368,45.19,98644.99,1.1720657
11576436,225.46913,45.19,98646.0,1.1720777
11586636,225.89455,45.19,98641.0,1.1720183
11597448,225.21281,45.19,98649.0,1.1721133
11618684,225.29738,45.19,98648.0,1.1721014
11629448,225.63823,45.19,98644.0,1.1720539
11640448,225.9791,45.19,98640.0,1.1720064
11663347,225.7228,45.19,98643.0,1.172042
11673436,225.04372,45.19,98650.99,1.172137
11684447,225.38457,45.19,98647.0,1.1720896
11706685,225.04372,45.19,98650.99,1.172137
11717455,225.46913,45.19,98646.0,1.1720777
11728495,225.21281,45.19,98649.0,1.1721133
11749503,225.29738,45.2,98648.0,1.1721014
11760436,225.21281,45.2,98649.0,1.1721133
11771446,225.80998,45.2,98642.0,1.1720301
11792436,225.55368,45.19,98644.99,1.1720657
11802651,225.21281,45.19,98649.0,1.1721133
11813448,225.46913,45.19,98646.0,1.1720777
11834666,225.29738,45.19,98648.0,1.1721014
11845451,225.89455,45.19,98641.0,1.1720183
11856436,225.38457,45.19,98647.0,1.1720896
11877448,225.38457,45.19,98647.0,1.1720896
11887669,225.46913,45.19,98646.0,1.1720777
11898622,225.80998,45.19,98642.0,1.1720301
11920436,225.46913,45.2,98646.0,1.1720777
11930656,225.29738,45.2,98648.0,1.1721014
11941448,225.21281,45.2,98649.0,1.1721133
11962645,225.29738,45.19,98648.0,1.1721014
11973458,225.55368,45.19,98644.99,1.1720657
11984436,225.46913,45.19,98646.0,1.1720777
12005437,225.21281,45.2,98649.0,1.1721133
12015480,225.12827,45.2,98650.0,1.1721252
12026607,225.21281,45.2,98649.0,1.1721133
12048436,225.38457,45.19,98647.0,1.1720896
12058751,225.63823,45.19,98644.0,1.1720539
12069448,225.63823,45.19,98644.0,1.1720539
12091436,225.46913,45.19,98646.0,1.1720777
12101452,225.46913,45.19,98646.0,1.1720777
12112436,225.12827,45.19,98650.0,1.1721252
12133445,225.46913,45.2,98646.0,1.1720777
12143450,225.29738,45.2,98648.0,1.1721014
12154671,225.7228,45.2,98643.0,1.172042
12176439,225.55368,45.19,98644.99,1.1720657
12186684,225.46913,45.19,98646.0,1.1720777
12197457,225.21281,45.19,98649.0,1.1721133
12218665,225.04372,45.19,98650.99,1.172137
12229448,225.04372,45.19,98650.99,1.172137
12240448,225.55368,45.19,98644.99,1.1720657
12263296,225.21281,45.2,98649.0,1.1721133
12273436,225.29738,45.2,98648.0,1.1721014
12284455,225.80998,45.2,98642.0,1.1720301
12306627,225.21281,45.19,98649.0,1.1721133
12317436,225.38457,45.19,98647.0,1.1720896
12327616,225.38457,45.19,98647.0,1.1720896
12352315,224.87196,45.19,98653.0,1.1721609
12363375,225.12827,45.19,98650.0,1.1721252
12373436,225.12827,45.19,98650.0,1.1721252
12395365,225.21281,45.19,98649.0,1.1721133
12405438,225.29738,45.19,98648.0,1.1721014
12415437,225.80998,45.19,98642.0,1.1720301
12436992,225.7228,45.19,98643.0,1.172042
12447450,225.29738,45.19,98648.0,1.1721014
12457520,225.63823,45.19,98644.0,1.1720539
12479448,225.46913,45.19,98646.0,1.1720777
12490056,225.12827,45.19,98650.0,1.1721252
12501087,225.7228,45.19,98643.0,1.172042
12522530,225.38457,45.19,98647.0,1.1720896
12532975,225.29738,45.19,98648.0,1.1721014
12543436,225.38457,45.19,98647.0,1.1720896
12564977,225.46913,45.19,98646.0,1.1720777
12575447,225.80998,45.19,98642.0,1.1720301
12585444,225.46913,45.19,98646.0,1.1720777
12607448,225.12827,45.2,98650.0,1.1721252
12618564,225.63823,45.2,98644.0,1.1720539
12629438,225.04372,45.2,98650.99,1.172137
12650530,225.21281,45.19,98649.0,1.1721133
12661124,225.29738,45.19,98648.0,1.1721014
12671437,225.63823,45.19,98644.0,1.1720539
12693439,225.12827,45.19,98650.0,1.1721252
12703493,224.95915,45.19,98651.99,1.1721488
12714510,225.80998,45.19,98642.0,1.1720301
12735436,225.7228,45.19,98643.0,1.172042
12746129,225.46913,45.19,98646.0,1.1720777
12757021,225.46913,45.19,98646.0,1.1720777
12778511,225.55368,45.19,98644.99,1.1720657
12789873,225.55368,45.19,98644.99,1.1720657
12800468,225.7228,45.19,98643.0,1.172042
12821826,225.04372,45.19,98650.99,1.172137
12832451,225.63823,45.19,98644.0,1.1720539
12843450,225.29738,45.19,98648.0,1.1721014
12866072,225.12827,45.19,98650.0,1.1721252
12876447,225.89455,45.19,98641.0,1.1720183
12887436,225.80998,45.19,98642.0,1.1720301
12909869,225.29738,45.19,98648.0,1.1721014
12920437,225.29738,45.19,98648.0,1.1721014
12931487,225.89455,45.19,98641.0,1.1720183
12952496,225.46913,45.19,98646.0,1.1720777
12963481,225.7228,45.19,98643.0,1.172042
12974478,225.21281,45.19,98649.0,1.1721133
12995440,225.63823,45.19,98644.0,1.1720539
13005941,225.38457,45.19,98647.0,1.1720896
13016442,225.55368,45.19,98644.99,1.1720657
13037852,225.12827,45.19,98650.0,1.1721252
13048450,225.55368,45.19,98644.99,1.1720657
13059450,225.38457,45.19,98647.0,1.1720896
13080451,225.38457,45.2,98647.0,1.1720896
13092366,225.55368,45.2,98644.99,1.1720657
13103500,225.38457,45.2,98647.0,1.1720896
13127529,225.38457,45.19,98647.0,1.1720896
13139775,225.46913,45.19,98646.0,1.1720777
13151525,225.29738,45.19,98648.0,1.1721014
13175455,225.21281,45.19,98649.0,1.1721133
13185447,225.46913,45.19,98646.0,1.1720777
13196278,225.46913,45.19,98646.0,1.1720777
13220270,225.55368,45.19,98644.99,1.1720657
13231418,225.04372,45.19,98650.99,1.172137
13243685,225.29738,45.19,98648.0,1.1721014
13267658,225.46913,45.19,98646.0,1.1720777
13279407,225.63823,45.19,98644.0,1.1720539
13291707,225.9791,45.19,98640.0,1.1720064
13315705,225.38457,45.18,98647.0,1.1720896
13327460,225.63823,45.18,98644.0,1.1720539
13339718,225.55368,45.18,98644.99,1.1720657
13363878,225.29738,45.18,98648.0,1.1721014
13375532,225.38457,45.18,98647.0,1.1720896
13385446,225.80998,45.18,98642.0,1.1720301
13407390,225.55368,45.18,98644.99,1.1720657
13417447,225.38457,45.18,98647.0,1.1720896
13428439,225.55368,45.18,98644.99,1.1720657
13449447,224.95915,45.18,98651.99,1.1721488
13459693,225.29738,45.18,98648.0,1.1721014
13471481,225.55368,45.18,98644.99,1.1720657
13495436,225.46913,45.19,98646.0,1.1720777
13507744,225.7228,45.19,98643.0,1.172042
13519380,225.63823,45.19,98644.0,1.1720539
13539608,225.63823,45.18,98644.0,1.1720539
13551544,224.95915,45.18,98651.99,1.1721488
13564316,225.7228,45.18,98643.0,1.172042
13588269,225.04372,45.19,98650.99,1.172137
13598525,225.55368,45.19,98644.99,1.1720657
13609436,225.55368,45.19,98644.99,1.1720657
13632310,224.95915,45.19,98651.99,1.1721488
13642495,225.38457,45.19,98647.0,1.1720896
13653054,225.12827,45.19,98650.0,1.1721252
13674506,225.12827,45.19,98650.0,1.1721252
13684512,225.89455,45.19,98641.0,1.1720183
13696211,225.55368,45.19,98644.99,1.1720657
13717441,225.46913,45.18,98646.0,1.1720777
13728243,225.89455,45.18,98641.0,1.1720183
13738506,225.63823,45.18,98644.0,1.1720539
13760227,225.55368,45.19,98644.99,1.1720657
13770536,225.38457,45.19,98647.0,1.1720896
13780457,225.55368,45.19,98644.99,1.1720657
13802537,225.46913,45.19,98646.0,1.1720777
13813043,224.95915,45.19,98651.99,1.1721488
13824273,224.95915,45.19,98651.99,1.1721488
13845450,225.38457,45.19,98647.0,1.1720896
13856227,224.95915,45.19,98651.99,1.1721488
13866565,225.46913,45.19,98646.0,1.1720777
13888230,225.29738,45.19,98648.0,1.1721014
13898579,225.7228,45.19,98643.0,1.172042
13908537,225.38457,45.19,98647.0,1.1720896
13930530,225.7228,45.19,98643.0,1.172042
13941267,225.21281,45.19,98649.0,1.1721133
13952212,225.29738,45.19,98648.0,1.1721014
13974156,225.55368,45.19,98644.99,1.1720657
13984442,225.38457,45.19,98647.0,1.1720896
13995496,225.63823,45.19,98644.0,1.1720539
14019436,225.38457,45.19,98647.0,1.1720896
14032250,224.95915,45.19,98651.99,1.1721488
14043618,225.38457,45.19,98647.0,1.1720896
14067481,225.55368,45.19,98644.99,1.1720657
14079696,225.89455,45.19,98641.0,1.1720183
14091547,224.87196,45.19,98653.0,1.1721609
14113451,225.46913,45.18,98646.0,1.1720777
14124311,225.38457,45.18,98647.0,1.1720896
14134566,225.80998,45.18,98642.0,1.1720301
14156179,225.38457,45.19,98647.0,1.1720896
14166588,225.29738,45.19,98648.0,1.1721014
14177018,225.12827,45.19,98650.0,1.1721252
14198541,225.63823,45.19,98644.0,1.1720539
14208443,225.46913,45.19,98646.0,1.1720777
14220145,225.7228,45.19,98643.0,1.172042
14240633,225.12827,45.19,98650.0,1.1721252
14252231,225.55368,45.19,98644.99,1.1720657
14262530,225.46913,45.19,98646.0,1.1720777
14284291,225.04372,45.19,98650.99,1.172137
14293446,225.55368,45.19,98644.99,1.1720657
14304571,225.80998,45.19,98642.0,1.1720301
14326509,225.21281,45.19,98649.0,1.1721133
14337031,225.21281,45.19,98649.0,1.1721133
14348235,225.7228,45.19,98643.0,1.172042
14368972,225.46913,45.19,98646.0,1.1720777
14380191,225.7228,45.19,98643.0,1.172042
14390511,225.55368,45.19,98644.99,1.1720657
14413915,225.63823,45.19,98644.0,1.1720539
14424448,225.38457,45.19,98647.0,1.1720896
14435436,224.95915,45.19,98651.99,1.1721488
14458136,225.63823,45.19,98644.0,1.1720539
14468465,224.95915,45.19,98651.99,1.1721488
14479439,225.80998,45.19,98642.0,1.1720301
14501819,225.89455,45.19,98641.0,1.1720183
14512436,225.46913,45.19,98646.0,1.1720777
14522682,225.55368,45.19,98644.99,1.1720657
14544454,225.55368,45.19,98644.99,1.1720657
14554726,225.29738,45.19,98648.0,1.1721014
14565841,225.04372,45.19,98650.99,1.172137
14587436,225.38457,45.19,98647.0,1.1720896
14597784,225.21281,45.19,98649.0,1.1721133
14608448,225.46913,45.19,98646.0,1.1720777
14630613,224.95915,45.19,98651.99,1.1721488
14641448,225.21281,45.19,98649.0,1.1721133
14652436,225.7228,45.19,98643.0,1.172042
14673437,225.46913,45.19,98646.0,1.1720777
14683802,225.46913,45.19,98646.0,1.1720777
14694703,225.7228,45.19,98643.0,1.172042
14716436,225.55368,45.19,98644.99,1.1720657
14727436,225.04372,45.19,98650.99,1.172137
14738845,225.29738,45.19,98648.0,1.1721014
14760448,225.55368,45.19,98644.99,1.1720657
14771443,225.29738,45.19,98648.0,1.1721014
14782675,225.38457,45.19,98647.0,1.1720896
14804452,225.04372,45.19,98650.99,1.172137
14815439,225.46913,45.19,98646.0,1.1720777
14827363,225.29738,45.19,98648.0,1.1721014
14848436,225.46913,45.19,98646.0,1.1720777
14860665,225.89455,45.19,98641.0,1.1720183
14872251,225.55368,45.19,98644.99,1.1720657
14893436,225.04372,45.19,98650.99,1.172137
14905038,225.55368,45.19,98644.99,1.1720657
14915436,225.55368,45.19,98644.99,1.1720657
14937067,225.63823,45.19,98644.0,1.1720539
14947453,225.04372,45.19,98650.99,1.172137
14958488,225.46913,45.19,98646.0,1.1720777
14979436,225.55368,45.19,98644.99,1.1720657
14989882,225.12827,45.19,98650.0,1.1721252
15000437,225.63823,45.19,98644.0,1.1720539
15023069,225.7228,45.19,98643.0,1.172042
15033445,225.7228,45.19,98643.0,1.172042
15044448,226.14821,45.19,98638.0,1.1719826
15066471,225.29738,45.18,98648.0,1.1721014
15077500,225.55368,45.18,98644.99,1.1720657
15088460,225.7228,45.18,98643.0,1.172042
15110514,225.29738,45.19,98648.0,1.1721014
15121748,225.29738,45.19,98648.0,1.1721014
15132448,224.53375,45.19,98657.0,1.1722083
15152502,225.21281,45.19,98649.0,1.1721133
15164321,225.80998,45.19,98642.0,1.1720301
15174498,225.12827,45.19,98650.0,1.1721252
15196212,225.46913,45.19,98646.0,1.1720777
15206533,225.21281,45.19,98649.0,1.1721133
15216462,225.55368,45.19,98644.99,1.1720657
15238505,225.12827,45.19,98650.0,1.1721252
15249556,225.80998,45.19,98642.0,1.1720301
15260249,225.12827,45.19,98650.0,1.1721252
15280444,225.21281,45.19,98649.0,1.1721133
15292350,225.55368,45.19,98644.99,1.1720657
15302533,225.55368,45.19,98644.99,1.1720657
15324279,225.38457,45.19,98647.0,1.1720896
15334554,225.55368,45.19,98644.99,1.1720657
15345436,225.46913,45.19,98646.0,1.1720777
15367448,225.12827,45.19,98650.0,1.1721252
15378022,225.89455,45.19,98641.0,1.1720183
15389037,225.55368,45.19,98644.99,1.1720657
15410526,225.7228,45.19,98643.0,1.172042
15421448,225.46913,45.19,98646.0,1.1720777
15431439,225.7228,45.19,98643.0,1.172042
15453059,225.29738,45.19,98648.0,1.1721014
15463436,225.63823,45.19,98644.0,1.1720539
15473498,225.46913,45.19,98646.0,1.1720777
15495493,225.12827,45.19,98650.0,1.1721252
15506537,224.95915,45.19,98651.99,1.1721488
15517494,225.04372,45.19,98650.99,1.172137
15537477,224.87196,45.19,98653.0,1.1721609
15549075,225.55368,45.19,98644.99,1.1720657
15559452,225.21281,45.19,98649.0,1.1721133
15581038,225.12827,45.2,98650.0,1.1721252
15591440,225.12827,45.2,98650.0,1.1721252
15601556,225.21281,45.2,98649.0,1.1721133
15623439,224.95915,45.19,98651.99,1.1721488
15633845,225.7228,45.19,98643.0,1.172042
15645062,225.7228,45.19,98643.0,1.172042
15666547,225.63823,45.19,98644.0,1.1720539
15677452,225.38457,45.19,98647.0,1.1720896
15689259,225.63823,45.19,98644.0,1.1720539
15709838,225.46913,45.19,98646.0,1.1720777
15720448,225.7228,45.19,98643.0,1.172042
15731436,225.12827,45.19,98650.0,1.1721252
15753444,225.12827,45.19,98650.0,1.1721252
15764323,225.63823,45.19,98644.0,1.1720539
15775479,225.46913,45.19,98646.0,1.1720777
15799475,225.29738,45.19,98648.0,1.1721014
15811730,225.7228,45.19,98643.0,1.172042
15823409,225.55368,45.19,98644.99,1.1720657
15847419,225.21281,45.19,98649.0,1.1721133
15859747,225.21281,45.19,98649.0,1.1721133
15871498,225.55368,45.19,98644.99,1.1720657
15895453,225.38457,45.19,98647.0,1.1720896
15905446,225.46913,45.19,98646.0,1.1720777
15915719,224.95915,45.19,98651.99,1.1721488
15939728,225.12827,45.19,98650.0,1.1721252
15951585,225.46913,45.19,98646.0,1.1720777
15961482,225.21281,45.19,98649.0,1.1721133
15983403,225.63823,45.18,98644.0,1.1720539
15995733,225.21281,45.18,98649.0,1.1721133
16007412,225.55368,45.18,98644.99,1.1720657
16031415,225.46913,45.18,98646.0,1.1720777
16043838,225.38457,45.18,98647.0,1.1720896
16055517,225.21281,45.18,98649.0,1.1721133
16079443,225.46913,45.18,98646.0,1.1720777
16092226,225.46913,45.18,98646.0,1.1720777
16103441,225.29738,45.18,98648.0,1.1721014
16127420,224.95915,45.18,98651.99,1.1721488
16140250,225.04372,45.18,98650.99,1.172137
16151511,225.46913,45.18,98646.0,1.1720777
16175479,225.04372,45.18,98650.99,1.172137
16186536,225.46913,45.18,98646.0,1.1720777
16196466,224.78741,45.18,98654.0,1.1721727
16218529,225.38457,45.18,98647.0,1.1720896
16229439,225.46913,45.18,98646.0,1.1720777
16240439,225.04372,45.18,98650.99,1.172137
16262726,225.55368,45.18,98644.99,1.1720657
16273449,225.21281,45.18,98649.0,1.1721133
16284479,225.63823,45.18,98644.0,1.1720539
16305480,225.38457,45.18,98647.0,1.1720896
16315468,225.80998,45.18,98642.0,1.1720301
16327885,225.21281,45.18,98649.0,1.1721133
16349447,225.46913,45.18,98646.0,1.1720777
16360177,225.63823,45.18,98644.0,1.1720539
16371471,225.63823,45.18,98644.0,1.1720539
16395376,225.29738,45.19,98648.0,1.1721014
16405436,225.21281,45.19,98649.0,1.1721133
16415707,224.87196,45.19,98653.0,1.1721609
16437436,225.38457,45.18,98647.0,1.1720896
16447886,225.46913,45.18,98646.0,1.1720777
16459524,225.55368,45.18,98644.99,1.1720657
16479625,225.04372,45.18,98650.99,1.172137
16491486,225.38457,45.18,98647.0,1.1720896
16504280,225.46913,45.18,98646.0,1.1720777
16528375,225.55368,45.19,98644.99,1.1720657
16539447,225.38457,45.19,98647.0,1.1720896
16552505,225.29738,45.19,98648.0,1.1721014
16576505,225.38457,45.18,98647.0,1.1720896
16587421,225.12827,45.18,98650.0,1.1721252
16597480,224.78741,45.18,98654.0,1.1721727
16619501,225.21281,45.18,98649.0,1.1721133
16630570,224.95915,45.18,98651.99,1.1721488
16641050,225.12827,45.18,98650.0,1.1721252
16662531,225.12827,45.18,98650.0,1.1721252
16672454,225.38457,45.18,98647.0,1.1720896
16683449,225.63823,45.18,98644.0,1.1720539
16704445,225.55368,45.19,98644.99,1.1720657
16715455,225.63823,45.19,98644.0,1.1720539
16726563,225.29738,45.19,98648.0,1.1721014
16749827,225.55368,45.18,98644.99,1.1720657
16760448,225.38457,45.18,98647.0,1.1720896
16771448,225.7228,45.18,98643.0,1.172042
16792449,225.38457,45.18,98647.0,1.1720896
16802697,225.63823,45.18,98644.0,1.1720539
16813910,225.55368,45.18,98644.99,1.1720657
16835437,225.55368,45.19,98644.99,1.1720657
16845937,225.21281,45.19,98649.0,1.1721133
16856448,225.80998,45.19,98642.0,1.1720301
16878539,225.63823,45.19,98644.0,1.1720539
16890332,225.7228,45.19,98643.0,1.172042
16900436,225.21281,45.19,98649.0,1.1721133
16922565,225.46913,45.19,98646.0,1.1720777
16933914,225.7228,45.19,98643.0,1.172042
16944448,225.55368,45.19,98644.99,1.1720657
16966656,225.21281,45.19,98649.0,1.1721133
16977478,225.38457,45.19,98647.0,1.1720896
16987842,225.46913,45.19,98646.0,1.1720777
17009439,225.12827,45.19,98650.0,1.1721252
17019584,225.29738,45.19,98648.0,1.1721014
17029436,225.55368,45.19,98644.99,1.1720657
17051464,225.04372,45.19,98650.99,1.172137
17062482,225.29738,45.19,98648.0,1.1721014
17072439,225.63823,45.19,98644.0,1.1720539
17094556,225.55368,45.19,98644.99,1.1720657
17105927,225.9791,45.19,98640.0,1.1720064
17116458,225.12827,45.19,98650.0,1.1721252
17137893,225.46913,45.19,98646.0,1.1720777
17148448,225.46913,45.19,98646.0,1.1720777
17159456,225.55368,45.19,98644.99,1.1720657
17180436,225.04372,45.19,98650.99,1.172137
17190816,225.38457,45.19,98647.0,1.1720896
17201868,225.21281,45.19,98649.0,1.1721133
17222495,225.80998,45.19,98642.0,1.1720301
17233879,225.29738,45.19,98648.0,1.1721014
17244436,225.55368,45.19,98644.99,1.1720657
17265827,225.29738,45.19,98648.0,1.1721014
17276449,225.63823,45.19,98644.0,1.1720539
17287448,225.12827,45.19,98650.0,1.1721252
17308447,225.29738,45.19,98648.0,1.1721014
17318641,225.38457,45.19,98647.0,1.1720896
17329793,225.80998,45.19,98642.0,1.1720301
17351477,224.78741,45.19,98654.0,1.1721727
17361836,225.55368,45.19,98644.99,1.1720657
17372447,225.63823,45.19,98644.0,1.1720539
17392447,225.29738,45.19,98648.0,1.1721014
17403439,225.21281,45.19,98649.0,1.1721133
17414543,225.38457,45.19,98647.0,1.1720896
17436451,225.12827,45.19,98650.0,1.1721252
17446901,225.12827,45.19,98650.0,1.1721252
17457825,225.63823,45.19,98644.0,1.1720539
17479448,225.63823,45.19,98644.0,1.1720539
17489926,225.29738,45.19,98648.0,1.1721014
17500448,225.29738,45.19,98648.0,1.1721014
17521916,225.89455,45.19,98641.0,1.1720183
17532448,225.63823,45.19,98644.0,1.1720539
17543436,225.46913,45.19,98646.0,1.1720777
17564448,225.55368,45.19,98644.99,1.1720657
17574720,225.29738,45.19,98648.0,1.1721014
17585745,225.89455,45.19,98641.0,1.1720183
17607452,225.38457,45.19,98647.0,1.1720896
17618571,225.7228,45.19,98643.0,1.172042
17630485,225.29738,45.19,98648.0,1.1721014
17652534,225.04372,45.19,98650.99,1.172137
17663449,225.29738,45.19,98648.0,1.1721014
17674515,225.55368,45.19,98644.99,1.1720657
17695436,225.29738,45.19,98648.0,1.1721014
17705759,225.38457,45.19,98647.0,1.1720896
17716436,225.55368,45.19,98644.99,1.1720657
17738495,225.55368,45.19,98644.99,1.1720657
17748444,225.38457,45.19,98647.0,1.1720896
17759447,225.12827,45.19,98650.0,1.1721252
17780460,225.38457,45.19,98647.0,1.1720896
17792311,225.46913,45.19,98646.0,1.1720777
17803472,225.46913,45.19,98646.0,1.1720777
17827421,225.46913,45.19,98646.0,1.1720777
17839711,225.29738,45.19,98648.0,1.1721014
17851588,225.04372,45.19,98650.99,1.172137
17875548,225.55368,45.19,98644.99,1.1720657
17889002,225.29738,45.19,98648.0,1.1721014
17899566,225.80998,45.19,98642.0,1.1720301
17920605,224.95915,45.19,98651.99,1.1721488
17931466,225.21281,45.19,98649.0,1.1721133
17941490,225.55368,45.19,98644.99,1.1720657
17963603,225.55368,45.19,98644.99,1.1720657
17975892,225.12827,45.19,98650.0,1.1721252
17987406,225.21281,45.19,98649.0,1.1721133
18011485,225.46913,45.19,98646.0,1.1720777
18023959,225.46913,45.19,98646.0,1.1720777
18035414,225.12827,45.19,98650.0,1.1721252
18059491,225.46913,45.18,98646.0,1.1720777
18071765,225.46913,45.18,98646.0,1.1720777
18083389,225.80998,45.18,98642.0,1.1720301
18103954,225.7228,45.18,98643.0,1.172042
18115485,225.29738,45.18,98648.0,1.1721014
18127921,225.29738,45.18,98648.0,1.1721014
18148231,225.29738,45.19,98648.0,1.1721014
18158527,225.7228,45.19,98643.0,1.172042
18168434,225.80998,45.19,98642.0,1.1720301
18190531,225.80998,45.19,98642.0,1.1720301
18200679,224.70285,45.19,98655.0,1.1721846
18212293,225.46913,45.19,98646.0,1.1720777
18233453,225.46913,45.19,98646.0,1.1720777
18244478,225.55368,45.19,98644.99,1.1720657
18254559,225.38457,45.19,98647.0,1.1720896
18276967,225.12827,45.19,98650.0,1.1721252
18287442,225.46913,45.19,98646.0,1.1720777
18298576,225.12827,45.19,98650.0,1.1721252
18320448,225.55368,45.19,98644.99,1.1720657
18331755,225.46913,45.19,98646.0,1.1720777
18342652,225.04372,45.19,98650.99,1.172137
18364453,225.7228,45.19,98643.0,1.172042
18374724,225.55368,45.19,98644.99,1.1720657
18385441,225.55368,45.19,98644.99,1.1720657
18406621,225.21281,45.19,98649.0,1.1721133
18417448,225.38457,45.19,98647.0,1.1720896
18428435,225.29738,45.19,98648.0,1.1721014
18449436,225.29738,45.19,98648.0,1.1721014
18460436,225.04372,45.19,98650.99,1.172137
18471436,225.38457,45.19,98647.0,1.1720896
18492436,225.55368,45.19,98644.99,1.1720657
18502625,225.29738,45.19,98648.0,1.1721014
18513460,225.7228,45.19,98643.0,1.172042
18535422,225.04372,45.19,98650.99,1.172137
18547815,225.29738,45.19,98648.0,1.1721014
18559460,225.21281,45.19,98649.0,1.1721133
18583472,225.38457,45.19,98647.0,1.1720896
18595731,225.12827,45.19,98650.0,1.1721252
18607418,225.46913,45.19,98646.0,1.1720777
18631545,225.63823,45.19,98644.0,1.1720539
18643936,225.55368,45.19,98644.99,1.1720657
18655441,225.29738,45.19,98648.0,1.1721014
18675674,225.29738,45.19,98648.0,1.1721014
18687403,225.29738,45.19,98648.0,1.1721014
18699640,225.7228,45.19,98643.0,1.172042
18723714,225.29738,45.19,98648.0,1.1721014
18735438,225.63823,45.19,98644.0,1.1720539
18747619,225.12827,45.19,98650.0,1.1721252
18771719,225.21281,45.18,98649.0,1.1721133
18783395,225.46913,45.18,98646.0,1.1720777
18793436,225.29738,45.18,98648.0,1.1721014
18815452,225.63823,45.18,98644.0,1.1720539
18827698,225.46913,45.18,98646.0,1.1720777
18839478,225.12827,45.18,98650.0,1.1721252
18863361,225.63823,45.18,98644.0,1.1720539
18873445,225.38457,45.18,98647.0,1.1720896
18884273,225.29738,45.18,98648.0,1.1721014
18908223,225.12827,45.18,98650.0,1.1721252
18919352,225.21281,45.18,98649.0,1.1721133
18929436,225.46913,45.18,98646.0,1.1720777
18951424,225.9791,45.18,98640.0,1.1720064
18963698,225.55368,45.18,98644.99,1.1720657
18975410,225.38457,45.18,98647.0,1.1720896
18999351,225.04372,45.18,98650.99,1.172137
19009436,225.63823,45.18,98644.0,1.1720539
19020126,225.46913,45.18,98646.0,1.1720777
19041436,225.63823,45.18,98644.0,1.1720539
19051904,225.55368,45.18,98644.99,1.1720657
19063412,225.80998,45.18,98642.0,1.1720301
19087436,225.04372,45.19,98650.99,1.172137
19099826,225.12827,45.19,98650.0,1.1721252
19111414,225.55368,45.19,98644.99,1.1720657
19135483,225.63823,45.18,98644.0,1.1720539
19147817,225.38457,45.18,98647.0,1.1720896
19159395,225.63823,45.18,98644.0,1.1720539
19180472,225.46913,45.18,98646.0,1.1720777
19191530,225.46913,45.18,98646.0,1.1720777
19203704,225.38457,45.18,98647.0,1.1720896
19226519,225.38457,45.18,98647.0,1.1720896
19237446,225.80998,45.18,98642.0,1.1720301
19248962,225.55368,45.18,98644.99,1.1720657
19270032,225.63823,45.18,98644.0,1.1720539
19280977,225.29738,45.18,98648.0,1.1721014
19291448,225.29738,45.18,98648.0,1.1721014
19313438,225.29738,45.18,98648.0,1.1721014
19325238,225.29738,45.18,98648.0,1.1721014
19335483,225.29738,45.18,98648.0,1.1721014
19357450,224.95915,45.19,98651.99,1.1721488
19368991,225.46913,45.19,98646.0,1.1720777
19379444,225.63823,45.19,98644.0,1.1720539
19401013,225.04372,45.19,98650.99,1.172137
19411438,225.29738,45.19,98648.0,1.1721014
19422524,225.46913,45.19,98646.0,1.1720777
19443448,225.80998,45.19,98642.0,1.1720301
19453458,225.63823,45.19,98644.0,1.1720539
19465005,225.7228,45.19,98643.0,1.172042
19486553,225.21281,45.19,98649.0,1.1721133
19497012,225.80998,45.19,98642.0,1.1720301
19507436,225.38457,45.19,98647.0,1.1720896
19529067,225.55368,45.19,98644.99,1.1720657
19539438,225.38457,45.19,98647.0,1.1720896
19550522,225.55368,45.19,98644.99,1.1720657
19571517,225.89455,45.19,98641.0,1.1720183
19581962,225.38457,45.19,98647.0,1.1720896
19593055,225.21281,45.19,98649.0,1.1721133
19614579,225.7228,45.19,98643.0,1.172042
19625047,225.46913,45.19,98646.0,1.1720777
19635437,225.55368,45.19,98644.99,1.1720657
19657029,225.29738,45.19,98648.0,1.1721014
19667448,225.55368,45.19,98644.99,1.1720657
19678483,225.12827,45.19,98650.0,1.1721252
19699436,225.63823,45.19,98644.0,1.1720539
19709870,225.29738,45.19,98648.0,1.1721014
19721047,225.46913,45.19,98646.0,1.1720777
19742511,225.7228,45.19,98643.0,1.172042
19753021,225.46913,45.19,98646.0,1.1720777
19763436,225.12827,45.19,98650.0,1.1721252
19785066,225.21281,45.19,98649.0,1.1721133
19795448,225.46913,45.19,98646.0,1.1720777
19806535,225.38457,45.19,98647.0,1.1720896
19827471,225.29738,45.19,98648.0,1.1721014
19837906,225.38457,45.19,98647.0,1.1720896
19849103,225.46913,45.19,98646.0,1.1720777
19869490,225.12827,45.2,98650.0,1.1721252
19881001,224.87196,45.2,98653.0,1.1721609
19891450,225.63823,45.2,98644.0,1.1720539
19913436,225.21281,45.2,98649.0,1.1721133
19923436,225.29738,45.2,98648.0,1.1721014
19934549,225.12827,45.2,98650.0,1.1721252
19955486,225.63823,45.19,98644.0,1.1720539
19965842,225.55368,45.19,98644.99,1.1720657
19977035,225.29738,45.19,98648.0,1.1721014
19998588,225.55368,45.2,98644.99,1.1720657
20009810,225.12827,45.2,98650.0,1.1721252
20020533,225.80998,45.2,98642.0,1.1720301
20041482,225.7228,45.19,98643.0,1.172042
20051480,225.80998,45.19,98642.0,1.1720301
20063775,225.12827,45.19,98650.0,1.1721252
20087745,225.21281,45.19,98649.0,1.1721133
20099455,225.04372,45.19,98650.99,1.172137
20112402,225.7228,45.19,98643.0,1.172042
20136210,225.80998,45.19,98642.0,1.1720301
20147482,225.55368,45.19,98644.99,1.1720657
20160237,225.46913,45.19,98646.0,1.1720777
20183796,225.55368,45.18,98644.99,1.1720657
20195469,225.63823,45.18,98644.0,1.1720539
20207671,225.63823,45.18,98644.0,1.1720539
20231702,225.63823,45.18,98644.0,1.1720539
20243451,225.46913,45.18,98646.0,1.1720777
20255626,225.46913,45.18,98646.0,1.1720777
20279693,225.04372,45.19,98650.99,1.172137
20291544,225.46913,45.19,98646.0,1.1720777
20303758,225.29738,45.19,98648.0,1.1721014
20326565,225.46913,45.18,98646.0,1.1720777
20336459,225.46913,45.18,98646.0,1.1720777
20348221,225.89455,45.18,98641.0,1.1720183
20369232,225.21281,45.18,98649.0,1.1721133
20380228,225.63823,45.18,98644.0,1.1720539
20390593,225.12827,45.18,98650.0,1.1721252
20412357,225.63823,45.19,98644.0,1.1720539
20422523,225.29738,45.19,98648.0,1.1721014
20432612,225.29738,45.19,98648.0,1.1721014
20454597,225.12827,45.19,98650.0,1.1721252
20466155,225.55368,45.19,98644.99,1.1720657
20476978,225.38457,45.19,98647.0,1.1720896
20497551,225.55368,45.19,98644.99,1.1720657
20508454,225.63823,45.19,98644.0,1.1720539
20519454,225.55368,45.19,98644.99,1.1720657
20542626,225.63823,45.19,98644.0,1.1720539
20553460,225.55368,45.19,98644.99,1.1720657
20564436,225.7228,45.19,98643.0,1.172042
20585437,225.21281,45.19,98649.0,1.1721133
20595688,225.21281,45.19,98649.0,1.1721133
20606640,225.7228,45.19,98643.0,1.172042
20628436,225.46913,45.19,98646.0,1.1720777
20638768,225.46913,45.19,98646.0,1.1720777
20649448,225.38457,45.19,98647.0,1.1720896
20670642,225.55368,45.19,98644.99,1.1720657
20681440,225.29738,45.19,98648.0,1.1721014
20691748,225.38457,45.19,98647.0,1.1720896
20713452,225.21281,45.19,98649.0,1.1721133
20724436,225.21281,45.19,98649.0,1.1721133
20735436,225.55368,45.19,98644.99,1.1720657
20756447,225.55368,45.19,98644.99,1.1720657
20766627,225.89455,45.19,98641.0,1.1720183
20777450,225.80998,45.19,98642.0,1.1720301
20799532,225.55368,45.19,98644.99,1.1720657
20811929,225.21281,45.19,98649.0,1.1721133
20823413,225.46913,45.19,98646.0,1.1720777
20847455,225.46913,45.19,98646.0,1.1720777
20858568,224.87196,45.19,98653.0,1.1721609
20868978,225.38457,45.19,98647.0,1.1720896
20890531,225.21281,45.19,98649.0,1.1721133
20900443,225.29738,45.19,98648.0,1.1721014
20911444,225.29738,45.19,98648.0,1.1721014
20932449,225.55368,45.19,98644.99,1.1720657
20943436,225.63823,45.19,98644.0,1.1720539
20954545,225.29738,45.19,98648.0,1.1721014
20975442,225.7228,45.19,98643.0,1.172042
20985872,225.21281,45.19,98649.0,1.1721133
20996436,225.38457,45.19,98647.0,1.1720896
21017846,224.95915,45.2,98651.99,1.1721488
21028454,225.12827,45.2,98650.0,1.1721252
21039456,225.29738,45.2,98648.0,1.1721014
21062321,225.21281,45.2,98649.0,1.1721133
21072480,225.04372,45.2,98650.99,1.172137
21083439,225.21281,45.2,98649.0,1.1721133
21105852,224.95915,45.2,98651.99,1.1721488
21116441,225.38457,45.2,98647.0,1.1720896
21127447,225.38457,45.2,98647.0,1.1720896
21148443,225.63823,45.19,98644.0,1.1720539
21159448,225.29738,45.19,98648.0,1.1721014
21170529,225.29738,45.19,98648.0,1.1721014
21191448,225.55368,45.19,98644.99,1.1720657
21201923,225.46913,45.19,98646.0,1.1720777
21212446,225.46913,45.19,98646.0,1.1720777
21234013,225.55368,45.19,98644.99,1.1720657
21244446,225.7228,45.19,98643.0,1.172042
21255441,225.55368,45.19,98644.99,1.1720657
21278073,225.12827,45.2,98650.0,1.1721252
21288436,225.12827,45.2,98650.0,1.1721252
21299436,225.46913,45.2,98646.0,1.1720777
21321439,225.55368,45.2,98644.99,1.1720657
21332446,225.89455,45.2,98641.0,1.1720183
21343448,225.46913,45.2,98646.0,1.1720777
21365453,225.12827,45.19,98650.0,1.1721252
21376436,225.29738,45.19,98648.0,1.1721014
21387436,225.55368,45.19,98644.99,1.1720657
21408436,225.38457,45.19,98647.0,1.1720896
21418635,225.7228,45.19,98643.0,1.172042
21429436,225.29738,45.19,98648.0,1.1721014
21450717,225.29738,45.2,98648.0,1.1721014
21461500,225.04372,45.2,98650.99,1.172137
21472439,225.46913,45.2,98646.0,1.1720777
21493461,225.46913,45.19,98646.0,1.1720777
21504530,225.63823,45.19,98644.0,1.1720539
21514716,225.38457,45.19,98647.0,1.1720896
21536436,225.12827,45.2,98650.0,1.1721252
21547436,225.46913,45.2,98646.0,1.1720777
21559132,225.46913,45.2,98646.0,1.1720777
21580436,225.12827,45.2,98650.0,1.1721252
21591439,225.7228,45.2,98643.0,1.172042
21602637,225.38457,45.2,98647.0,1.1720896
21624448,225.7228,45.2,98643.0,1.172042
21635436,225.38457,45.2,98647.0,1.1720896
21647539,225.38457,45.2,98647.0,1.1720896
21669450,225.80998,45.19,98642.0,1.1720301
21680437,225.29738,45.19,98648.0,1.1721014
21692383,225.29738,45.19,98648.0,1.1721014
21716302,225.55368,45.19,98644.99,1.1720657
21726471,225.12827,45.19,98650.0,1.1721252
21737340,225.7228,45.19,98643.0,1.172042
21758471,225.29738,45.19,98648.0,1.1721014
21768629,225.46913,45.19,98646.0,1.1720777
21780309,225.46913,45.19,98646.0,1.1720777
21801439,224.53375,45.19,98657.0,1.1722083
21812305,225.9791,45.19,98640.0,1.1720064
21822532,225.55368,45.19,98644.99,1.1720657
21844349,225.46913,45.19,98646.0,1.1720777
21854534,225.04372,45.19,98650.99,1.172137
21864581,225.63823,45.19,98644.0,1.1720539
21886530,225.29738,45.2,98648.0,1.1721014
21897295,225.7228,45.2,98643.0,1.172042
21908262,225.55368,45.2,98644.99,1.1720657
21928466,225.7228,45.2,98643.0,1.172042
21940159,225.7228,45.2,98643.0,1.172042
21949446,225.38457,45.2,98647.0,1.1720896
21972226,225.12827,45.2,98650.0,1.1721252
21982583,225.38457,45.2,98647.0,1.1720896
21992694,224.95915,45.2,98651.99,1.1721488
22016454,225.29738,45.2,98648.0,1.1721014
22028255,225.04372,45.2,98650.99,1.172137
22038519,225.12827,45.2,98650.0,1.1721252
22060222,225.38457,45.2,98647.0,1.1720896
22070587,225.63823,45.2,98644.0,1.1720539
22081439,225.12827,45.2,98650.0,1.1721252
22103451,225.04372,45.2,98650.99,1.172137
22114202,225.04372,45.2,98650.99,1.172137
22125069,225.38457,45.2,98647.0,1.1720896
22146521,225.04372,45.19,98650.99,1.172137
22157793,225.63823,45.19,98644.0,1.1720539
22168492,225.38457,45.19,98647.0,1.1720896
22189837,225.89455,45.2,98641.0,1.1720183
22200436,225.12827,45.2,98650.0,1.1721252
22210738,225.38457,45.2,98647.0,1.1720896
22232449,225.55368,45.2,98644.99,1.1720657
22242696,225.21281,45.2,98649.0,1.1721133
22253873,225.21281,45.2,98649.0,1.1721133
22275454,225.46913,45.2,98646.0,1.1720777
22285808,225.21281,45.2,98649.0,1.1721133
22296436,225.21281,45.2,98649.0,1.1721133
22317844,225.29738,45.19,98648.0,1.1721014
22328448,225.55368,45.19,98644.99,1.1720657
22339438,225.55368,45.19,98644.99,1.1720657
22360447,225.46913,45.2,98646.0,1.1720777
22370824,225.29738,45.2,98648.0,1.1721014
22381830,225.63823,45.2,98644.0,1.1720539
22403442,225.21281,45.2,98649.0,1.1721133
22413880,225.38457,45.2,98647.0,1.1720896
22424437,225.29738,45.2,98648.0,1.1721014
22445896,225.29738,45.2,98648.0,1.1721014
22456436,225.46913,45.2,98646.0,1.1720777
22467725,225.21281,45.2,98649.0,1.1721133
22491761,225.29738,45.2,98648.0,1.1721014
22503420,225.46913,45.2,98646.0,1.1720777
22516491,224.87196,45.2,98653.0,1.1721609
22538522,225.89455,45.19,98641.0,1.1720183
22548713,225.29738,45.19,98648.0,1.1721014
22559436,225.55368,45.19,98644.99,1.1720657
22582019,225.21281,45.2,98649.0,1.1721133
22593004,225.29738,45.2,98648.0,1.1721014
22603436,225.12827,45.2,98650.0,1.1721252
22625041,225.29738,45.2,98648.0,1.1721014
22635455,225.04372,45.2,98650.99,1.172137
22645548,225.38457,45.2,98647.0,1.1720896
22667468,225.80998,45.2,98642.0,1.1720301
22678558,224.87196,45.2,98653.0,1.1721609
22689447,225.04372,45.2,98650.99,1.172137
22711493,225.7228,45.2,98643.0,1.172042
22722602,225.9791,45.2,98640.0,1.1720064
22733439,225.55368,45.2,98644.99,1.1720657
22755450,225.46913,45.2,98646.0,1.1720777
22766020,225.46913,45.2,98646.0,1.1720777
22776988,225.38457,45.2,98647.0,1.1720896
22798538,225.46913,45.2,98646.0,1.1720777
22808948,225.38457,45.2,98647.0,1.1720896
22819448,225.38457,45.2,98647.0,1.1720896
22841436,225.7228,45.2,98643.0,1.172042
22852436,225.46913,45.2,98646.0,1.1720777
22863441,225.63823,45.2,98644.0,1.1720539
22885448,224.87196,45.2,98653.0,1.1721609
22895647,225.29738,45.2,98648.0,1.1721014
22906704,225.55368,45.2,98644.99,1.1720657
22928439,225.12827,45.2,98650.0,1.1721252
22938748,225.46913,45.2,98646.0,1.1720777
22949443,225.55368,45.2,98644.99,1.1720657
22971590,225.55368,45.2,98644.99,1.1720657
22983730,225.38457,45.2,98647.0,1.1720896
22995524,225.80998,45.2,98642.0,1.1720301
23019523,225.29738,45.2,98648.0,1.1721014
23029436,225.38457,45.2,98647.0,1.1720896
23040773,225.29738,45.2,98648.0,1.1721014
23065059,225.29738,45.2,98648.0,1.1721014
23075420,225.46913,45.2,98646.0,1.1720777
23085483,225.21281,45.2,98649.0,1.1721133
23107537,224.95915,45.2,98651.99,1.1721488
23119649,225.29738,45.2,98648.0,1.1721014
23131535,225.89455,45.2,98641.0,1.1720183
