timestamp,time_utc_usec,lat,lon,alt,alt_ellipsoid,pos_itow,s_variance_m_s,c_variance_rad,fix_quality,sAcc,eph,epv,hdop,vdop,noise_per_ms,jamming_indicator,vel_m_s,vel_n_m_s,vel_e_m_s,vel_d_m_s,cog_rad,timestamp_time_relative,fix_type,vel_ned_valid,satellites_used
22930898,0,295701544,1064558139,237964,199711,116961800,0.0,0.0,0,0,0.79600006,0.952,0.79999995,2.06,0,0,0.099999994,0.089999996,0.0,-0.02,0.0,-22930898,5,1,15
23139949,0,295701543,1064558138,237956,199703,116962000,0.0,0.0,0,0,0.77300006,0.92300004,0.79999995,2.06,0,0,0.03,0.01,0.02,-0.02,0.0,-23139949,5,1,15
23329013,0,295701542,1064558138,237949,199695,116962200,0.0,0.0,0,0,0.75100005,0.897,0.79999995,2.06,0,0,0.07,0.0,0.0,-0.07,0.0,-23329013,5,1,15
23515847,0,295701540,1064558137,237903,199650,116962400,0.0,0.0,0,0,0.731,0.873,0.79999995,2.06,0,0,0.02,-0.01,0.02,0.0,0.0,-23515847,5,1,15
23723896,0,295701540,1064558136,237872,199618,116962600,0.0,0.0,0,0,0.71300006,0.85,0.79999995,2.06,0,0,0.04,-0.02,0.0,-0.04,0.0,-23723896,5,1,15
23934289,0,295701540,1064558136,237852,199598,116962800,0.0,0.0,0,0,0.69600004,0.82900006,0.79999995,2.06,0,0,0.08,0.049999997,0.01,-0.06,0.0,-23934289,5,1,15
24123856,0,295701539,1064558136,237814,199560,116963000,0.0,0.0,0,0,0.68,0.81000006,0.79999995,2.06,0,0,0.03,0.02,0.0,0.01,0.0,-24123856,5,1,15
24332190,0,295701539,1064558135,237799,199545,116963200,0.0,0.0,0,0,0.665,0.79200006,0.79999995,2.06,0,0,0.049999997,-0.01,-0.01,-0.04,0.0,-24332190,5,1,15
24521207,0,295701538,1064558136,237772,199519,116963400,0.0,0.0,0,0,0.651,0.77400005,0.79999995,2.06,0,0,0.04,0.03,0.02,0.01,0.0,-24521207,5,1,15
24729308,0,295701538,1064558135,237749,199495,116963600,0.0,0.0,0,0,0.638,0.758,0.79999995,2.06,0,0,0.03,0.0,-0.02,0.0,0.0,-24729308,5,1,15
24918877,0,295701537,1064558136,237700,199447,116963800,0.0,0.0,0,0,0.625,0.74300003,0.79999995,2.06,0,0,0.07,0.0,0.0,0.07,0.0,-24918877,5,1,15
25126037,0,295701538,1064558136,237682,199428,116964000,0.0,0.0,0,0,0.61300004,0.72800004,0.79999995,2.06,0,0,0.04,0.01,0.03,0.02,0.0,-25126037,5,1,15
25336253,0,295701542,1064558120,237072,198819,116964200,0.0,0.0,0,0,2.914,3.5340002,0.79999995,2.06,0,0,0.049999997,0.04,-0.01,-0.03,0.0,-25336253,5,1,15
25525468,0,295701547,1064558122,237048,198795,116964400,0.0,0.0,0,0,2.158,2.601,0.79999995,2.06,0,0,0.02,0.0,-0.02,0.0,0.0,-25525468,5,1,15
25733045,0,295701551,1064558118,237124,198870,116964600,0.0,0.0,0,0,1.7910001,2.154,0.79999995,2.06,0,0,0.099999994,0.04,-0.049999997,-0.07,0.0,-25733045,5,1,15
25932982,0,295701555,1064558116,237160,198906,116964800,0.0,0.0,0,0,1.565,1.8790001,0.79999995,2.06,0,0,0.06,-0.02,0.01,-0.049999997,0.0,-25932982,5,1,15
26131892,0,295701561,1064558112,237217,198964,116965000,0.0,0.0,0,0,1.4070001,1.6880001,0.79999995,2.06,0,0,0.099999994,-0.07,0.02,0.07,0.0,-26131892,5,1,15
26332957,0,295701566,1064558108,237263,199009,116965200,0.0,0.0,0,0,1.2880001,1.5450001,0.79999995,2.06,0,0,0.13,-0.06,0.0,0.12,0.0,-26332957,5,1,15
26533936,0,295701572,1064558104,237363,199110,116965400,0.0,0.0,0,0,1.1960001,1.4330001,0.79999995,2.06,0,0,0.08,0.0,-0.04,0.06,0.0,-26533936,5,1,15
26731908,0,295701576,1064558101,237446,199193,116965600,0.0,0.0,0,0,1.121,1.342,0.79999995,2.06,0,0,0.049999997,0.01,-0.01,-0.04,0.0,-26731908,5,1,15
26933037,0,295701580,1064558098,237498,199244,116965800,0.0,0.0,0,0,1.0580001,1.2670001,0.79999995,2.06,0,0,0.06,0.0,0.0,0.06,0.0,-26933037,5,1,15
27134055,0,295701584,1064558096,237537,199283,116966000,0.0,0.0,0,0,1.005,1.2030001,0.79999995,2.06,0,0,0.08,0.07,-0.01,0.03,0.0,-27134055,5,1,15
27334025,0,295701586,1064558094,237571,199318,116966200,0.0,0.0,0,0,0.95900005,1.1470001,0.79999995,2.06,0,0,0.089999996,0.049999997,0.0,-0.07,0.0,-27334025,5,1,15
27533108,0,295701589,1064558094,237597,199344,116966400,0.0,0.0,0,0,0.919,1.0990001,0.79999995,2.06,0,0,0.03,0.02,0.0,0.01,0.0,-27533108,5,1,15
27734947,0,295701590,1064558094,237611,199357,116966600,0.0,0.0,0,0,0.883,1.056,0.79999995,2.06,0,0,0.07,0.0,0.02,0.06,0.0,-27734947,5,1,15
27935829,0,295701591,1064558095,237622,199368,116966800,0.0,0.0,0,0,0.851,1.0170001,0.79999995,2.06,0,0,0.04,0.04,0.0,0.0,0.0,-27935829,5,1,15
28134043,0,295701591,1064558096,237619,199365,116967000,0.0,0.0,0,0,0.823,0.98300004,0.79999995,2.06,0,0,0.08,0.04,0.02,-0.06,0.0,-28134043,5,1,15
28334937,0,295701593,1064558096,237609,199355,116967200,0.0,0.0,0,0,0.79700005,0.95100003,0.79999995,2.06,0,0,0.06,-0.049999997,0.02,0.02,0.0,-28334937,5,1,15
28534929,0,295701595,1064558095,237623,199370,116967400,0.0,0.0,0,0,0.77300006,0.92300004,0.79999995,2.06,0,0,0.06,0.0,-0.01,0.049999997,0.0,-28534929,5,1,15
28735054,0,295701597,1064558094,237644,199390,116967600,0.0,0.0,0,0,0.75200003,0.897,0.79999995,2.06,0,0,0.07,-0.01,0.01,0.07,0.0,-28735054,5,1,15
28935117,0,295701599,1064558093,237647,199393,116967800,0.0,0.0,0,0,0.73200005,0.87200004,0.79999995,2.06,0,0,0.07,-0.06,0.01,0.04,0.0,-28935117,5,1,15
29138856,0,295701600,1064558093,237657,199404,116968000,0.0,0.0,0,0,0.71300006,0.85,0.79999995,2.06,0,0,0.04,0.0,0.01,-0.04,0.0,-29138856,5,1,15
29337314,0,295701603,1064558093,237690,199436,116968200,0.0,0.0,0,0,0.69600004,0.82900006,0.79999995,2.06,0,0,0.07,-0.04,0.04,0.03,0.0,-29337314,5,1,15
29538089,0,295701605,1064558092,237735,199481,116968400,0.0,0.0,0,0,0.68,0.81000006,0.79999995,2.06,0,0,0.02,-0.01,0.0,0.0,0.0,-29538089,5,1,15
29740448,0,295701608,1064558091,237760,199507,116968600,0.0,0.0,0,0,0.665,0.791,0.79999995,2.06,0,0,0.14999999,0.03,0.0,-0.14,0.0,-29740448,5,1,15
29940990,0,295701610,1064558092,237787,199534,116968800,0.0,0.0,0,0,0.651,0.77400005,0.79999995,2.06,0,0,0.049999997,0.0,0.0,-0.049999997,0.0,-29940990,5,1,15
30139825,0,295701611,1064558092,237804,199550,116969000,0.0,0.0,0,0,0.638,0.758,0.79999995,2.06,0,0,0.07,0.01,0.04,0.049999997,0.0,-30139825,5,1,15
30343102,0,295701612,1064558092,237833,199579,116969200,0.0,0.0,0,0,0.625,0.74300003,0.79999995,2.06,0,0,0.19,-0.07,0.03,0.17,0.0,-30343102,5,1,15
30541232,0,295701613,1064558093,237872,199619,116969400,0.0,0.0,0,0,0.614,0.72800004,0.79999995,2.06,0,0,0.07,0.0,-0.06,-0.04,0.0,-30541232,5,1,15
30741982,0,295701614,1064558093,237919,199665,116969600,0.0,0.0,0,0,0.60200006,0.71500003,0.79999995,2.06,0,0,0.049999997,-0.02,0.0,0.049999997,0.0,-30741982,5,1,15
30942018,0,295701615,1064558093,237986,199733,116969800,0.0,0.0,0,0,0.592,0.702,0.79999995,2.06,0,0,0.03,0.01,-0.02,0.0,0.0,-30942018,5,1,15
31143630,0,295701616,1064558094,238019,199765,116970000,0.0,0.0,0,0,0.582,0.689,0.79999995,2.06,0,0,0.08,0.02,0.0,0.07,0.0,-31143630,5,1,15
31342043,0,295701617,1064558093,238074,199820,116970200,0.0,0.0,0,0,0.572,0.67700005,0.79999995,2.06,0,0,0.07,0.03,-0.02,0.06,0.0,-31342043,5,1,15
31543854,0,295701618,1064558093,238110,199856,116970400,0.0,0.0,0,0,0.563,0.666,0.79999995,2.06,0,0,0.099999994,0.08,-0.049999997,0.01,0.0,-31543854,5,1,15
31741021,0,295701619,1064558093,238142,199888,116970600,0.0,0.0,0,0,0.554,0.65500003,0.79999995,2.06,0,0,0.049999997,0.01,0.02,0.04,0.0,-31741021,5,1,15
31940090,0,295701620,1064558093,238183,199930,116970800,0.0,0.0,0,0,0.546,0.64500004,0.79999995,2.06,0,0,0.089999996,0.03,-0.06,-0.06,0.0,-31940090,5,1,15
32138983,0,295701621,1064558094,238212,199958,116971000,0.0,0.0,0,0,0.53800005,0.63500005,0.79999995,2.06,0,0,0.08,0.07,0.0,-0.02,0.0,-32138983,5,1,15
32337375,0,295701623,1064558094,238242,199988,116971200,0.0,0.0,0,0,0.53000003,0.625,0.79999995,2.06,0,0,0.049999997,0.04,-0.02,0.01,0.0,-32337375,5,1,15
32537455,0,295701624,1064558094,238264,200010,116971400,0.0,0.0,0,0,0.523,0.61600006,0.79999995,2.06,0,0,0.04,0.0,0.01,-0.04,0.0,-32537455,5,1,15
32739069,0,295701626,1064558094,238287,200034,116971600,0.0,0.0,0,0,0.51600003,0.60700005,0.79999995,2.06,0,0,0.11,0.02,-0.03,-0.099999994,0.0,-32739069,5,1,15
32939003,0,295701627,1064558095,238289,200036,116971800,0.0,0.0,0,0,0.509,0.59900004,0.79999995,2.06,0,0,0.04,-0.02,-0.02,0.03,0.0,-32939003,5,1,15
33139074,0,295701628,1064558096,238301,200047,116972000,0.0,0.0,0,0,0.503,0.591,0.79999995,2.06,0,0,0.04,-0.02,-0.02,0.03,0.0,-33139074,5,1,15
33339487,0,295701629,1064558097,238321,200068,116972200,0.0,0.0,0,0,0.49600002,0.583,0.79999995,2.06,0,0,0.02,0.0,-0.02,0.0,0.0,-33339487,5,1,15
33552995,0,295701694,1064558100,239721,201468,116972400,0.0,0.0,0,0,0.010000001,0.010000001,0.79999995,1.68,0,0,0.06,0.03,-0.01,0.049999997,0.0,-33552995,6,1,15
33745212,0,295701694,1064558100,239726,201472,116972600,0.0,0.0,0,0,0.010000001,0.011000001,0.79999995,1.68,0,0,0.089999996,0.04,-0.02,0.07,0.0,-33745212,6,1,15
33958349,0,295701695,1064558100,239725,201472,116972800,0.0,0.0,0,0,0.010000001,0.011000001,0.79999995,1.68,0,0,0.089999996,0.03,0.0,0.08,0.0,-33958349,6,1,15
34152143,0,295701695,1064558100,239729,201475,116973000,0.0,0.0,0,0,0.010000001,0.010000001,0.79999995,1.68,0,0,0.06,0.0,-0.01,-0.06,0.0,-34152143,6,1,15
34345103,0,295701695,1064558100,239726,201472,116973200,0.0,0.0,0,0,0.010000001,0.010000001,0.79999995,1.68,0,0,0.06,-0.02,0.02,0.049999997,0.0,-34345103,6,1,15
34557953,0,295701695,1064558100,239723,201470,116973400,0.0,0.0,0,0,0.010000001,0.010000001,0.79999995,1.68,0,0,0.06,-0.02,0.01,0.049999997,0.0,-34557953,6,1,15
34753904,0,295701696,1064558099,239720,201467,116973600,0.0,0.0,0,0,0.010000001,0.011000001,0.79999995,1.68,0,0,0.07,0.03,-0.04,0.049999997,0.0,-34753904,6,1,15
34946174,0,295701696,1064558099,239727,201474,116973800,0.0,0.0,0,0,0.010000001,0.011000001,0.79999995,1.68,0,0,0.03,-0.01,-0.02,-0.01,0.0,-34946174,6,1,15
35158942,0,295701695,1064558099,239721,201468,116974000,0.0,0.0,0,0,0.010000001,0.011000001,0.79999995,1.7099999,0,0,0.08,-0.049999997,0.04,0.03,0.0,-35158942,6,1,15
35351845,0,295701695,1064558099,239725,201472,116974200,0.0,0.0,0,0,0.011000001,0.011000001,0.79999995,1.7099999,0,0,0.06,0.02,-0.01,0.049999997,0.0,-35351845,6,1,15
35545763,0,295701695,1064558098,239722,201469,116974400,0.0,0.0,0,0,0.011000001,0.011000001,0.79999995,1.7099999,0,0,0.02,0.0,-0.02,0.0,0.0,-35545763,6,1,15
35758928,0,295701694,1064558098,239716,201463,116974600,0.0,0.0,0,0,0.010000001,0.011000001,0.79999995,1.7099999,0,0,0.16,-0.03,0.0,0.14999999,0.0,-35758928,6,1,15
35953162,0,295701694,1064558098,239720,201467,116974800,0.0,0.0,0,0,0.010000001,0.010000001,0.79999995,1.7099999,0,0,0.049999997,0.0,0.01,0.049999997,0.0,-35953162,6,1,15
36145045,0,295701694,1064558098,239724,201470,116975000,0.0,0.0,0,0,0.009000001,0.010000001,0.79999995,1.68,0,0,0.049999997,0.04,0.0,0.01,0.0,-36145045,6,1,15
36356993,0,295701694,1064558098,239725,201472,116975200,0.0,0.0,0,0,0.010000001,0.010000001,0.79999995,1.68,0,0,0.06,0.04,-0.049999997,0.01,0.0,-36356993,6,1,15
36550080,0,295701694,1064558098,239723,201469,116975400,0.0,0.0,0,0,0.010000001,0.011000001,0.79999995,1.68,0,0,0.06,-0.03,0.04,0.01,0.0,-36550080,6,1,15
36743880,0,295701693,1064558099,239727,201473,116975600,0.0,0.0,0,0,0.010000001,0.011000001,0.79999995,1.68,0,0,0.049999997,-0.04,0.02,-0.02,0.0,-36743880,6,1,15
36958585,0,295701692,1064558100,239725,201472,116975800,0.0,0.0,0,0,0.010000001,0.010000001,0.79999995,1.68,0,0,0.08,-0.01,0.049999997,0.06,0.0,-36958585,6,1,15
37155400,0,295701693,1064558101,239727,201474,116976000,0.0,0.0,0,0,0.010000001,0.010000001,0.79999995,1.68,0,0,0.08,0.07,0.0,0.03,0.0,-37155400,6,1,15
37345261,0,295701692,1064558102,239727,201474,116976200,0.0,0.0,0,0,0.010000001,0.010000001,0.79999995,1.68,0,0,0.13,-0.089999996,0.089999996,0.0,0.0,-37345261,6,1,15
37559002,0,295701692,1064558103,239729,201475,116976400,0.0,0.0,0,0,0.010000001,0.011000001,0.79999995,1.68,0,0,0.02,-0.01,0.01,0.01,0.0,-37559002,6,1,15
37752967,0,295701691,1064558103,239720,201466,116976600,0.0,0.0,0,0,0.010000001,0.011000001,0.79999995,1.68,0,0,0.089999996,0.0,-0.01,0.089999996,0.0,-37752967,6,1,15
37945228,0,295701691,1064558102,239725,201472,116976800,0.0,0.0,0,0,0.010000001,0.011000001,0.79999995,1.68,0,0,0.049999997,-0.04,-0.01,-0.01,0.0,-37945228,6,1,15
38158969,0,295701691,1064558100,239724,201470,116977000,0.0,0.0,0,0,0.010000001,0.011000001,0.79999995,1.68,0,0,0.29999998,0.14,-0.26,-0.01,0.0,-38158969,6,1,15
38353298,0,295701693,1064558096,239721,201467,116977200,0.0,0.0,0,0,0.010000001,0.010000001,0.79999995,1.68,0,0,0.099999994,0.0,-0.049999997,0.08,0.0,-38353298,6,1,15
38546069,0,295701699,1064558091,239727,201473,116977400,0.0,0.0,0,0,0.010000001,0.010000001,0.79999995,1.68,0,0,0.48,0.42999998,-0.19999999,0.03,0.0,-38546069,6,1,15
38758014,0,295701703,1064558090,239737,201483,116977600,0.0,0.0,0,0,0.010000001,0.011000001,0.79999995,1.68,0,0,0.29999998,0.25,-0.14,-0.07,0.0,-38758014,6,1,15
38951001,0,295701706,1064558091,239813,201560,116977800,0.0,0.0,0,0,0.010000001,0.011000001,0.79999995,1.68,0,0,0.48999998,-0.04,0.19999999,-0.44,0.0,-38951001,6,1,15
39144247,0,295701707,1064558096,239944,201691,116978000,0.0,0.0,0,0,0.010000001,0.011000001,0.79999995,1.68,0,0,1.29,0.12,0.39999998,-1.22,1.2760388,-39144247,6,1,15
39359372,0,295701706,1064558102,240072,201819,116978200,0.0,0.0,0,0,0.010000001,0.010000001,0.79999995,1.68,0,0,0.78999996,0.11,0.26999998,-0.72999996,1.2760388,-39359372,6,1,15
39551657,0,295701707,1064558106,240168,201914,116978400,0.0,0.0,0,0,0.010000001,0.011000001,0.79999995,1.68,0,0,0.42999998,-0.08,0.11,-0.41,1.2760388,-39551657,6,1,15
39742937,0,295701707,1064558109,240237,201984,116978600,0.0,0.0,0,0,0.010000001,0.010000001,0.79999995,1.68,0,0,0.19999999,0.07,0.13,-0.13,1.2760388,-39742937,6,1,15
39956435,0,295701707,1064558111,240253,202000,116978800,0.0,0.0,0,0,0.010000001,0.010000001,0.79999995,1.68,0,0,0.089999996,0.01,0.08,-0.03,1.2760388,-39956435,6,1,15
40149975,0,295701708,1064558109,240250,201996,116979000,0.0,0.0,0,0,0.010000001,0.010000001,0.79999995,1.68,0,0,0.31,0.0,-0.29999998,0.06,1.2760388,-40149975,6,1,15
40342010,0,295701708,1064558102,240232,201978,116979200,0.0,0.0,0,0,0.010000001,0.010000001,0.79999995,1.68,0,0,0.35999998,-0.13,-0.32,0.11,1.2760388,-40342010,6,1,15
40555096,0,295701703,1064558095,240216,201962,116979400,0.0,0.0,0,0,0.010000001,0.011000001,0.79999995,1.68,0,0,0.42999998,-0.19999999,-0.35,0.14,1.2760388,-40555096,6,1,15
40747887,0,295701700,1064558087,240192,201938,116979600,0.0,0.0,0,0,0.010000001,0.011000001,0.79999995,1.68,0,0,0.5,-0.22,-0.44,0.099999994,1.2760388,-40747887,6,1,15
40943393,0,295701694,1064558077,240183,201930,116979800,0.0,0.0,0,0,0.010000001,0.011000001,0.79999995,1.68,0,0,0.64,-0.32999998,-0.55,0.0,1.2760388,-40943393,6,1,15
41157022,0,295701691,1064558066,240173,201919,116980000,0.0,0.0,0,0,0.010000001,0.010000001,0.79999995,1.68,0,0,0.65999997,-0.14999999,-0.64,0.0,1.2760388,-41157022,6,1,15
41349196,0,295701687,1064558052,240146,201893,116980200,0.0,0.0,0,0,0.010000001,0.010000001,0.79999995,1.68,0,0,0.78,-0.25,-0.66999996,0.29999998,1.2760388,-41349196,6,1,15
41542103,0,295701680,1064558039,240155,201901,116980400,0.0,0.0,0,0,0.010000001,0.010000001,0.79999995,1.68,0,0,0.78999996,-0.37,-0.69,0.01,1.2760388,-41542103,6,1,15
41755381,0,295701676,1064558023,240156,201902,116980600,0.0,0.0,0,0,0.013,0.013,0.79999995,2.6,0,0,0.77,-0.17999999,-0.71999997,-0.19,1.2760388,-41755381,6,1,15
41951330,0,295701668,1064558011,240165,201912,116980800,0.0,0.0,0,0,0.013,0.013,0.79999995,2.6,0,0,0.88,-0.48999998,-0.61,-0.41,1.2760388,-41951330,6,1,15
42142921,0,295701664,1064557998,240159,201905,116981000,0.0,0.0,0,0,0.010000001,0.010000001,0.79999995,1.68,0,0,0.75,-0.089999996,-0.69,0.26999998,1.2760388,-42142921,6,1,15
42355828,0,295701662,1064557983,240159,201906,116981200,0.0,0.0,0,0,0.010000001,0.010000001,0.79999995,1.68,0,0,0.74,-0.13,-0.71,-0.13,1.2760388,-42355828,6,1,15
42550645,0,295701658,1064557968,240191,201938,116981400,0.0,0.0,0,0,0.010000001,0.010000001,0.79999995,1.68,0,0,0.81,-0.34,-0.69,-0.26999998,1.2760388,-42550645,6,1,15
42742170,0,295701653,1064557951,240161,201907,116981600,0.0,0.0,0,0,0.010000001,0.011000001,0.79999995,1.68,0,0,0.96,-0.34,-0.88,0.17,1.2760388,-42742170,6,1,15
42956942,0,295701643,1064557934,240116,201862,116981800,0.0,0.0,0,0,0.010000001,0.010000001,0.79999995,1.68,0,0,1.13,-0.57,-0.89,0.38,4.143193,-42956942,6,1,15
43149928,0,295701634,1064557914,240108,201855,116982000,0.0,0.0,0,0,0.012,0.012,0.79999995,2.6,0,0,0.98999995,-0.45,-0.85999995,0.19999999,4.143193,-43149928,6,1,15
43345004,0,295701627,1064557897,240115,201861,116982200,0.0,0.0,0,0,0.012,0.012,0.79999995,2.6,0,0,0.89,-0.32,-0.83,0.0,4.143193,-43345004,6,1,15
43557021,0,295701624,1064557878,240109,201855,116982400,0.0,0.0,0,0,0.012,0.013,0.79999995,2.6,0,0,0.81,-0.17,-0.76,0.21,4.143193,-43557021,6,1,15
43749032,0,295701618,1064557863,240096,201843,116982600,0.0,0.0,0,0,0.012,0.012,0.79999995,2.6,0,0,0.83,-0.34,-0.75,-0.099999994,4.143193,-43749032,6,1,15
43962972,0,295701611,1064557849,240122,201868,116982800,0.0,0.0,0,0,0.012,0.012,0.79999995,2.6,0,0,0.78999996,-0.29,-0.71999997,0.14999999,4.143193,-43962972,6,1,15
44154892,0,295701605,1064557831,240143,201890,116983000,0.0,0.0,0,0,0.012,0.012,0.79999995,2.6,0,0,0.87,-0.5,-0.7,0.0,4.143193,-44154892,6,1,15
44350093,0,295701599,1064557812,240126,201873,116983200,0.0,0.0,0,0,0.010000001,0.010000001,0.79999995,1.68,0,0,0.96,-0.19999999,-0.93,-0.02,4.143193,-44350093,6,1,15
44543004,0,295701591,1064557794,240148,201894,116983400,0.0,0.0,0,0,0.010000001,0.011000001,0.79999995,1.68,0,0,0.95,-0.34,-0.87,-0.16,4.143193,-44543004,6,1,15
44757022,0,295701587,1064557776,240118,201864,116983600,0.0,0.0,0,0,0.013,0.013,0.79999995,2.6,0,0,0.88,-0.08,-0.84999996,0.17999999,4.143193,-44757022,6,1,15
44950044,0,295701583,1064557759,240108,201854,116983800,0.0,0.0,0,0,0.013,0.013,0.79999995,2.59,0,0,0.72999996,-0.26,-0.66999996,0.12,4.143193,-44950044,6,1,15
45144983,0,295701576,1064557745,240123,201870,116984000,0.0,0.0,0,0,0.013,0.013,0.79999995,2.59,0,0,0.82,-0.25,-0.68,-0.38,4.143193,-45144983,6,1,15
45357990,0,295701573,1064557731,240106,201852,116984200,0.0,0.0,0,0,0.013,0.013,0.79999995,2.59,0,0,0.75,-0.35,-0.61,0.22999999,4.143193,-45357990,6,1,15
45552215,0,295701568,1064557716,240090,201836,116984400,0.0,0.0,0,0,0.013,0.014,0.79999995,2.59,0,0,0.78,-0.22,-0.74,0.07,4.143193,-45552215,6,1,15
45747841,0,295701561,1064557699,240130,201876,116984600,0.0,0.0,0,0,0.014,0.014,0.79999995,2.59,0,0,0.90999997,-0.44,-0.75,-0.24,4.143193,-45747841,6,1,15
45959799,0,295701554,1064557684,240099,201846,116984800,0.0,0.0,0,0,0.012,0.012,0.79999995,2.59,0,0,0.91999996,-0.48999998,-0.65999997,0.42,4.143193,-45959799,6,1,15
46152971,0,295701547,1064557669,240105,201851,116985000,0.0,0.0,0,0,0.010000001,0.010000001,0.79999995,1.68,0,0,0.84,-0.38,-0.65,0.37,4.143193,-46152971,6,1,15
46347151,0,295701544,1064557652,240088,201835,116985200,0.0,0.0,0,0,0.012,0.012,0.79999995,2.59,0,0,0.82,-0.19,-0.78999996,-0.11,4.143193,-46347151,6,1,15
46561922,0,295701540,1064557635,240096,201843,116985400,0.0,0.0,0,0,0.013,0.013,0.79999995,2.59,0,0,0.85999995,-0.25,-0.78999996,-0.19999999,4.143193,-46561922,6,1,15
46754920,0,295701534,1064557620,240115,201861,116985600,0.0,0.0,0,0,0.013,0.013,0.79999995,2.59,0,0,0.78999996,-0.24,-0.75,-0.02,4.143193,-46754920,6,1,15
46949200,0,295701530,1064557604,240103,201849,116985800,0.0,0.0,0,0,0.012,0.012,0.79999995,2.59,0,0,0.90999997,-0.12,-0.84999996,-0.31,4.143193,-46949200,6,1,15
47159151,0,295701524,1064557591,240121,201867,116986000,0.0,0.0,0,0,0.013,0.012,0.79999995,2.6299999,0,0,0.71,-0.25,-0.64,0.16,4.143193,-47159151,6,1,15
47353806,0,295701522,1064557577,240098,201844,116986200,0.0,0.0,0,0,0.012,0.012,0.79999995,2.59,0,0,0.71,-0.26,-0.65999997,-0.06,4.143193,-47353806,6,1,15
47546062,0,295701518,1064557564,240098,201845,116986400,0.0,0.0,0,0,0.012,0.013,0.79999995,2.59,0,0,0.65,-0.06,-0.65,-0.04,4.143193,-47546062,6,1,15
47762041,0,295701516,1064557550,240142,201888,116986600,0.0,0.0,0,0,0.013,0.013,0.79999995,2.59,0,0,0.69,-0.24,-0.59999996,-0.22,4.143193,-47762041,6,1,15
47956248,0,295701511,1064557539,240120,201866,116986800,0.0,0.0,0,0,0.012,0.012,0.79999995,2.59,0,0,0.61,-0.28,-0.48999998,0.21,4.143193,-47956248,6,1,15
48147950,0,295701507,1064557527,240087,201833,116987000,0.0,0.0,0,0,0.012,0.012,0.79999995,2.59,0,0,0.58,-0.099999994,-0.55,0.14999999,4.143193,-48147950,6,1,15
48359936,0,295701502,1064557516,240105,201852,116987200,0.0,0.0,0,0,0.012,0.012,0.79999995,2.59,0,0,0.45,-0.089999996,-0.44,-0.02,4.143193,-48359936,6,1,15
48553157,0,295701499,1064557505,240127,201874,116987400,0.0,0.0,0,0,0.012,0.013,0.79999995,2.59,0,0,0.52,-0.26999998,-0.39,-0.22,4.143193,-48553157,6,1,15
48745224,0,295701497,1064557496,240125,201871,116987600,0.0,0.0,0,0,0.013,0.013,0.79999995,2.59,0,0,0.53,-0.19,-0.48999998,0.08,4.143193,-48745224,6,1,15
48957227,0,295701493,1064557489,240108,201854,116987800,0.0,0.0,0,0,0.013,0.013,0.79999995,2.59,0,0,0.45999998,-0.16,-0.39,-0.16,4.143193,-48957227,6,1,15
49151020,0,295701491,1064557482,240104,201850,116988000,0.0,0.0,0,0,0.013,0.013,0.79999995,2.59,0,0,0.29,-0.089999996,-0.24,0.13,4.143193,-49151020,6,1,15
49364257,0,295701490,1064557478,240095,201841,116988200,0.0,0.0,0,0,0.012,0.012,0.79999995,2.59,0,0,0.19,-0.049999997,-0.17,-0.03,4.143193,-49364257,6,1,15
49559535,0,295701489,1064557476,240085,201832,116988400,0.0,0.0,0,0,0.012,0.013,0.79999995,2.59,0,0,0.08,-0.049999997,-0.02,-0.049999997,4.143193,-49559535,6,1,15
49751779,0,295701489,1064557476,240093,201839,116988600,0.0,0.0,0,0,0.013,0.013,0.79999995,2.75,0,0,0.049999997,0.03,0.02,0.04,4.143193,-49751779,6,1,15
49939874,0,295701489,1064557478,240058,201805,116988800,0.0,0.0,0,0,0.013,0.014,0.79999995,2.76,0,0,0.31,-0.03,0.06,0.29999998,4.143193,-49939874,6,1,15
50152245,0,295701488,1064557478,240055,201801,116989000,0.0,0.0,0,0,0.010000001,0.012,0.79999995,1.76,0,0,0.06,-0.02,0.01,0.049999997,4.143193,-50152245,6,1,15
50366034,0,295701488,1064557479,240049,201796,116989200,0.0,0.0,0,0,0.010000001,0.012,0.79999995,1.7099999,0,0,0.06,0.0,0.06,0.0,4.143193,-50366034,6,1,15
50557932,0,295701487,1064557481,240038,201784,116989400,0.0,0.0,0,0,0.013,0.015000001,0.79999995,2.61,0,0,0.08,-0.04,0.02,-0.06,4.143193,-50557932,6,1,15
50750895,0,295701488,1064557481,240033,201779,116989600,0.0,0.0,0,0,0.013,0.015000001,0.79999995,2.61,0,0,0.07,0.06,-0.02,-0.02,4.143193,-50750895,6,1,15
50942967,0,295701487,1064557481,240043,201789,116989800,0.0,0.0,0,0,0.010000001,0.012,0.79999995,1.7099999,0,0,0.19,-0.12,0.0,0.14,4.143193,-50942967,6,1,15
51159051,0,295701487,1064557480,240046,201792,116990000,0.0,0.0,0,0,0.010000001,0.012,0.79999995,1.7099999,0,0,0.03,0.0,0.0,-0.03,4.143193,-51159051,6,1,15
51349984,0,295701488,1064557480,240012,201758,116990200,0.0,0.0,0,0,0.013,0.014,0.79999995,2.61,0,0,0.12,0.06,-0.07,-0.07,4.143193,-51349984,6,1,15
51542953,0,295701487,1064557480,240002,201748,116990400,0.0,0.0,0,0,0.013,0.015000001,0.79999995,2.61,0,0,0.01,0.0,0.0,-0.01,4.143193,-51542953,6,1,15
51755847,0,295701488,1064557479,240032,201778,116990600,0.0,0.0,0,0,0.010000001,0.011000001,0.79999995,1.68,0,0,0.089999996,-0.04,-0.01,0.07,4.143193,-51755847,6,1,15
51948980,0,295701487,1064557479,240012,201759,116990800,0.0,0.0,0,0,0.010000001,0.011000001,0.79999995,1.68,0,0,0.13,-0.01,-0.049999997,0.12,4.143193,-51948980,6,1,15
52142002,0,295701486,1064557478,239975,201721,116991000,0.0,0.0,0,0,0.010000001,0.010000001,0.79999995,1.68,0,0,0.24,-0.06,0.04,0.22999999,4.143193,-52142002,6,1,15
52354076,0,295701485,1064557478,239932,201678,116991200,0.0,0.0,0,0,0.010000001,0.012,0.79999995,1.73,0,0,0.32999998,-0.11,-0.14999999,0.26999998,4.143193,-52354076,6,1,15
52546001,0,295701482,1064557476,239874,201620,116991400,0.0,0.0,0,0,0.010000001,0.012,0.79999995,1.76,0,0,0.17999999,-0.08,-0.08,0.13,4.143193,-52546001,6,1,15
52760255,0,295701486,1064557472,239859,201605,116991600,0.0,0.0,0,0,0.010000001,0.012,0.79999995,1.7099999,0,0,0.35,0.16,-0.26,-0.16,4.143193,-52760255,6,1,15
52951894,0,295701488,1064557469,239865,201611,116991800,0.0,0.0,0,0,0.010000001,0.012,0.79999995,1.68,0,0,0.16,0.08,-0.13,-0.049999997,4.143193,-52951894,6,1,15
53146908,0,295701489,1064557467,239841,201587,116992000,0.0,0.0,0,0,0.010000001,0.011000001,0.79999995,1.68,0,0,0.16,0.07,-0.04,0.14,4.143193,-53146908,6,1,15
53370946,0,295701484,1064557478,238982,200728,116992200,0.0,0.0,0,0,0.246,0.23500001,0.79999995,2.6299999,0,0,0.41,0.11,0.0,0.39,4.143193,-53370946,5,1,15
53539067,0,295701483,1064557478,239022,200768,116992400,0.0,0.0,0,0,0.245,0.23400001,0.79999995,2.6299999,0,0,0.25,-0.24,0.03,0.02,4.143193,-53539067,5,1,15
53751828,0,295701488,1064557468,239761,201508,116992600,0.0,0.0,0,0,0.013,0.013,0.79999995,2.59,0,0,0.14,-0.04,0.049999997,-0.12,4.143193,-53751828,6,1,15
53957790,0,295701483,1064557479,239053,200799,116992800,0.0,0.0,0,0,0.24300002,0.23200001,0.79999995,2.75,0,0,0.099999994,-0.04,-0.049999997,-0.07,4.143193,-53957790,5,1,15
54147068,0,295701483,1064557478,239067,200814,116993000,0.0,0.0,0,0,0.24200001,0.23,0.79999995,2.75,0,0,0.08,-0.049999997,-0.06,-0.01,4.143193,-54147068,5,1,15
54361093,0,295701487,1064557467,239758,201505,116993200,0.0,0.0,0,0,0.010000001,0.011000001,0.79999995,1.7099999,0,0,0.14999999,0.12,-0.08,0.02,4.143193,-54361093,6,1,15
54549949,0,295701488,1064557467,239743,201489,116993400,0.0,0.0,0,0,0.010000001,0.011000001,0.79999995,1.7099999,0,0,0.089999996,0.01,0.049999997,0.07,4.143193,-54549949,6,1,15
54744992,0,295701489,1064557468,239761,201507,116993600,0.0,0.0,0,0,0.010000001,0.011000001,0.79999995,1.68,0,0,0.12,-0.01,0.12,0.0,4.143193,-54744992,6,1,15
54957212,0,295701489,1064557471,239750,201496,116993800,0.0,0.0,0,0,0.010000001,0.010000001,0.79999995,1.7099999,0,0,0.089999996,0.04,0.08,0.0,4.143193,-54957212,6,1,15
55150001,0,295701489,1064557472,239740,201487,116994000,0.0,0.0,0,0,0.010000001,0.010000001,0.79999995,1.7099999,0,0,0.07,-0.049999997,0.03,-0.04,4.143193,-55150001,6,1,15
55342904,0,295701488,1064557471,239746,201493,116994200,0.0,0.0,0,0,0.010000001,0.011000001,0.79999995,1.7099999,0,0,0.14999999,-0.089999996,-0.089999996,-0.07,4.143193,-55342904,6,1,15
55554675,0,295701488,1064557470,239749,201495,116994400,0.0,0.0,0,0,0.010000001,0.011000001,0.79999995,1.7099999,0,0,0.049999997,-0.03,0.03,0.0,4.143193,-55554675,6,1,15
55749260,0,295701487,1064557471,239748,201494,116994600,0.0,0.0,0,0,0.010000001,0.011000001,0.79999995,1.7099999,0,0,0.11,-0.02,0.0,-0.099999994,4.143193,-55749260,6,1,15
55962206,0,295701487,1064557470,239737,201483,116994800,0.0,0.0,0,0,0.010000001,0.010000001,0.79999995,1.7099999,0,0,0.14,0.01,-0.089999996,0.099999994,4.143193,-55962206,6,1,15
56154303,0,295701487,1064557470,239754,201501,116995000,0.0,0.0,0,0,0.010000001,0.010000001,0.79999995,1.7099999,0,0,0.13,0.0,0.07,-0.099999994,4.143193,-56154303,6,1,15
56345045,0,295701488,1064557470,239744,201490,116995200,0.0,0.0,0,0,0.010000001,0.010000001,0.79999995,1.68,0,0,0.08,0.049999997,-0.04,0.049999997,4.143193,-56345045,6,1,15
56557998,0,295701489,1064557468,239748,201494,116995400,0.0,0.0,0,0,0.010000001,0.011000001,0.79999995,1.68,0,0,0.14,0.07,-0.06,0.099999994,4.143193,-56557998,6,1,15
56751031,0,295701489,1064557467,239743,201490,116995600,0.0,0.0,0,0,0.010000001,0.011000001,0.79999995,1.68,0,0,0.07,0.04,-0.03,-0.04,4.143193,-56751031,6,1,15
56943889,0,295701489,1064557467,239743,201489,116995800,0.0,0.0,0,0,0.010000001,0.011000001,0.79999995,1.68,0,0,0.089999996,-0.04,0.0,0.08,4.143193,-56943889,6,1,15
57157055,0,295701489,1064557467,239745,201491,116996000,0.0,0.0,0,0,0.010000001,0.011000001,0.79999995,1.68,0,0,0.07,0.0,0.04,0.049999997,4.143193,-57157055,6,1,15
57347904,0,295701490,1064557467,239736,201483,116996200,0.0,0.0,0,0,0.010000001,0.010000001,0.79999995,1.68,0,0,0.07,0.049999997,-0.03,0.03,4.143193,-57347904,6,1,15
57542701,0,295701490,1064557467,239744,201490,116996400,0.0,0.0,0,0,0.010000001,0.011000001,0.79999995,1.68,0,0,0.04,0.0,0.01,-0.04,4.143193,-57542701,6,1,15
57754936,0,295701490,1064557467,239740,201487,116996600,0.0,0.0,0,0,0.010000001,0.011000001,0.79999995,1.68,0,0,0.07,0.01,0.0,0.07,4.143193,-57754936,6,1,15
57949923,0,295701491,1064557466,239742,201488,116996800,0.0,0.0,0,0,0.010000001,0.011000001,0.79999995,1.68,0,0,0.08,0.03,-0.07,0.0,4.143193,-57949923,6,1,15
58139799,0,295701491,1064557466,239745,201492,116997000,0.0,0.0,0,0,0.010000001,0.010000001,0.79999995,1.68,0,0,0.089999996,-0.04,0.06,-0.049999997,4.143193,-58139799,6,1,15
58354057,0,295701491,1064557467,239741,201487,116997200,0.0,0.0,0,0,0.010000001,0.010000001,0.79999995,1.68,0,0,0.049999997,-0.01,-0.01,0.04,4.143193,-58354057,6,1,15
58546968,0,295701491,1064557465,239739,201485,116997400,0.0,0.0,0,0,0.010000001,0.011000001,0.79999995,1.68,0,0,0.11,0.02,-0.06,0.089999996,4.143193,-58546968,6,1,15
58761783,0,295701491,1064557465,239739,201485,116997600,0.0,0.0,0,0,0.010000001,0.011000001,0.79999995,1.68,0,0,0.11,0.02,-0.06,0.089999996,4.143193,-58761783,6,1,15
58954248,0,295701489,1064557467,239738,201484,116997800,0.0,0.0,0,0,0.010000001,0.010000001,0.79999995,1.68,0,0,0.04,-0.02,0.02,-0.01,4.143193,-58954248,6,1,15
59147885,0,295701489,1064557466,239741,201488,116998000,0.0,0.0,0,0,0.010000001,0.010000001,0.79999995,1.68,0,0,0.14999999,-0.06,0.03,0.13,4.143193,-59147885,6,1,15
59343848,0,295701486,1064557467,239724,201470,116998200,0.0,0.0,0,0,0.010000001,0.010000001,0.79999995,1.68,0,0,0.14999999,-0.12,0.0,0.08,4.143193,-59343848,6,1,15
59559887,0,295701484,1064557469,239725,201471,116998400,0.0,0.0,0,0,0.010000001,0.011000001,0.79999995,1.7099999,0,0,0.099999994,-0.03,0.07,0.06,4.143193,-59559887,6,1,15
59754718,0,295701484,1064557468,239723,201469,116998600,0.0,0.0,0,0,0.010000001,0.011000001,0.79999995,1.7099999,0,0,0.08,-0.04,-0.02,0.07,4.143193,-59754718,6,1,15
59950056,0,295701484,1064557467,239733,201480,116998800,0.0,0.0,0,0,0.010000001,0.010000001,0.79999995,1.7099999,0,0,0.11,0.06,-0.03,-0.08,4.143193,-59950056,6,1,15
60145021,0,295701485,1064557467,239733,201480,116999000,0.0,0.0,0,0,0.010000001,0.010000001,0.79999995,1.7099999,0,0,0.07,0.06,0.0,0.03,4.143193,-60145021,6,1,15
60360478,0,295701484,1064557466,239732,201478,116999200,0.0,0.0,0,0,0.010000001,0.011000001,0.79999995,1.7099999,0,0,0.17999999,-0.14,-0.03,0.099999994,4.143193,-60360478,6,1,15
60554155,0,295701484,1064557466,239739,201486,116999400,0.0,0.0,0,0,0.010000001,0.011000001,0.79999995,1.7099999,0,0,0.11,0.07,-0.02,-0.08,4.143193,-60554155,6,1,15
60750008,0,295701484,1064557467,239731,201478,116999600,0.0,0.0,0,0,0.010000001,0.011000001,0.79999995,1.7099999,0,0,0.12,-0.089999996,0.06,0.06,4.143193,-60750008,6,1,15
60946025,0,295701483,1064557467,239732,201479,116999800,0.0,0.0,0,0,0.010000001,0.010000001,0.79999995,1.7099999,0,0,0.03,0.0,0.01,0.03,4.143193,-60946025,6,1,15
61163078,0,295701483,1064557468,239736,201482,117000000,0.0,0.0,0,0,0.010000001,0.010000001,0.79999995,1.7099999,0,0,0.07,0.049999997,0.03,-0.04,4.143193,-61163078,6,1,15
61355808,0,295701483,1064557469,239730,201477,117000200,0.0,0.0,0,0,0.010000001,0.011000001,0.79999995,1.7099999,0,0,0.07,-0.03,0.03,0.049999997,4.143193,-61355808,6,1,15
61552265,0,295701482,1064557469,239734,201480,117000400,0.0,0.0,0,0,0.010000001,0.011000001,0.79999995,1.7099999,0,0,0.08,0.04,-0.06,0.02,4.143193,-61552265,6,1,15
61746109,0,295701483,1064557468,239734,201480,117000600,0.0,0.0,0,0,0.010000001,0.011000001,0.79999995,1.7099999,0,0,0.07,0.03,0.049999997,-0.049999997,4.143193,-61746109,6,1,15
61959856,0,295701485,1064557468,239739,201485,117000800,0.0,0.0,0,0,0.010000001,0.011000001,0.79999995,1.7099999,0,0,0.14,0.099999994,-0.089999996,0.0,4.143193,-61959856,6,1,15
62154914,0,295701486,1064557467,239745,201491,117001000,0.0,0.0,0,0,0.010000001,0.010000001,0.79999995,1.7099999,0,0,0.049999997,0.02,0.04,-0.01,4.143193,-62154914,6,1,15
62349788,0,295701487,1064557468,239748,201494,117001200,0.0,0.0,0,0,0.010000001,0.011000001,0.79999995,1.7099999,0,0,0.16,0.16,0.01,-0.01,4.143193,-62349788,6,1,15
62542151,0,295701488,1064557467,239752,201498,117001400,0.0,0.0,0,0,0.010000001,0.011000001,0.79999995,1.7099999,0,0,0.13,-0.07,-0.07,0.08,4.143193,-62542151,6,1,15
62755101,0,295701486,1064557468,239757,201503,117001600,0.0,0.0,0,0,0.010000001,0.011000001,0.79999995,1.7099999,0,0,0.08,-0.08,0.01,0.0,4.143193,-62755101,6,1,15
62949984,0,295701486,1064557467,239750,201496,117001800,0.0,0.0,0,0,0.010000001,0.011000001,0.79999995,1.7099999,0,0,0.04,0.01,0.04,0.0,4.143193,-62949984,6,1,15
63144361,0,295701485,1064557467,239741,201488,117002000,0.0,0.0,0,0,0.010000001,0.011000001,0.79999995,1.68,0,0,0.13,-0.049999997,-0.049999997,0.099999994,4.143193,-63144361,6,1,15
63357136,0,295701485,1064557467,239751,201497,117002200,0.0,0.0,0,0,0.011000001,0.011000001,0.79999995,1.7099999,0,0,0.07,-0.02,-0.049999997,-0.049999997,4.143193,-63357136,6,1,15
63568139,0,295701484,1064557467,239746,201493,117002400,0.0,0.0,0,0,0.011000001,0.013,0.79999995,1.7099999,0,0,0.12,0.049999997,-0.07,-0.08,4.143193,-63568139,6,1,15
63742159,0,295701486,1064557465,239738,201484,117002600,0.0,0.0,0,0,0.010000001,0.012,0.79999995,1.68,0,0,0.12,0.099999994,-0.04,-0.049999997,4.143193,-63742159,6,1,15
63959062,0,295701487,1064557465,239746,201492,117002800,0.0,0.0,0,0,0.010000001,0.011000001,0.79999995,1.68,0,0,0.11,0.089999996,-0.04,-0.049999997,4.143193,-63959062,6,1,15
64154235,0,295701487,1064557465,239751,201497,117003000,0.0,0.0,0,0,0.010000001,0.011000001,0.79999995,1.68,0,0,0.02,-0.02,0.01,-0.01,4.143193,-64154235,6,1,15
64347923,0,295701485,1064557466,239737,201483,117003200,0.0,0.0,0,0,0.010000001,0.011000001,0.79999995,1.7099999,0,0,0.22999999,-0.19999999,0.099999994,0.049999997,4.143193,-64347923,6,1,15
64562322,0,295701484,1064557466,239733,201480,117003400,0.0,0.0,0,0,0.010000001,0.011000001,0.79999995,1.7099999,0,0,0.16,0.13,-0.08,-0.03,4.143193,-64562322,6,1,15
64757922,0,295701484,1064557466,239728,201475,117003600,0.0,0.0,0,0,0.010000001,0.011000001,0.79999995,1.7099999,0,0,0.19,-0.07,0.12,0.13,4.143193,-64757922,6,1,15
64951854,0,295701484,1064557465,239734,201480,117003800,0.0,0.0,0,0,0.010000001,0.010000001,0.79999995,1.7099999,0,0,0.099999994,0.049999997,-0.06,-0.049999997,4.143193,-64951854,6,1,15
65147874,0,295701484,1064557467,239730,201476,117004000,0.0,0.0,0,0,0.010000001,0.010000001,0.79999995,1.7099999,0,0,0.03,0.0,0.02,-0.02,4.143193,-65147874,6,1,15
65342187,0,295701484,1064557466,239727,201473,117004200,0.0,0.0,0,0,0.010000001,0.010000001,0.79999995,1.7099999,0,0,0.08,0.04,-0.06,-0.01,4.143193,-65342187,6,1,15
65557062,0,295701483,1064557467,239724,201470,117004400,0.0,0.0,0,0,0.010000001,0.011000001,0.79999995,1.7099999,0,0,0.099999994,-0.06,0.06,-0.04,4.143193,-65557062,6,1,15
65751954,0,295701483,1064557467,239723,201469,117004600,0.0,0.0,0,0,0.010000001,0.011000001,0.79999995,1.7099999,0,0,0.06,0.049999997,-0.02,-0.02,4.143193,-65751954,6,1,15
65947926,0,295701483,1064557468,239709,201455,117004800,0.0,0.0,0,0,0.010000001,0.010000001,0.79999995,1.7099999,0,0,0.17999999,-0.13,0.07,0.11,4.143193,-65947926,6,1,15
66144994,0,295701482,1064557468,239714,201461,117005000,0.0,0.0,0,0,0.010000001,0.010000001,0.79999995,1.7099999,0,0,0.049999997,0.04,-0.02,-0.02,4.143193,-66144994,6,1,15
66359316,0,295701481,1064557469,239708,201455,117005200,0.0,0.0,0,0,0.010000001,0.010000001,0.79999995,1.7099999,0,0,0.06,-0.06,-0.01,0.01,4.143193,-66359316,6,1,15
66553366,0,295701480,1064557470,239711,201457,117005400,0.0,0.0,0,0,0.010000001,0.011000001,0.79999995,1.7099999,0,0,0.06,-0.04,0.02,-0.03,4.143193,-66553366,6,1,15
66746959,0,295701480,1064557469,239703,201449,117005600,0.0,0.0,0,0,0.010000001,0.011000001,0.79999995,1.7099999,0,0,0.089999996,0.08,-0.04,0.0,4.143193,-66746959,6,1,15
66962246,0,295701480,1064557469,239705,201451,117005800,0.0,0.0,0,0,0.010000001,0.011000001,0.79999995,1.7099999,0,0,0.07,-0.02,0.03,0.06,4.143193,-66962246,6,1,15
67158105,0,295701480,1064557469,239708,201455,117006000,0.0,0.0,0,0,0.010000001,0.011000001,0.79999995,1.7099999,0,0,0.13,0.04,-0.08,-0.08,4.143193,-67158105,6,1,15
67353008,0,295701481,1064557469,239720,201466,117006200,0.0,0.0,0,0,0.010000001,0.010000001,0.79999995,1.7099999,0,0,0.13,0.04,0.03,-0.12,4.143193,-67353008,6,1,15
67548224,0,295701481,1064557469,239718,201464,117006400,0.0,0.0,0,0,0.010000001,0.011000001,0.79999995,1.7099999,0,0,0.07,0.0,0.0,0.07,4.143193,-67548224,6,1,15
67741952,0,295701481,1064557468,239718,201465,117006600,0.0,0.0,0,0,0.010000001,0.011000001,0.79999995,1.7099999,0,0,0.02,0.0,-0.01,0.0,4.143193,-67741952,6,1,15
67958060,0,295701481,1064557468,239721,201468,117006800,0.0,0.0,0,0,0.010000001,0.011000001,0.79999995,1.7099999,0,0,0.04,-0.04,0.0,-0.01,4.143193,-67958060,6,1,15
68155125,0,295701481,1064557468,239726,201472,117007000,0.0,0.0,0,0,0.010000001,0.011000001,0.79999995,1.7099999,0,0,0.01,-0.01,0.0,0.0,4.143193,-68155125,6,1,15
68348194,0,295701481,1064557467,239724,201470,117007200,0.0,0.0,0,0,0.010000001,0.011000001,0.79999995,1.7099999,0,0,0.12,0.07,-0.08,-0.04,4.143193,-68348194,6,1,15
68545007,0,295701481,1064557468,239723,201469,117007400,0.0,0.0,0,0,0.010000001,0.011000001,0.79999995,1.7099999,0,0,0.11,-0.02,0.11,0.0,4.143193,-68545007,6,1,15
68758072,0,295701480,1064557468,239723,201469,117007600,0.0,0.0,0,0,0.010000001,0.011000001,0.79999995,1.7099999,0,0,0.099999994,-0.03,-0.03,0.089999996,4.143193,-68758072,6,1,15
68953042,0,295701480,1064557468,239720,201467,117007800,0.0,0.0,0,0,0.010000001,0.010000001,0.79999995,1.7099999,0,0,0.04,0.0,0.0,-0.03,4.143193,-68953042,6,1,15
69149053,0,295701480,1064557468,239723,201470,117008000,0.0,0.0,0,0,0.010000001,0.010000001,0.79999995,1.7099999,0,0,0.049999997,0.01,0.03,-0.04,4.143193,-69149053,6,1,15
69358907,0,295701504,1064557461,238953,200699,117008200,0.0,0.0,0,0,0.18,0.15200001,0.79999995,1.79,0,0,0.089999996,0.01,0.02,-0.089999996,4.143193,-69358907,5,1,15
69547604,0,295701505,1064557460,238975,200721,117008400,0.0,0.0,0,0,0.179,0.15200001,0.79999995,3.54,0,0,0.089999996,0.04,-0.01,0.08,4.143193,-69547604,5,1,15
69756679,0,295701505,1064557460,238991,200737,117008600,0.0,0.0,0,0,0.179,0.15200001,0.79999995,3.54,0,0,0.12,0.02,0.0,0.12,4.143193,-69756679,5,1,15
69944396,0,295701504,1064557461,238979,200725,117008800,0.0,0.0,0,0,0.178,0.15,0.79999995,2.06,0,0,0.14999999,-0.14,0.04,-0.02,4.143193,-69944396,5,1,15
70151805,0,295701504,1064557460,238983,200730,117009000,0.0,0.0,0,0,0.178,0.15,0.79999995,2.06,0,0,0.01,0.0,-0.01,0.0,4.143193,-70151805,5,1,15
70341053,0,295701504,1064557461,238992,200738,117009200,0.0,0.0,0,0,0.177,0.149,0.79999995,2.06,0,0,0.03,0.03,0.01,0.0,4.143193,-70341053,5,1,15
70550150,0,295701504,1064557460,239002,200748,117009400,0.0,0.0,0,0,0.177,0.149,0.79999995,2.06,0,0,0.19,-0.06,0.01,0.17999999,4.143193,-70550150,5,1,15
70742912,0,295701503,1064557460,239023,200769,117009600,0.0,0.0,0,0,0.17600001,0.148,0.79999995,1.79,0,0,0.07,-0.06,0.03,-0.01,4.143193,-70742912,5,1,15
70951949,0,295701503,1064557460,239046,200792,117009800,0.0,0.0,0,0,0.17600001,0.147,0.79999995,1.79,0,0,0.099999994,0.03,0.0,-0.089999996,4.143193,-70951949,5,1,15
71143881,0,295701503,1064557460,239054,200800,117010000,0.0,0.0,0,0,0.17500001,0.147,0.79999995,1.79,0,0,0.14,-0.01,-0.02,-0.14,4.143193,-71143881,5,1,15
71354001,0,295701503,1064557459,239074,200820,117010200,0.0,0.0,0,0,0.17500001,0.14600001,0.79999995,1.79,0,0,0.02,0.0,-0.01,-0.02,4.143193,-71354001,5,1,15
71544969,0,295701503,1064557459,239091,200838,117010400,0.0,0.0,0,0,0.17400001,0.14600001,0.79999995,1.79,0,0,0.049999997,-0.01,-0.03,-0.03,4.143193,-71544969,5,1,15
71758662,0,295701503,1064557459,239094,200840,117010600,0.0,0.0,0,0,0.17300001,0.14500001,0.79999995,1.79,0,0,0.14999999,-0.02,0.04,0.14,4.143193,-71758662,5,1,15
71950144,0,295701503,1064557458,239110,200856,117010800,0.0,0.0,0,0,0.17300001,0.14400001,0.79999995,1.79,0,0,0.13,0.03,-0.099999994,-0.06,4.143193,-71950144,5,1,15
72141003,0,295701502,1064557458,239118,200864,117011000,0.0,0.0,0,0,0.172,0.14400001,0.79999995,1.79,0,0,0.03,0.01,0.0,0.02,4.143193,-72141003,5,1,15
72353051,0,295701501,1064557457,239128,200874,117011200,0.0,0.0,0,0,0.172,0.143,0.79999995,1.79,0,0,0.02,-0.02,-0.01,-0.01,4.143193,-72353051,5,1,15
72542029,0,295701501,1064557458,239145,200891,117011400,0.0,0.0,0,0,0.171,0.143,0.79999995,1.79,0,0,0.14,0.04,0.06,-0.11,4.143193,-72542029,5,1,15
72754074,0,295701501,1064557459,239157,200904,117011600,0.0,0.0,0,0,0.171,0.142,0.79999995,1.79,0,0,0.089999996,0.0,0.049999997,-0.07,4.143193,-72754074,5,1,15
72944989,0,295701500,1064557459,239167,200913,117011800,0.0,0.0,0,0,0.17,0.141,0.79999995,1.79,0,0,0.08,-0.03,0.04,0.06,4.143193,-72944989,5,1,15
73157932,0,295701500,1064557459,239188,200934,117012000,0.0,0.0,0,0,0.17,0.141,0.79999995,1.79,0,0,0.049999997,-0.049999997,0.01,0.01,4.143193,-73157932,5,1,15
73350900,0,295701500,1064557459,239198,200945,117012200,0.0,0.0,0,0,0.16900001,0.14,0.79999995,1.79,0,0,0.03,-0.01,0.01,-0.03,4.143193,-73350900,5,1,15
73543887,0,295701499,1064557459,239209,200955,117012400,0.0,0.0,0,0,0.16900001,0.14,0.79999995,1.79,0,0,0.02,0.0,0.01,0.0,4.143193,-73543887,5,1,15
73754049,0,295701501,1064557458,239219,200965,117012600,0.0,0.0,0,0,0.16800001,0.13900001,0.79999995,1.79,0,0,0.11,0.099999994,-0.04,0.0,4.143193,-73754049,5,1,15
73946051,0,295701503,1064557455,239242,200988,117012800,0.0,0.0,0,0,0.16800001,0.13900001,0.79999995,1.79,0,0,0.22,0.13,-0.16,-0.06,4.143193,-73946051,5,1,15
74157034,0,295701503,1064557454,239253,200999,117013000,0.0,0.0,0,0,0.16700001,0.13800001,0.79999995,1.79,0,0,0.03,0.0,0.0,-0.03,4.143193,-74157034,5,1,15
74349013,0,295701501,1064557455,239256,201002,117013200,0.0,0.0,0,0,0.16700001,0.13700001,0.79999995,1.79,0,0,0.21,-0.12,0.12,0.12,4.143193,-74349013,5,1,15
74538978,0,295701500,1064557457,239266,201012,117013400,0.0,0.0,0,0,0.16600001,0.13700001,0.79999995,1.79,0,0,0.22,-0.12,0.12,0.14,4.143193,-74538978,5,1,15
74750969,0,295701497,1064557459,239255,201002,117013600,0.0,0.0,0,0,0.16600001,0.136,0.79999995,1.79,0,0,0.28,-0.14,0.11,0.21,4.143193,-74750969,5,1,15
74942864,0,295701495,1064557460,239248,200994,117013800,0.0,0.0,0,0,0.165,0.136,0.79999995,1.79,0,0,0.089999996,-0.06,0.07,0.0,4.143193,-74942864,5,1,15
75156126,0,295701493,1064557463,239262,201009,117014000,0.0,0.0,0,0,0.165,0.136,0.79999995,2.97,0,0,0.14999999,-0.07,0.12,0.02,4.143193,-75156126,5,1,15
75348128,0,295701493,1064557462,239250,200996,117014200,0.0,0.0,0,0,0.165,0.135,0.79999995,2.97,0,0,0.06,0.0,-0.049999997,0.02,4.143193,-75348128,5,1,15
75558195,0,295701494,1064557460,239273,201020,117014400,0.0,0.0,0,0,0.164,0.135,0.79999995,2.97,0,0,0.29,0.13,-0.12,-0.22,4.143193,-75558195,5,1,15
75750802,0,295701496,1064557458,239267,201013,117014600,0.0,0.0,0,0,0.164,0.134,0.79999995,2.97,0,0,0.14,0.08,-0.12,-0.02,4.143193,-75750802,5,1,15
75941992,0,295701497,1064557458,239268,201014,117014800,0.0,0.0,0,0,0.164,0.134,0.79999995,2.97,0,0,0.099999994,0.07,0.0,-0.07,4.143193,-75941992,5,1,15
76154092,0,295701498,1064557457,239278,201025,117015000,0.0,0.0,0,0,0.163,0.133,0.79999995,2.97,0,0,0.11,0.04,0.0,-0.099999994,4.143193,-76154092,5,1,15
76346929,0,295701499,1064557458,239279,201026,117015200,0.0,0.0,0,0,0.163,0.132,0.79999995,1.79,0,0,0.03,0.0,0.03,-0.01,4.143193,-76346929,5,1,15
76554973,0,295701499,1064557459,239285,201031,117015400,0.0,0.0,0,0,0.162,0.132,0.79999995,1.79,0,0,0.14,0.089999996,0.11,0.01,4.143193,-76554973,5,1,15
76746955,0,295701500,1064557460,239305,201051,117015600,0.0,0.0,0,0,0.162,0.13100001,0.79999995,1.79,0,0,0.14999999,0.06,0.01,-0.13,4.143193,-76746955,5,1,15
76960410,0,295701501,1064557459,239304,201051,117015800,0.0,0.0,0,0,0.16100001,0.13100001,0.79999995,1.79,0,0,0.11,0.03,-0.03,-0.099999994,4.143193,-76960410,5,1,15
77152281,0,295701503,1064557459,239315,201061,117016000,0.0,0.0,0,0,0.16100001,0.13000001,0.79999995,1.79,0,0,0.089999996,0.049999997,-0.01,-0.07,4.143193,-77152281,5,1,15
77344170,0,295701503,1064557457,239321,201068,117016200,0.0,0.0,0,0,0.16000001,0.13000001,0.79999995,1.79,0,0,0.17,0.049999997,-0.06,-0.14,4.143193,-77344170,5,1,15
77553248,0,295701503,1064557456,239315,201062,117016400,0.0,0.0,0,0,0.16000001,0.12900001,0.79999995,1.79,0,0,0.099999994,-0.08,0.01,0.049999997,4.143193,-77553248,5,1,15
77745720,0,295701503,1064557456,239315,201062,117016600,0.0,0.0,0,0,0.15900001,0.12900001,0.79999995,1.79,0,0,0.08,0.01,-0.07,0.03,4.143193,-77745720,5,1,15
77955004,0,295701503,1064557457,239305,201051,117016800,0.0,0.0,0,0,0.15900001,0.128,0.79999995,2.05,0,0,0.25,-0.13,0.02,0.21,4.143193,-77955004,5,1,15
78146038,0,295701502,1064557457,239319,201066,117017000,0.0,0.0,0,0,0.158,0.128,0.79999995,2.05,0,0,0.07,-0.04,0.03,-0.04,4.143193,-78146038,5,1,15
78359770,0,295701502,1064557458,239308,201055,117017200,0.0,0.0,0,0,0.158,0.127,0.79999995,1.79,0,0,0.19,-0.08,0.099999994,0.13,4.143193,-78359770,5,1,15
78549031,0,295701502,1064557458,239319,201065,117017400,0.0,0.0,0,0,0.158,0.127,0.79999995,1.79,0,0,0.089999996,0.049999997,-0.04,0.07,4.143193,-78549031,5,1,15
78740982,0,295701502,1064557457,239327,201073,117017600,0.0,0.0,0,0,0.157,0.126,0.79999995,1.79,0,0,0.06,0.0,-0.01,-0.06,4.143193,-78740982,5,1,15
78952547,0,295701503,1064557457,239338,201084,117017800,0.0,0.0,0,0,0.157,0.126,0.79999995,2.97,0,0,0.099999994,0.049999997,-0.01,0.089999996,4.143193,-78952547,5,1,15
79142190,0,295701503,1064557457,239356,201102,117018000,0.0,0.0,0,0,0.157,0.126,0.79999995,2.97,0,0,0.11,0.08,-0.03,-0.06,4.143193,-79142190,5,1,15
79353099,0,295701503,1064557457,239354,201101,117018200,0.0,0.0,0,0,0.156,0.125,0.79999995,2.05,0,0,0.06,0.02,0.02,-0.049999997,4.143193,-79353099,5,1,15
79542863,0,295701504,1064557457,239358,201105,117018400,0.0,0.0,0,0,0.156,0.124000005,0.79999995,2.05,0,0,0.14,-0.03,0.07,0.11,4.143193,-79542863,5,1,15
79754974,0,295701504,1064557457,239361,201107,117018600,0.0,0.0,0,0,0.155,0.124000005,0.79999995,2.05,0,0,0.089999996,0.02,-0.089999996,0.02,4.143193,-79754974,5,1,15
79946296,0,295701504,1064557457,239354,201100,117018800,0.0,0.0,0,0,0.155,0.124000005,0.79999995,2.05,0,0,0.02,-0.01,0.0,-0.01,4.143193,-79946296,5,1,15
80154979,0,295701506,1064557456,239355,201101,117019000,0.0,0.0,0,0,0.15400001,0.123,0.79999995,2.05,0,0,0.13,0.08,-0.08,0.049999997,4.143193,-80154979,5,1,15
80343010,0,295701507,1064557455,239352,201098,117019200,0.0,0.0,0,0,0.15400001,0.123,0.79999995,2.06,0,0,0.12,0.099999994,-0.049999997,0.03,4.143193,-80343010,5,1,15
80554907,0,295701507,1064557455,239346,201093,117019400,0.0,0.0,0,0,0.15400001,0.12200001,0.79999995,2.06,0,0,0.13,-0.049999997,0.02,0.11,4.143193,-80554907,5,1,15
80743714,0,295701507,1064557455,239355,201102,117019600,0.0,0.0,0,0,0.15300001,0.12200001,0.79999995,2.06,0,0,0.04,0.01,0.0,0.03,4.143193,-80743714,5,1,15
80952206,0,295701507,1064557455,239342,201089,117019800,0.0,0.0,0,0,0.15300001,0.12100001,0.79999995,2.06,0,0,0.13,0.11,-0.04,0.06,4.143193,-80952206,5,1,15
81140998,0,295701507,1064557455,239349,201096,117020000,0.0,0.0,0,0,0.15300001,0.12100001,0.79999995,2.06,0,0,0.089999996,0.0,0.08,0.0,4.143193,-81140998,5,1,15
81349033,0,295701508,1064557456,239346,201093,117020200,0.0,0.0,0,0,0.15200001,0.12100001,0.79999995,2.1,0,0,0.13,0.07,-0.08,0.06,4.143193,-81349033,5,1,15
81536951,0,295701509,1064557455,239337,201083,117020400,0.0,0.0,0,0,0.15200001,0.120000005,0.79999995,1.79,0,0,0.04,-0.03,0.01,0.02,4.143193,-81536951,5,1,15
81746958,0,295701509,1064557454,239333,201080,117020600,0.0,0.0,0,0,0.15200001,0.120000005,0.79999995,1.79,0,0,0.049999997,0.0,-0.049999997,0.01,4.143193,-81746958,5,1,15
81957970,0,295701511,1064557453,239329,201076,117020800,0.0,0.0,0,0,0.15100001,0.119,0.79999995,1.79,0,0,0.049999997,0.0,-0.02,0.04,4.143193,-81957970,5,1,15
82147013,0,295701512,1064557453,239336,201083,117021000,0.0,0.0,0,0,0.15100001,0.119,0.79999995,1.79,0,0,0.06,0.02,0.049999997,0.01,4.143193,-82147013,5,1,15
82359006,0,295701513,1064557453,239334,201081,117021200,0.0,0.0,0,0,0.15100001,0.11800001,0.79999995,1.79,0,0,0.06,0.049999997,-0.02,-0.03,4.143193,-82359006,5,1,15
82549949,0,295701514,1064557452,239344,201090,117021400,0.0,0.0,0,0,0.15,0.11800001,0.79999995,1.79,0,0,0.099999994,0.02,-0.04,-0.089999996,4.143193,-82549949,5,1,15
82737994,0,295701514,1064557452,239306,201053,117021600,0.0,0.0,0,0,0.15100001,0.11800001,0.79999995,4.02,0,0,0.17,-0.03,0.01,0.16,4.143193,-82737994,5,1,15
82950266,0,295701515,1064557451,239293,201040,117021800,0.0,0.0,0,0,0.15,0.11800001,0.79999995,2.97,0,0,0.089999996,-0.02,-0.06,0.06,4.143193,-82950266,5,1,15
83158964,0,295701514,1064557451,239291,201037,117022000,0.0,0.0,0,0,0.15,0.117000006,0.79999995,2.97,0,0,0.07,-0.049999997,0.04,-0.04,4.143193,-83158964,5,1,15
83350967,0,295701514,1064557451,239294,201040,117022200,0.0,0.0,0,0,0.149,0.117000006,0.79999995,2.97,0,0,0.14999999,-0.04,0.0,-0.14,4.143193,-83350967,5,1,15
83543106,0,295701513,1064557452,239273,201019,117022400,0.0,0.0,0,0,0.149,0.116000004,0.79999995,2.97,0,0,0.07,-0.06,-0.01,0.02,4.143193,-83543106,5,1,15
83752219,0,295701513,1064557452,239273,201019,117022600,0.0,0.0,0,0,0.148,0.116000004,0.79999995,2.97,0,0,0.01,0.0,0.01,0.0,4.143193,-83752219,5,1,15
83942886,0,295701512,1064557452,239264,201010,117022800,0.0,0.0,0,0,0.148,0.116000004,0.79999995,2.97,0,0,0.01,0.0,0.0,0.0,4.143193,-83942886,5,1,15
84155841,0,295701512,1064557454,239256,201002,117023000,0.0,0.0,0,0,0.148,0.115,0.79999995,2.97,0,0,0.02,-0.01,0.01,-0.01,4.143193,-84155841,5,1,15
84343898,0,295701512,1064557454,239251,200997,117023200,0.0,0.0,0,0,0.147,0.115,0.79999995,2.97,0,0,0.14999999,-0.02,0.099999994,0.11,4.143193,-84343898,5,1,15
84553163,0,295701513,1064557455,239257,201003,117023400,0.0,0.0,0,0,0.147,0.11400001,0.79999995,2.97,0,0,0.08,0.02,0.08,-0.02,4.143193,-84553163,5,1,15
84746043,0,295701512,1064557456,239248,200994,117023600,0.0,0.0,0,0,0.147,0.11400001,0.79999995,2.97,0,0,0.04,0.04,0.0,0.02,4.143193,-84746043,5,1,15
84957113,0,295701513,1064557456,239259,201005,117023800,0.0,0.0,0,0,0.14600001,0.11400001,0.79999995,2.97,0,0,0.19,0.14,-0.02,-0.12,4.143193,-84957113,5,1,15
85148915,0,295701513,1064557458,239248,200994,117024000,0.0,0.0,0,0,0.14600001,0.113000005,0.79999995,2.97,0,0,0.08,0.03,0.03,0.06,4.143193,-85148915,5,1,15
85359890,0,295701512,1064557459,239257,201003,117024200,0.0,0.0,0,0,0.14600001,0.113000005,0.79999995,2.97,0,0,0.11,-0.07,0.07,0.03,4.143193,-85359890,5,1,15
85549264,0,295701513,1064557457,239247,200993,117024400,0.0,0.0,0,0,0.14500001,0.113000005,0.79999995,2.97,0,0,0.14999999,0.0,-0.06,0.13,4.143193,-85549264,5,1,15
85758794,0,295701510,1064557459,239244,200991,117024600,0.0,0.0,0,0,0.14500001,0.113000005,0.79999995,2.97,0,0,0.29,-0.26,0.13,0.0,4.143193,-85758794,5,1,15
85947825,0,295701509,1064557459,239236,200983,117024800,0.0,0.0,0,0,0.14500001,0.112,0.79999995,2.97,0,0,0.21,-0.01,0.049999997,0.21,4.143193,-85947825,5,1,15
86159035,0,295701508,1064557460,239242,200989,117025000,0.0,0.0,0,0,0.14400001,0.11100001,0.79999995,1.78,0,0,0.04,-0.03,0.01,-0.03,4.143193,-86159035,5,1,15
86350915,0,295701509,1064557460,239244,200990,117025200,0.0,0.0,0,0,0.14400001,0.11100001,0.79999995,1.78,0,0,0.14999999,0.14,-0.01,0.0,4.143193,-86350915,5,1,15
86543904,0,295701511,1064557461,239249,200995,117025400,0.0,0.0,0,0,0.14400001,0.11100001,0.79999995,1.78,0,0,0.14999999,0.14,0.0,-0.03,4.143193,-86543904,5,1,15
86755887,0,295701512,1064557462,239251,200997,117025600,0.0,0.0,0,0,0.143,0.11100001,0.79999995,1.78,0,0,0.14999999,0.12,-0.06,-0.049999997,4.143193,-86755887,5,1,15
86948365,0,295701513,1064557462,239236,200982,117025800,0.0,0.0,0,0,0.143,0.11000001,0.79999995,1.78,0,0,0.06,0.04,0.01,-0.04,4.143193,-86948365,5,1,15
87160941,0,295701512,1064557463,239220,200967,117026000,0.0,0.0,0,0,0.143,0.11000001,0.79999995,2.97,0,0,0.31,-0.22999999,0.089999996,0.17999999,4.143193,-87160941,5,1,15
87353115,0,295701509,1064557463,239205,200951,117026200,0.0,0.0,0,0,0.142,0.109000005,0.79999995,1.77,0,0,0.03,-0.03,0.0,0.0,4.143193,-87353115,5,1,15
87543801,0,295701508,1064557465,239200,200947,117026400,0.0,0.0,0,0,0.142,0.109000005,0.79999995,1.79,0,0,0.06,-0.02,-0.04,0.04,4.143193,-87543801,5,1,15
87750899,0,295701509,1064557464,239201,200947,117026600,0.0,0.0,0,0,0.142,0.109000005,0.79999995,1.79,0,0,0.12,0.02,0.02,-0.11,4.143193,-87750899,5,1,15
87946040,0,295701511,1064557464,239196,200942,117026800,0.0,0.0,0,0,0.141,0.108,0.79999995,1.77,0,0,0.08,0.03,-0.06,0.04,4.143193,-87946040,5,1,15
88158204,0,295701511,1064557464,239197,200943,117027000,0.0,0.0,0,0,0.141,0.108,0.79999995,1.78,0,0,0.04,0.02,-0.03,0.02,4.143193,-88158204,5,1,15
88350009,0,295701512,1064557464,239181,200927,117027200,0.0,0.0,0,0,0.141,0.108,0.79999995,2.97,0,0,0.08,0.04,-0.049999997,-0.03,4.143193,-88350009,5,1,15
88542033,0,295701512,1064557463,239178,200924,117027400,0.0,0.0,0,0,0.14,0.10700001,0.79999995,2.75,0,0,0.14999999,0.0,-0.06,-0.14,4.143193,-88542033,5,1,15
88754199,0,295701513,1064557463,239175,200921,117027600,0.0,0.0,0,0,0.14,0.10700001,0.79999995,2.75,0,0,0.07,0.07,0.0,0.02,4.143193,-88754199,5,1,15
88946916,0,295701512,1064557464,239160,200907,117027800,0.0,0.0,0,0,0.14,0.10700001,0.79999995,2.75,0,0,0.02,-0.02,0.01,0.0,4.143193,-88946916,5,1,15
89157975,0,295701512,1064557464,239153,200899,117028000,0.0,0.0,0,0,0.13900001,0.106000006,0.79999995,2.75,0,0,0.17999999,-0.01,-0.06,-0.17,4.143193,-89157975,5,1,15
89349976,0,295701510,1064557465,239142,200888,117028200,0.0,0.0,0,0,0.13900001,0.106000006,0.79999995,2.75,0,0,0.06,-0.04,-0.02,-0.03,4.143193,-89349976,5,1,15
89562912,0,295701510,1064557465,239140,200886,117028400,0.0,0.0,0,0,0.13900001,0.105000004,0.79999995,2.75,0,0,0.099999994,-0.03,-0.01,-0.099999994,4.143193,-89562912,5,1,15
89755860,0,295701510,1064557465,239141,200887,117028600,0.0,0.0,0,0,0.13800001,0.105000004,0.79999995,2.75,0,0,0.12,0.089999996,-0.06,-0.06,4.143193,-89755860,5,1,15
89948515,0,295701510,1064557466,239135,200881,117028800,0.0,0.0,0,0,0.13800001,0.105000004,0.79999995,2.75,0,0,0.089999996,-0.08,-0.01,-0.049999997,4.143193,-89948515,5,1,15
90158927,0,295701509,1064557466,239141,200887,117029000,0.0,0.0,0,0,0.13800001,0.104,0.79999995,2.75,0,0,0.099999994,-0.089999996,-0.01,-0.04,4.143193,-90158927,5,1,15
90351835,0,295701510,1064557466,239136,200883,117029200,0.0,0.0,0,0,0.13700001,0.104,0.79999995,2.75,0,0,0.099999994,0.08,-0.049999997,-0.03,4.143193,-90351835,5,1,15
90546899,0,295701509,1064557467,239123,200870,117029400,0.0,0.0,0,0,0.13700001,0.10300001,0.79999995,2.75,0,0,0.07,0.02,-0.04,0.049999997,4.143193,-90546899,5,1,15
90759099,0,295701509,1064557466,239137,200884,117029600,0.0,0.0,0,0,0.13700001,0.10300001,0.79999995,2.75,0,0,0.089999996,-0.01,-0.06,-0.06,4.143193,-90759099,5,1,15
90953055,0,295701509,1064557467,239126,200873,117029800,0.0,0.0,0,0,0.136,0.10300001,0.79999995,2.75,0,0,0.02,0.02,0.0,0.0,4.143193,-90953055,5,1,15
91149376,0,295701491,1064557466,239725,201472,117030000,0.0,0.0,0,0,0.013,0.013,0.79999995,2.75,0,0,0.049999997,0.0,0.02,-0.04,4.143193,-91149376,6,1,15
91362921,0,295701493,1064557464,239728,201474,117030200,0.0,0.0,0,0,0.014,0.013,0.79999995,2.75,0,0,0.049999997,0.0,0.02,-0.04,4.143193,-91362921,6,1,15
91558293,0,295701493,1064557465,239716,201462,117030400,0.0,0.0,0,0,0.013,0.013,0.79999995,2.75,0,0,0.14999999,-0.099999994,0.089999996,-0.06,4.143193,-91558293,6,1,15
91754921,0,295701490,1064557466,239719,201465,117030600,0.0,0.0,0,0,0.013,0.013,0.79999995,2.75,0,0,0.42,-0.17999999,0.11,0.35999998,4.143193,-91754921,6,1,15
91948205,0,295701491,1064557465,239738,201484,117030800,0.0,0.0,0,0,0.012,0.012,0.79999995,2.75,0,0,0.26,0.22999999,-0.089999996,-0.06,4.143193,-91948205,6,1,15
92160981,0,295701493,1064557465,239725,201471,117031000,0.0,0.0,0,0,0.013,0.012,0.79999995,2.75,0,0,0.24,0.24,0.01,0.03,4.143193,-92160981,6,1,15
92356734,0,295701497,1064557464,239734,201481,117031200,0.0,0.0,0,0,0.013,0.012,0.79999995,2.75,0,0,0.26,0.22999999,-0.049999997,0.099999994,4.143193,-92356734,6,1,15
92549081,0,295701498,1064557464,239743,201489,117031400,0.0,0.0,0,0,0.013,0.013,0.79999995,2.75,0,0,0.17,-0.02,0.01,-0.17,4.143193,-92549081,6,1,15
92743097,0,295701496,1064557467,239733,201480,117031600,0.0,0.0,0,0,0.013,0.013,0.79999995,2.75,0,0,0.19999999,-0.13,0.14,0.06,4.143193,-92743097,6,1,15
92955828,0,295701495,1064557467,239741,201488,117031800,0.0,0.0,0,0,0.014,0.013,0.79999995,2.79,0,0,0.08,0.01,-0.049999997,-0.06,4.143193,-92955828,6,1,15
93146938,0,295701495,1064557466,239733,201480,117032000,0.0,0.0,0,0,0.015000001,0.015000001,0.79999995,2.79,0,0,0.03,0.02,-0.02,0.0,4.143193,-93146938,6,1,15
93357953,0,295701496,1064557466,239742,201489,117032200,0.0,0.0,0,0,0.014,0.015000001,0.79999995,2.79,0,0,0.099999994,0.0,-0.049999997,-0.089999996,4.143193,-93357953,6,1,15
93549016,0,295701496,1064557464,239746,201492,117032400,0.0,0.0,0,0,0.014,0.015000001,0.79999995,2.79,0,0,0.089999996,0.049999997,-0.08,0.01,4.143193,-93549016,6,1,15
93762065,0,295701498,1064557463,239741,201488,117032600,0.0,0.0,0,0,0.014,0.013,0.79999995,2.79,0,0,0.12,0.03,-0.049999997,-0.099999994,4.143193,-93762065,6,1,15
93955844,0,295701499,1064557461,239750,201496,117032800,0.0,0.0,0,0,0.013,0.013,0.79999995,2.75,0,0,0.19999999,0.03,-0.099999994,-0.17,4.143193,-93955844,6,1,15
94152277,0,295701497,1064557461,239734,201481,117033000,0.0,0.0,0,0,0.012,0.012,0.79999995,2.75,0,0,0.22,-0.12,0.12,0.13,4.143193,-94152277,6,1,15
94364406,0,295701498,1064557461,239739,201485,117033200,0.0,0.0,0,0,0.013,0.012,0.79999995,2.75,0,0,0.14,0.099999994,-0.03,-0.089999996,4.143193,-94364406,6,1,15
94558942,0,295701497,1064557463,239744,201490,117033400,0.0,0.0,0,0,0.013,0.013,0.79999995,2.75,0,0,0.19999999,-0.03,0.049999997,-0.19,4.143193,-94558942,6,1,15
94752988,0,295701495,1064557464,239726,201472,117033600,0.0,0.0,0,0,0.014,0.013,0.79999995,2.79,0,0,0.099999994,-0.04,-0.03,-0.08,4.143193,-94752988,6,1,15
94946914,0,295701495,1064557465,239733,201479,117033800,0.0,0.0,0,0,0.013,0.012,0.79999995,2.79,0,0,0.13,-0.11,0.049999997,0.04,4.143193,-94946914,6,1,15
95158996,0,295701493,1064557466,239720,201467,117034000,0.0,0.0,0,0,0.013,0.012,0.79999995,2.75,0,0,0.089999996,-0.089999996,0.02,0.0,4.143193,-95158996,6,1,15
95355861,0,295701491,1064557467,239743,201490,117034200,0.0,0.0,0,0,0.013,0.012,0.79999995,2.75,0,0,0.19999999,-0.08,0.049999997,-0.17999999,4.143193,-95355861,6,1,15
95550272,0,295701490,1064557467,239733,201480,117034400,0.0,0.0,0,0,0.013,0.013,0.79999995,2.75,0,0,0.04,0.0,0.01,0.03,4.143193,-95550272,6,1,15
95775844,0,295701489,1064557468,239760,201506,117034600,0.0,0.0,0,0,0.013,0.013,0.79999995,2.75,0,0,0.089999996,-0.08,0.01,-0.03,4.143193,-95775844,6,1,15
95951029,0,295701489,1064557467,239751,201497,117034800,0.0,0.0,0,0,0.013,0.013,0.79999995,2.75,0,0,0.089999996,-0.08,0.02,-0.01,4.143193,-95951029,6,1,15
96149024,0,295701489,1064557466,239753,201500,117035000,0.0,0.0,0,0,0.010000001,0.011000001,0.79999995,1.74,0,0,0.04,-0.01,0.0,0.04,4.143193,-96149024,6,1,15
96364179,0,295701489,1064557466,239759,201505,117035200,0.0,0.0,0,0,0.010000001,0.010000001,0.79999995,1.74,0,0,0.12,0.07,-0.02,-0.089999996,4.143193,-96364179,6,1,15
96556956,0,295701501,1064557471,239206,200952,117035400,0.0,0.0,0,0,0.128,0.093,0.79999995,1.75,0,0,0.049999997,0.0,0.0,-0.049999997,4.143193,-96556956,5,1,15
96749046,0,295701501,1064557472,239199,200945,117035600,0.0,0.0,0,0,0.127,0.093,0.79999995,1.75,0,0,0.03,-0.02,0.01,0.0,4.143193,-96749046,5,1,15
96961985,0,295701503,1064557473,239193,200939,117035800,0.0,0.0,0,0,0.127,0.09200001,0.79999995,1.78,0,0,0.14999999,0.14,0.049999997,0.03,4.143193,-96961985,5,1,15
97155892,0,295701505,1064557473,239152,200898,117036000,0.0,0.0,0,0,0.127,0.09200001,0.79999995,2.75,0,0,0.14999999,0.14,-0.049999997,0.02,4.143193,-97155892,5,1,15
97346901,0,295701505,1064557473,239158,200904,117036200,0.0,0.0,0,0,0.127,0.09200001,0.79999995,2.75,0,0,0.07,0.0,0.049999997,-0.04,4.143193,-97346901,5,1,15
97559161,0,295701505,1064557474,239166,200912,117036400,0.0,0.0,0,0,0.126,0.09200001,0.79999995,2.75,0,0,0.11,-0.099999994,-0.02,-0.04,4.143193,-97559161,5,1,15
97750537,0,295701505,1064557474,239157,200904,117036600,0.0,0.0,0,0,0.126,0.09200001,0.79999995,2.75,0,0,0.04,0.0,0.04,0.0,4.143193,-97750537,5,1,15
