timestamp,magnetometer_ga[0],magnetometer_ga[1],magnetometer_ga[2]
2880886,0.2609946,-0.17762838,0.38250294
2890455,0.2787621,-0.19201915,0.37897307
2900886,0.27167982,-0.18470523,0.37228924
2910455,0.2609951,-0.188457,0.38235113
2920897,0.26989895,-0.18292417,0.37399995
2930454,0.27700067,-0.16126694,0.37432525
2940886,0.2663381,-0.20101929,0.37711775
2950479,0.27345014,-0.17931464,0.37406138
2960886,0.27879277,-0.18465783,0.36892927
2970478,0.26987845,-0.18662852,0.38071266
2980886,0.27347124,-0.19004843,0.36714625
2990479,0.26633734,-0.18297158,0.37737077
3000887,0.26633734,-0.18297158,0.37737077
3011280,0.26633734,-0.18297158,0.37737077
3020887,0.26633734,-0.18297158,0.37737077
3031289,0.26633734,-0.18297158,0.37737077
3040887,0.26633734,-0.18297158,0.37737077
3051280,0.26633734,-0.18297158,0.37737077
3060900,0.26633734,-0.18297158,0.37737077
3069655,0.27523133,-0.18831477,0.37224948
3080907,0.28231362,-0.19562869,0.37893328
3089700,0.26102576,-0.1810957,0.37230733
3100920,0.26459804,-0.18821995,0.3654536
3110486,0.2609948,-0.18123794,0.38245234
3120078,0.2716795,-0.17748615,0.37239045
3129679,0.26986784,-0.17945687,0.38419557
3140108,0.27694982,-0.17955169,0.3909806
3149679,0.26634765,-0.18292417,0.3739891
3160106,0.2787521,-0.19928563,0.38225353
3169679,0.27162835,-0.18855181,0.38914698
3180079,0.2610156,-0.18475264,0.37563837
3189679,0.2805737,-0.18643889,0.36721852
3200079,0.26985702,-0.16867565,0.38772905
3209692,0.2539228,-0.17387661,0.37238687
3220054,0.26988894,-0.19019066,0.3772804
3229679,0.26103622,-0.18465783,0.36887506
3240054,0.28055245,-0.17209555,0.37418428
3249679,0.28408358,-0.18301898,0.38080662
3260054,0.26098415,-0.17406626,0.3859352
3269679,0.2822924,-0.18128535,0.38589904
3280054,0.26453564,-0.1776758,0.38589543
3289692,0.27877167,-0.17392403,0.3758444
3300054,0.28406277,-0.17950429,0.3876206
3309700,0.26809725,-0.17762838,0.38252464
3320054,0.2734705,-0.17200074,0.36739928
3329720,0.26809788,-0.19206655,0.38232222
3340054,0.27699143,-0.18658112,0.3773527
3349688,0.26985812,-0.19394244,0.38737482
3360085,0.27703285,-0.19000103,0.3637754
3369705,0.26990956,-0.19009584,0.37051705
3380078,0.27698094,-0.18301898,0.38078496
3389685,0.26812807,-0.17387661,0.37243024
3400078,0.26991898,-0.16839118,0.36743903
3409679,0.2699193,-0.17561027,0.36733782
3420079,0.26992962,-0.17556287,0.36395615
3429681,0.2698885,-0.17936206,0.37743223
3440078,0.27522054,-0.17753357,0.37578294
3449679,0.28232318,-0.17753357,0.37580463
3460078,0.2663381,-0.20101929,0.37711775
3469679,0.2716179,-0.18498969,0.39257923
3480078,0.2751783,-0.15606596,0.38961327
3490486,0.2751783,-0.15606596,0.38961327
3500079,0.2751783,-0.15606596,0.38961327
3510456,0.2751783,-0.15606596,0.38961327
3520079,0.2751783,-0.15606596,0.38961327
3529707,0.2751783,-0.15606596,0.38961327
3540080,0.2751783,-0.15606596,0.38961327
3549680,0.2751783,-0.15606596,0.38961327
3560104,0.27522054,-0.17753357,0.37578294
3568886,0.26809773,-0.188457,0.38237283
3579278,0.27874056,-0.17045671,0.38604
3588886,0.2752725,-0.1845156,0.35877338
3599289,0.2805213,-0.16862823,0.3843799
3608886,0.26100478,-0.17397144,0.37917188
3619293,0.28585443,-0.19206655,0.3823764
3628886,0.27167904,-0.16665752,0.37254226
3639292,0.26988864,-0.18297158,0.37738162
3648886,0.26460773,-0.1737344,0.36227438
3659295,0.2858643,-0.18119054,0.37914655
3668886,0.2770019,-0.19014324,0.3739204
3679315,0.2823235,-0.18475264,0.37570342
3688886,0.2805321,-0.17940946,0.3808464
3699278,0.2716384,-0.18128535,0.38586652
3708886,0.26103544,-0.16661012,0.36912808
3719279,0.27699098,-0.1757525,0.3775045
3728886,0.25744382,-0.188457,0.38234028
3739289,0.25924486,-0.17931464,0.374018
3748887,0.25918385,-0.20125633,0.39400446
3759279,0.25566286,-0.18667594,0.384051
3768855,0.27170032,-0.18100089,0.3655765
3779286,0.27344984,-0.17209555,0.37416258
3788855,0.26456645,-0.17392403,0.37580103
3799286,0.26102498,-0.163048,0.37256035
3808855,0.26810774,-0.18119054,0.37909234
3819286,0.27343997,-0.18297158,0.37739247
3828884,0.2681079,-0.18480006,0.37904173
3839286,0.26629588,-0.17955169,0.3909481
3848869,0.2609854,-0.20294258,0.38553038
3859286,0.2716387,-0.18850441,0.3857653
3868855,0.26098463,-0.18489487,0.38578337
3879311,0.25034088,-0.18123794,0.38241982
3888862,0.2432177,-0.18494228,0.38911086
3899298,0.26452515,-0.17411366,0.3893277
3909678,0.26809818,-0.19928563,0.382221
3919286,0.26276582,-0.19389503,0.38397145
3928890,0.26807693,-0.18494228,0.38918674
3939285,0.2734096,-0.19755198,0.38733506
3948909,0.24328952,-0.1737818,0.365591
3959286,0.2645566,-0.18480006,0.3790309
3969696,0.2645566,-0.18480006,0.3790309
3979286,0.2645566,-0.18480006,0.3790309
3989686,0.2645566,-0.18480006,0.3790309
3999286,0.2645566,-0.18480006,0.3790309
4009693,0.2645566,-0.18480006,0.3790309
4019286,0.2645566,-0.18480006,0.3790309
4029709,0.2645566,-0.18480006,0.3790309
4039255,0.2645566,-0.18480006,0.3790309
4048090,0.26458785,-0.19187692,0.3687847
4058479,0.26096413,-0.18859923,0.3924961
4068086,0.2627966,-0.19014324,0.37387705
4078479,0.24858074,-0.18297158,0.3773166
4088085,0.26985794,-0.19033289,0.38742542
4098479,0.25036168,-0.18475264,0.37560585
4108086,0.26455736,-0.20284776,0.3787779
4118479,0.2609854,-0.20294258,0.38553038
4128090,0.2610262,-0.19192432,0.37215552
4138478,0.26988912,-0.19380021,0.3772298
4148098,0.26807722,-0.19216137,0.38908553
4158492,0.27339897,-0.19038029,0.39081794
4168117,0.26453596,-0.18489487,0.38579422
4178454,0.27342024,-0.20472364,0.38385218
4188086,0.26453656,-0.19933304,0.3855918
4198480,0.26280692,-0.19009584,0.37049538
4208086,0.271639,-0.1957235,0.3856641
4218485,0.26808712,-0.18128535,0.38585567
4228095,0.2468205,-0.1810957,0.37226397
4238460,0.25924578,-0.20097187,0.37371442
4248093,0.26990926,-0.18287677,0.37061825
4258468,0.27344012,-0.18658112,0.37734187
4268092,0.26102635,-0.19553386,0.3721049
4278484,0.26988834,-0.1757525,0.37748283
4288093,0.2645677,-0.20280035,0.3753962
4298471,0.26987892,-0.19745715,0.38056085
4308093,0.25920355,-0.17950429,0.38754472
4318511,0.26813886,-0.18465783,0.36889672
4328093,0.2805632,-0.18287677,0.3706508
4338485,0.26812854,-0.18470523,0.37227842
4348086,0.27345076,-0.1937528,0.373859
4358485,0.28233334,-0.17387661,0.3724736
4368086,0.28407297,-0.17584732,0.38428953
4378485,0.2734198,-0.19389503,0.384004
4388086,0.27526215,-0.18456301,0.36215508
4398485,0.25214207,-0.17570509,0.37404695
4408087,0.26634765,-0.18292417,0.3739891
4418484,0.27519974,-0.17401884,0.3825969
4428086,0.26455688,-0.19201915,0.3789297
4438478,0.27168012,-0.19192432,0.37218803
4448086,0.27701205,-0.1864863,0.37058935
4458479,0.26805595,-0.17781802,0.3960513
4468086,0.2645769,-0.17748615,0.37236878
4478482,0.2645769,-0.17748615,0.37236878
4488087,0.2645769,-0.17748615,0.37236878
4498480,0.2645769,-0.17748615,0.37236878
4508087,0.2645769,-0.17748615,0.37236878
4518480,0.2645769,-0.17748615,0.37236878
4528855,0.2645769,-0.17748615,0.37236878
4538480,0.2645769,-0.17748615,0.37236878
4547305,0.26280677,-0.1864863,0.37054598
4557678,0.27522087,-0.18475264,0.37568176
4567288,0.2769811,-0.18662852,0.38073435
4577679,0.2752418,-0.19187692,0.3688172
4587278,0.27171,-0.1665153,0.36239725
4597678,0.2716695,-0.18475264,0.3756709
4607279,0.27522102,-0.18836218,0.37563115
4617678,0.2699091,-0.17926724,0.37066886
4627254,0.2663686,-0.19004843,0.36712456
4637679,0.27879277,-0.18465783,0.36892927
4648054,0.27342993,-0.19023806,0.3806729
4657679,0.26455674,-0.1884096,0.3789803
4667279,0.26811868,-0.19558127,0.37550825
4677679,0.26816985,-0.1845156,0.35875168
4687279,0.26986846,-0.19389503,0.38399315
4697679,0.28237528,-0.18812513,0.35874444
4707279,0.27164915,-0.19206655,0.38233304
4717678,0.27877274,-0.19919081,0.37549016
4727254,0.25573558,-0.1971727,0.3602275
4737682,0.28052223,-0.19028547,0.38407627
4747254,0.26281744,-0.19365798,0.36706313
4757679,0.26287937,-0.19337353,0.34677312
4767255,0.27344075,-0.20101929,0.37713945
4777679,0.27170092,-0.19543904,0.3653741
4787254,0.28057355,-0.18282935,0.36726913
4797679,0.26995072,-0.18629666,0.357041
4807254,0.28054288,-0.19019066,0.37731293
4817679,0.2627966,-0.19014324,0.37387705
4827254,0.27347124,-0.19004843,0.36714625
4837679,0.26993993,-0.17551546,0.36057445
4847278,0.27346045,-0.17926724,0.3706797
4857691,0.28413582,-0.19722012,0.3636959
4867278,0.2663686,-0.19004843,0.36712456
4877719,0.26814964,-0.19543904,0.36536324
4887303,0.2751902,-0.19211397,0.38572556
4897686,0.28229284,-0.19211397,0.38574722
4907278,0.28591606,-0.18456301,0.3621876
4917708,0.28410408,-0.17931464,0.37409392
4927279,0.26633748,-0.18658112,0.37732017
4937755,0.2823435,-0.17021966,0.3691425
4948879,0.27520007,-0.18123794,0.3824957
4957726,0.28762454,-0.1830664,0.38419914
4967306,0.2787618,-0.18480006,0.37907428
4977686,0.29650748,-0.17040929,0.38271257
4988105,0.28232318,-0.17753357,0.37580463
4997655,0.27878198,-0.17387661,0.37246275
5008117,0.28764534,-0.18658112,0.37738523
5017665,0.28764534,-0.18658112,0.37738523
5027287,0.28764534,-0.18658112,0.37738523
5037656,0.28764534,-0.18658112,0.37738523
5047296,0.28764534,-0.18658112,0.37738523
5057659,0.28764534,-0.18658112,0.37738523
5067287,0.28764534,-0.18658112,0.37738523
5077655,0.28764534,-0.18658112,0.37738523
5087287,0.28764534,-0.18658112,0.37738523
5096879,0.2752096,-0.16314283,0.37936705
5106506,0.28590527,-0.1737818,0.36572108
5116887,0.27878213,-0.17748615,0.37241215
5126492,0.28587386,-0.16309541,0.3760179
5136854,0.2894352,-0.15582891,0.3727483
5146499,0.2699193,-0.17561027,0.36733782
5156857,0.2858327,-0.16689457,0.38949397
5166524,0.26633656,-0.16492389,0.3776238
5176854,0.2698677,-0.17584732,0.38424617
5186479,0.28587478,-0.18475264,0.37571427
5196854,0.27341855,-0.16501871,0.3844088
5206492,0.2681478,-0.15212454,0.3659705
5216854,0.29297632,-0.15948586,0.37609017
5226506,0.28764412,-0.1577048,0.37779006
5236853,0.28052086,-0.15779962,0.3845317
5246479,0.27876103,-0.16675235,0.37932727
5256908,0.2982984,-0.16492389,0.37772137
5266479,0.28585365,-0.17401884,0.38262942
5276899,0.28940457,-0.16319023,0.3827921
5286479,0.2752201,-0.16670494,0.37593475
5296895,0.26810756,-0.17758098,0.37914294
5306479,0.2769492,-0.16511352,0.39118302
5316886,0.27880263,-0.1737818,0.36569938
5326479,0.2858432,-0.17045671,0.3860617
5336886,0.28233367,-0.1810957,0.3723724
5346479,0.26100492,-0.17758098,0.37912127
5356885,0.2645874,-0.1810483,0.3689365
5366479,0.2858851,-0.18470523,0.3723326
5376886,0.28056306,-0.17926724,0.3707014
5386479,0.27523085,-0.17748615,0.3724013
5396895,0.2663472,-0.17209555,0.37414092
5406479,0.26989943,-0.1937528,0.37384814
5408114,0.26990974,-0.1937054,0.37046644
5416886,0.28762347,-0.15779962,0.38455337
5426479,0.27697048,-0.17945687,0.38421723
5428106,0.27699113,-0.17936206,0.3774539
5436886,0.27876133,-0.17397144,0.37922606
5446479,0.2769861,-0.18299529,0.37909415
5448094,0.2770016,-0.18292417,0.37402162
5456908,0.28940487,-0.17040929,0.38269088
5466479,0.26809695,-0.17040929,0.38262585
5468079,0.26814857,-0.17017224,0.36571747
5476882,0.25568292,-0.17214297,0.37749007
5486478,0.2734392,-0.16492389,0.3776455
5488078,0.27348047,-0.16473426,0.36411878
5496916,0.278731,-0.18855181,0.38916868
5506455,0.26807708,-0.18855181,0.38913614
5508079,0.26809725,-0.17762838,0.38252464
5516905,0.27514783,-0.1670368,0.39960647
5526455,0.2680452,-0.1670368,0.39958477
5528079,0.26813808,-0.16661012,0.36914974
5536925,0.27339852,-0.17955169,0.39096975
5548079,0.27346015,-0.17204815,0.37078092
5556893,0.2716587,-0.17397144,0.3792044
5568079,0.27520022,-0.18484746,0.3824451
5576905,0.28231284,-0.17758098,0.3791863
5588086,0.2805113,-0.17589474,0.38766035
5596880,0.2805113,-0.17589474,0.38766035
5616880,0.2805113,-0.17589474,0.38766035
5636880,0.2805113,-0.17589474,0.38766035
5656880,0.2805113,-0.17589474,0.38766035
5676079,0.2787307,-0.18133275,0.3892699
5685655,0.2716487,-0.18123794,0.38248485
5696079,0.2858641,-0.17758098,0.37919715
5705655,0.28760403,-0.18677075,0.3909119
5716079,0.26632655,-0.17219037,0.38090423
5725673,0.26981592,-0.17247483,0.40120512
5736079,0.26814905,-0.18100089,0.36556566
5745680,0.27879244,-0.17743875,0.36903048
5756079,0.2876236,-0.16140917,0.38450277
5765700,0.26100555,-0.19201915,0.37891886
5776079,0.27874085,-0.1776758,0.3859388
5785679,0.2770221,-0.17921983,0.3673089
5796079,0.27522102,-0.18836218,0.37563115
5805705,0.27165854,-0.17036189,0.379255
5816092,0.26812777,-0.16665752,0.37253144
5825679,0.28228173,-0.17411366,0.38938192
5836092,0.28054196,-0.16853341,0.37761655
5846502,0.27163884,-0.19211397,0.3857147
5856086,0.26809743,-0.18123794,0.38247404
5865690,0.27516925,-0.18498969,0.39259008
5876086,0.27876195,-0.1884096,0.37902367
5886524,0.27340806,-0.16145658,0.3878411
5896079,0.2645361,-0.18850441,0.38574362
5907280,0.26457784,-0.1991434,0.37206516
5916079,0.2787723,-0.18836218,0.37564197
5927292,0.26635766,-0.17565769,0.37070864
5936055,0.25742286,-0.18133275,0.38920483
5947295,0.27877215,-0.18475264,0.37569258
5956055,0.26452515,-0.17411366,0.3893277
5967315,0.27521068,-0.1884096,0.37901282
5976055,0.26633734,-0.18297158,0.37737077
5987278,0.27522072,-0.18114312,0.37573233
5996086,0.28230238,-0.17401884,0.3826186
6007278,0.27162805,-0.18133275,0.3892482
6016086,0.2716382,-0.1776758,0.38591713
6027278,0.25565222,-0.17950429,0.38753387
6036055,0.2787618,-0.18480006,0.37907428
6047279,0.26631716,-0.19389503,0.3839823
6056055,0.25919354,-0.18677075,0.39082518
6067254,0.26457676,-0.17387661,0.3724194
6076085,0.27878213,-0.17748615,0.37241215
6087254,0.25210154,-0.19394244,0.3873206
6096086,0.26636845,-0.18643889,0.36717516
6107254,0.27520052,-0.19206655,0.3823439
6116085,0.26986846,-0.19389503,0.38399315
6127254,0.26101574,-0.18836218,0.3755878
6136094,0.26101574,-0.18836218,0.3755878
6156123,0.26101574,-0.18836218,0.3755878
6176103,0.26101574,-0.18836218,0.3755878
6196123,0.26101574,-0.18836218,0.3755878
6204879,0.26808694,-0.1776758,0.38590628
6215254,0.2716074,-0.18142757,0.39601153
6224879,0.2698686,-0.19750457,0.38394254
6235284,0.28054288,-0.19019066,0.37731293
6244879,0.2787307,-0.18133275,0.3892699
6255278,0.25922465,-0.19023806,0.38062954
6264892,0.27345076,-0.1937528,0.373859
6275278,0.26989943,-0.1937528,0.37384814
6284906,0.26632684,-0.17940946,0.38080305
6295278,0.27344012,-0.18658112,0.37734187
6304880,0.2663381,-0.20101929,0.37711775
6306455,0.2662865,-0.20125633,0.39402613
6315304,0.2716382,-0.1776758,0.38591713
6324888,0.27696532,-0.17948058,0.38590807
6326455,0.27699113,-0.17936206,0.3774539
6335312,0.2698991,-0.1865337,0.37394935
6344879,0.27522618,-0.18833847,0.3739403
6346479,0.27521068,-0.1884096,0.37901282
6355278,0.2538923,-0.18484746,0.38238007
6364895,0.28407812,-0.17582361,0.3825987
6366479,0.28410393,-0.17570509,0.37414452
6375279,0.2805324,-0.18662852,0.3807452
6384915,0.26455095,-0.17399514,0.38087353
6386479,0.2645561,-0.17397144,0.3791827
6395279,0.269878,-0.1757999,0.38086447
6404884,0.27875626,-0.1757999,0.3808916
6406489,0.27878213,-0.17748615,0.37241215
6415280,0.2699193,-0.17561027,0.36733782
6424915,0.27169546,-0.18824366,0.36716613
6426479,0.2716593,-0.1884096,0.37900198
6435279,0.26453656,-0.19933304,0.3855918
6444879,0.2663122,-0.19933304,0.38559723
6446479,0.2663059,-0.1722852,0.3876676
6455285,0.26987877,-0.19384761,0.38061145
6464879,0.2716544,-0.19384761,0.38061687
6466515,0.27171156,-0.20261072,0.36189124
6475282,0.25923577,-0.20823836,0.37699488
6486510,0.26450527,-0.19225618,0.39583802
6495291,0.2840734,-0.18667594,0.38413772
6506523,0.26100555,-0.19201915,0.37891886
6515279,0.25919324,-0.17955169,0.3909264
6525704,0.27166903,-0.17392403,0.37582272
6535279,0.26992023,-0.19726752,0.3670342
6546524,0.27701253,-0.19731493,0.37043753
6555279,0.27521083,-0.19201915,0.37896222
6566492,0.26455644,-0.18119054,0.37908152
6575279,0.28587538,-0.19919081,0.37551185
6586512,0.28230315,-0.19206655,0.38236558
6595279,0.27164963,-0.20289516,0.38218126
6606512,0.27875194,-0.19567609,0.38230413
6615279,0.27170062,-0.18821995,0.3654753
6626478,0.2752116,-0.21006684,0.3787092
6635287,0.2752116,-0.21006684,0.3787092
6655287,0.2752116,-0.21006684,0.3787092
6675288,0.2752116,-0.21006684,0.3787092
6694510,0.2610467,-0.18821995,0.36544278
6704912,0.26097536,-0.21020906,0.38881084
6714477,0.2592769,-0.2044392,0.3635188
6724879,0.26456738,-0.19558127,0.3754974
6734498,0.2627669,-0.21916181,0.38361722
6744086,0.26991916,-0.17200074,0.36738843
6754505,0.25039357,-0.20626765,0.36515722
6764886,0.26455703,-0.19562869,0.3788791
6774480,0.28412595,-0.20809613,0.36692575
6785704,0.23796916,-0.20804873,0.36340314
6794479,0.2716909,-0.20270553,0.36865455
6805717,0.26100633,-0.21006684,0.37866583
6814479,0.2539032,-0.19923823,0.37879595
6825679,0.2628074,-0.20092447,0.37034357
6834479,0.2627655,-0.18667594,0.38407266
6845679,0.27522165,-0.20280035,0.37542874
6854479,0.26458833,-0.20270553,0.36863288
6865681,0.27347186,-0.2044866,0.36694384
6874481,0.26633888,-0.21906699,0.37686476
6885679,0.27345106,-0.20097187,0.37375778
6894455,0.28233442,-0.1991434,0.37211937
6904079,0.26457784,-0.1991434,0.37206516
6905679,0.2645683,-0.21723852,0.3751938
6914454,0.27169135,-0.21353415,0.36850274
6924079,0.27524272,-0.21353415,0.36851358
6925679,0.27523196,-0.20275293,0.37204707
6934455,0.26456863,-0.22445759,0.3750926
6945680,0.26460943,-0.21343933,0.36171773
6954455,0.26987907,-0.20106669,0.38051027
6965679,0.2574757,-0.20997201,0.37189168
6974455,0.27524257,-0.20992461,0.3685642
6984102,0.26636428,-0.20992461,0.3685371
6985679,0.2663581,-0.1864863,0.37055683
6995278,0.27346167,-0.20814355,0.37027487
7005679,0.26456752,-0.19919081,0.3754468
7014454,0.26988956,-0.20462883,0.377078
7025654,0.26104715,-0.19904858,0.36529097
7034455,0.26811868,-0.19558127,0.37550825
7045655,0.27344105,-0.20823836,0.37703824
7054511,0.27346167,-0.20814355,0.37027487
7065654,0.27523178,-0.1991434,0.37209767
7074528,0.2752734,-0.20617284,0.35846975
7085655,0.2663381,-0.20101929,0.37711775
7094516,0.2645575,-0.2064573,0.3787273
7105655,0.26813963,-0.20270553,0.36864373
7114486,0.27171093,-0.18817255,0.36209363
7125655,0.27345076,-0.1937528,0.373859
7134486,0.28239653,-0.20246848,0.35177872
7145691,0.26810881,-0.2064573,0.37873814
7154495,0.26810881,-0.2064573,0.37873814
7174487,0.26810881,-0.2064573,0.37873814
7194487,0.26810881,-0.2064573,0.37873814
7204855,0.26810881,-0.2064573,0.37873814
7214487,0.26810881,-0.2064573,0.37873814
7224855,0.26810881,-0.2064573,0.37873814
7233742,0.29650888,-0.20289516,0.38225713
7244854,0.28772855,-0.20064001,0.35012946
7253696,0.2681091,-0.21367638,0.37863693
7264855,0.2770122,-0.19009584,0.37053874
7273722,0.26988927,-0.19740975,0.3771792
7284879,0.2699407,-0.19356316,0.36032143
7293685,0.27169135,-0.21353415,0.36850274
7304878,0.2716909,-0.20270553,0.36865455
7313727,0.2805532,-0.19014324,0.37393126
7324879,0.2859159,-0.18095349,0.3622382
7333716,0.27348217,-0.2044392,0.36356217
7344879,0.27348202,-0.20082965,0.36361277
7353720,0.27702254,-0.19004843,0.3671571
7364878,0.27525184,-0.18461041,0.36553675
7373740,0.2521738,-0.19361058,0.36364892
7384878,0.26636907,-0.20087706,0.36697274
7393714,0.27878338,-0.20636247,0.3720073
7404884,0.26814008,-0.21353415,0.36849192
7413712,0.26459834,-0.19543904,0.3653524
7424885,0.2716601,-0.2064573,0.37874895
7433729,0.2787826,-0.18831477,0.37226033
7444885,0.27346107,-0.1937054,0.3704773
7453729,0.27880388,-0.20265812,0.36529455
7464885,0.28235525,-0.20265812,0.3653054
7473728,0.2610672,-0.1845156,0.35873002
7484885,0.27526307,-0.20622025,0.36185145
7493729,0.2752218,-0.20640989,0.37537813
7504885,0.2770535,-0.1899062,0.3570121
7513694,0.2823657,-0.20622025,0.36187315
7524908,0.27879307,-0.19187692,0.36882806
7533685,0.27167106,-0.22084805,0.37516487
7544919,0.27171156,-0.20261072,0.36189124
7553736,0.27168074,-0.20636247,0.37198564
7564902,0.2575062,-0.19900118,0.36189848
7573736,0.27347142,-0.19365798,0.36709565
7584886,0.2770549,-0.22239207,0.35655665
7593736,0.2840845,-0.20467623,0.38050303
7604886,0.28232428,-0.20280035,0.3754504
7613736,0.26285887,-0.19707789,0.35348582
7624886,0.2752626,-0.19539164,0.36200327
7633728,0.26457816,-0.20636247,0.37196395
7644887,0.26635873,-0.20092447,0.3703544
7653680,0.26991004,-0.20092447,0.37036526
7664886,0.28057417,-0.19726752,0.3670667
7673692,0.28057417,-0.19726752,0.3670667
7693730,0.28057417,-0.19726752,0.3670667
7704098,0.28057417,-0.19726752,0.3670667
7713656,0.28057417,-0.19726752,0.3670667
7724117,0.28057417,-0.19726752,0.3670667
7733654,0.28057417,-0.19726752,0.3670667
7744086,0.27527294,-0.19534422,0.35862157
7752892,0.27167028,-0.20280035,0.3754179
7763312,0.2876874,-0.2044392,0.36360553
7772886,0.2699304,-0.19361058,0.36370313
7784105,0.26993084,-0.2044392,0.36355132
7792887,0.26991975,-0.18643889,0.367186
7804079,0.2735133,-0.2079065,0.35336655
7812886,0.2770235,-0.21170568,0.36685348
7824079,0.2575059,-0.1917821,0.3619997
7832855,0.2752013,-0.21011424,0.38209087
7844104,0.2735036,-0.22239207,0.3565458
7852855,0.26460943,-0.21343933,0.36171773
7864115,0.2522057,-0.21512559,0.3532003
7872855,0.27347234,-0.21531522,0.36679202
7884079,0.2823762,-0.20978238,0.35844085
7892855,0.28414643,-0.20439178,0.360213
7904078,0.2823449,-0.20270553,0.3686871
7912858,0.27701253,-0.19731493,0.37043753
7924079,0.28061682,-0.22956373,0.3530846
7932866,0.28237635,-0.21339191,0.35839024
7944079,0.2663897,-0.20078224,0.3602094
7952886,0.2699008,-0.22623865,0.3733927
7964054,0.28056398,-0.20092447,0.37039778
7972878,0.2734406,-0.19740975,0.37719005
7984054,0.2752939,-0.20246848,0.35175702
7992900,0.26635966,-0.22258171,0.3700508
8004055,0.28946835,-0.20622025,0.36189482
8012904,0.25750697,-0.21704888,0.36164546
8024055,0.27882454,-0.2025633,0.3585312
8032879,0.27878338,-0.20636247,0.3720073
8044055,0.26635936,-0.21536264,0.370152
8052878,0.2717328,-0.21695407,0.35492545
8064055,0.2752834,-0.19890636,0.35518932
8072878,0.2681404,-0.22075324,0.3683907
8084054,0.26287013,-0.21868771,0.34980056
8092880,0.28057462,-0.20809613,0.36691493
8104079,0.28410563,-0.21541004,0.37358788
8112908,0.26994115,-0.20439178,0.36016965
8124078,0.26817092,-0.20978238,0.35839748
8132904,0.25747555,-0.20636247,0.37194228
8143254,0.2841885,-0.22224985,0.3464333
8152879,0.2610578,-0.20622025,0.3618081
8163281,0.27350315,-0.21156345,0.35669762
8172880,0.26817077,-0.20617284,0.3584481
8183290,0.28060558,-0.2079539,0.35676992
8192880,0.28060558,-0.2079539,0.35676992
8203275,0.28060558,-0.2079539,0.35676992
8212880,0.28060558,-0.2079539,0.35676992
8223255,0.28060558,-0.2079539,0.35676992
8232880,0.28060558,-0.2079539,0.35676992
8243294,0.28060558,-0.2079539,0.35676992
8252079,0.28233504,-0.21358155,0.37191695
8263278,0.24863376,-0.2152204,0.35995278
8272079,0.27347186,-0.2044866,0.36694384
8283294,0.26644224,-0.22220244,0.34299743
8292079,0.269931,-0.20804873,0.3635007
8303286,0.26996213,-0.21151605,0.3533051
8312079,0.28059557,-0.2152204,0.36005035
8323287,0.28414658,-0.20800132,0.3601624
8332079,0.2930101,-0.22431536,0.3650343
8343331,0.26285964,-0.21512559,0.35323283
8352079,0.2788037,-0.19904858,0.36534515
8363323,0.271712,-0.21343933,0.36173943
8372086,0.2681914,-0.20607802,0.35168475
8383330,0.2682019,-0.20964015,0.34825248
8392086,0.2645991,-0.21348673,0.3650994
8403321,0.284095,-0.20823836,0.37707075
8412086,0.26460975,-0.22065842,0.36161652
8423278,0.2681917,-0.2132971,0.35158354
8432099,0.27169183,-0.22436278,0.36835092
8443279,0.27166072,-0.22089547,0.37854654
8452106,0.26103714,-0.20631507,0.36857143
8463278,0.26994115,-0.20439178,0.36016965
8472065,0.26106876,-0.220611,0.35822397
8483278,0.27345154,-0.2118005,0.37360597
8492079,0.2610581,-0.21343933,0.36170688
8503279,0.27172235,-0.21339191,0.3583577
8512104,0.26994163,-0.2152204,0.36001784
8523288,0.2699105,-0.2117531,0.37021345
8532113,0.2628385,-0.20439178,0.36014795
8543279,0.26815104,-0.22792488,0.3649078
8552081,0.26638,-0.21526782,0.36338866
8562486,0.27350238,-0.19351575,0.35695064
8572100,0.261037,-0.20270553,0.36862203
8582486,0.25923595,-0.21184792,0.37694427
8592120,0.26106828,-0.20978238,0.3583758
8602498,0.26280755,-0.20453401,0.37029296
8612088,0.27171123,-0.19539164,0.36199245
8622486,0.2681301,-0.22080064,0.37177238
8632105,0.27526322,-0.20982979,0.36180085
8642486,0.2645894,-0.2279723,0.36827865
8652055,0.2734931,-0.21882994,0.35997805
8662486,0.26639974,-0.19351575,0.35692894
8672055,0.26816028,-0.20261072,0.3618804
8682486,0.2521746,-0.21165828,0.3633959
8692055,0.27521113,-0.19923823,0.378861
8702486,0.2823455,-0.2171437,0.36848468
8712061,0.2823455,-0.2171437,0.36848468
8722487,0.2823455,-0.2171437,0.36848468
8732056,0.2823455,-0.2171437,0.36848468
8742487,0.2823455,-0.2171437,0.36848468
8752879,0.2823455,-0.2171437,0.36848468
8762487,0.2823455,-0.2171437,0.36848468
8772880,0.2823455,-0.2171437,0.36848468
8782487,0.2823455,-0.2171437,0.36848468
8791255,0.27703333,-0.20082965,0.3636236
8802486,0.26636955,-0.21170568,0.36682096
8811255,0.26459867,-0.20265812,0.36525118
8822486,0.26991034,-0.20814355,0.37026405
8831254,0.28230393,-0.21011424,0.38211256
8842486,0.27348217,-0.2044392,0.36356217
8851255,0.28410563,-0.21541004,0.37358788
8862486,0.27701268,-0.20092447,0.37038693
8871254,0.26815012,-0.20626765,0.36521143
8882486,0.26635888,-0.20453401,0.3703038
8892078,0.26635858,-0.19731493,0.37040502
8902537,0.26991066,-0.21536264,0.37016284
8911279,0.27351347,-0.21151605,0.35331595
8922477,0.24507226,-0.21887736,0.36327302
8931278,0.26634842,-0.20097187,0.37373608
8942477,0.264568,-0.21001942,0.37529498
8951293,0.27343133,-0.22272393,0.38021746
8962477,0.25392434,-0.20997201,0.37188083
8971278,0.26104763,-0.2098772,0.36513916
8981690,0.273472,-0.20809613,0.36689323
8991279,0.26458862,-0.20992461,0.36853167
9001686,0.26462978,-0.20612544,0.35505557
9011279,0.2681096,-0.224505,0.3784851
9021678,0.27348188,-0.19722012,0.36366338
9031279,0.26105824,-0.21704888,0.3616563
9041654,0.25924626,-0.2118005,0.3735626
9051279,0.26102746,-0.22080064,0.3717507
9061669,0.25747585,-0.21358155,0.37184107
9071279,0.25926706,-0.21531522,0.36674866
9081654,0.25215423,-0.21897218,0.37005803
9091279,0.25039372,-0.2098772,0.36510664
9101653,0.26638,-0.21526782,0.36338866
9111279,0.27701345,-0.21897218,0.3701339
9121654,0.2699105,-0.2117531,0.37021345
9131300,0.2664008,-0.21878253,0.35657474
9141654,0.26812977,-0.21358155,0.3718736
9151279,0.2574965,-0.21348673,0.3650777
9161669,0.26102668,-0.20275293,0.3720037
9171291,0.27349263,-0.20800132,0.36012986
9181678,0.27169058,-0.19548646,0.36875576
9191297,0.24860263,-0.2117531,0.3701484
9201678,0.25391388,-0.20640989,0.37531307
9211301,0.26991034,-0.20814355,0.37026405
9221711,0.27167106,-0.22084805,0.37516487
9232056,0.27167106,-0.22084805,0.37516487
9241717,0.27167106,-0.22084805,0.37516487
9252080,0.27167106,-0.22084805,0.37516487
9261685,0.27167106,-0.22084805,0.37516487
9271324,0.27167106,-0.22084805,0.37516487
9281685,0.27167106,-0.22084805,0.37516487
9290486,0.2717225,-0.21700147,0.3583071
9301696,0.2538929,-0.19928563,0.38217765
9310481,0.26104748,-0.20626765,0.36518976
9321685,0.26100647,-0.21367638,0.37861523
9330479,0.25572556,-0.2044392,0.36350796
9341679,0.26812977,-0.21358155,0.3718736
9350522,0.2645786,-0.2171911,0.37181213
9360893,0.26461932,-0.2025633,0.35848784
9370485,0.27345198,-0.22262911,0.37345415
9381679,0.26985857,-0.20477106,0.387223
9390486,0.25749665,-0.21709628,0.3650271
9401679,0.24855117,-0.21559969,0.38700616
9410485,0.2539345,-0.20631507,0.36854976
9421654,0.24859184,-0.20097187,0.37368187
9430486,0.24861325,-0.21892476,0.36666554
9441679,0.25569475,-0.20819095,0.37360236
9450486,0.26100618,-0.2064573,0.37871644
9461679,0.25576812,-0.23312588,0.34957647
9470479,0.24504098,-0.2118005,0.37351924
9481679,0.26104748,-0.20626765,0.36518976
9490505,0.2628188,-0.22614384,0.3666077
9501680,0.25567394,-0.20467623,0.3804163
9510517,0.26102698,-0.20997201,0.3719025
9520928,0.24862295,-0.2044392,0.36348626
9530479,0.26633874,-0.21545745,0.37691537
9540921,0.2503829,-0.199096,0.36864012
9550479,0.25040403,-0.20982979,0.36172497
9560955,0.26103744,-0.21353415,0.36847022
9570455,0.25392404,-0.20275293,0.37198204
9580925,0.26989004,-0.21545745,0.37692618
9590455,0.25391388,-0.20640989,0.37531307
9600886,0.2397091,-0.21723852,0.3751179
9610455,0.26631823,-0.21916181,0.38362807
9620886,0.25215346,-0.20092447,0.37031105
9630468,0.275201,-0.20289516,0.38219208
9640886,0.2539556,-0.21704888,0.3616346
9650455,0.253945,-0.2098772,0.36511746
9660886,0.26103744,-0.21353415,0.36847022
9670455,0.2752324,-0.21358155,0.37189525
9680886,0.24506178,-0.21531522,0.3667053
9690455,0.26806754,-0.20664693,0.39226478
9700886,0.2539145,-0.22084805,0.37511066
9710479,0.2574965,-0.21348673,0.3650777
9720887,0.2574965,-0.21348673,0.3650777
9730480,0.2574965,-0.21348673,0.3650777
9740887,0.2574965,-0.21348673,0.3650777
9751280,0.2574965,-0.21348673,0.3650777
9760887,0.2574965,-0.21348673,0.3650777
9771280,0.2574965,-0.21348673,0.3650777
9780886,0.2574965,-0.21348673,0.3650777
9790478,0.25213313,-0.20823836,0.3769732
9800886,0.24329092,-0.20626765,0.36513555
9809718,0.26102698,-0.20997201,0.3719025
9820886,0.25744474,-0.21011424,0.3820367
9829686,0.25746524,-0.20640989,0.37532392
9840854,0.26812947,-0.20636247,0.3719748
9849686,0.2645985,-0.19904858,0.3653018
9860854,0.25571525,-0.2044866,0.36688963
9869686,0.25215393,-0.2117531,0.37015924
9880854,0.25922498,-0.19745715,0.38052833
9889686,0.26279646,-0.1865337,0.37392765
9900854,0.2557362,-0.21161087,0.36002508
9909686,0.25923532,-0.19740975,0.3771467
9920079,0.25746492,-0.19919081,0.37542513
9929686,0.25039387,-0.21348673,0.36505604
9940079,0.25749606,-0.20265812,0.36522952
9949686,0.26100585,-0.19923823,0.37881765
9960079,0.26989973,-0.20097187,0.37374693
9969685,0.25927675,-0.20082965,0.3635694
9980093,0.26632807,-0.20828576,0.3803982
9989686,0.26097506,-0.20298998,0.38891205
10000055,0.25746492,-0.19919081,0.37542513
10010479,0.2574965,-0.21348673,0.3650777
10020055,0.2610265,-0.1991434,0.3720543
10029686,0.25393403,-0.19548646,0.36870155
10040054,0.2716804,-0.1991434,0.37208685
10049686,0.26459834,-0.19543904,0.3653524
10060055,0.2432812,-0.22075324,0.3683148
10069687,0.27340975,-0.20116152,0.38728446
10080055,0.26456752,-0.19919081,0.3754468
10089686,0.26632807,-0.20828576,0.3803982
10100065,0.25566378,-0.20833318,0.38374737
10109686,0.25923485,-0.18658112,0.3772985
10120086,0.2610262,-0.19192432,0.37215552
10129686,0.2592669,-0.21170568,0.36679927
10140106,0.26455644,-0.18119054,0.37908152
10149686,0.25568384,-0.19380021,0.37718645
10160114,0.24678984,-0.188457,0.38230777
10169686,0.26635873,-0.20092447,0.3703544
10180090,0.26812947,-0.20636247,0.3719748
10189685,0.2663176,-0.20472364,0.3838305
10200102,0.27875227,-0.20289516,0.38220292
10210487,0.27875227,-0.20289516,0.38220292
10220086,0.27875227,-0.20289516,0.38220292
10230480,0.27875227,-0.20289516,0.38220292
10240086,0.27875227,-0.20289516,0.38220292
10250455,0.27875227,-0.20289516,0.38220292
10260086,0.26101667,-0.21001942,0.37528417
10268879,0.26808742,-0.18850441,0.38575447
10280112,0.2574241,-0.21020906,0.3888
10288889,0.25923517,-0.19380021,0.3771973
10299278,0.27163884,-0.19211397,0.3857147
10308886,0.26102668,-0.20275293,0.3720037
10319278,0.26987877,-0.19384761,0.38061145
10328886,0.26278648,-0.19380021,0.37720814
10340079,0.25212264,-0.20467623,0.38040546
10348895,0.27347234,-0.21531522,0.36679202
10359278,0.24322881,-0.20294258,0.38547617
10369679,0.26276505,-0.17584732,0.38422447
10379278,0.259245,-0.18292417,0.3739674
10388922,0.26459897,-0.2098772,0.36515
10399278,0.25390306,-0.19562869,0.37884656
10408891,0.2645267,-0.21020906,0.3888217
10419278,0.26635826,-0.19009584,0.37050623
10428911,0.24147888,-0.20101929,0.37704188
10439278,0.27518,-0.1957709,0.38905662
10448887,0.25741348,-0.2030374,0.39228287
10459278,0.26988912,-0.19380021,0.3772298
10468854,0.259204,-0.19033289,0.3873929
10479279,0.25571525,-0.2044866,0.36688963
10488879,0.2645677,-0.20280035,0.3753962
10499279,0.26454657,-0.19206655,0.38231137
10508878,0.27700236,-0.20097187,0.3737686
10519279,0.2503521,-0.20284776,0.37873453
10528855,0.26101696,-0.21723852,0.37518296
10539279,0.26103744,-0.21353415,0.36847022
10548880,0.25211203,-0.19750457,0.38388833
10559279,0.26452622,-0.19938044,0.3889735
10568882,0.26452684,-0.2138186,0.3887711
10579279,0.26277673,-0.20828576,0.38038737
10588855,0.25033072,-0.18489487,0.38575086
10599292,0.24679986,-0.18119054,0.3790273
10608854,0.2521319,-0.17936206,0.37737802
10619291,0.25388244,-0.1957235,0.3856099
10629684,0.26456738,-0.19558127,0.3754974
10639278,0.25392386,-0.1991434,0.37203264
10648879,0.24323899,-0.19928563,0.38214514
10659278,0.26629665,-0.19759938,0.39069507
10668879,0.25924563,-0.19736233,0.37376502
10679288,0.25037277,-0.20275293,0.3719712
10688879,0.261037,-0.20270553,0.36862203
10699279,0.25035226,-0.2064573,0.37868392
10708879,0.25037292,-0.20636247,0.3719206
10719300,0.25391403,-0.21001942,0.37526247
10728889,0.2503629,-0.21362896,0.37520105
10739279,0.2503629,-0.21362896,0.37520105
10749721,0.2503629,-0.21362896,0.37520105
10759280,0.2503629,-0.21362896,0.37520105
10769680,0.2503629,-0.21362896,0.37520105
10779280,0.2503629,-0.21362896,0.37520105
10789679,0.2503629,-0.21362896,0.37520105
10799256,0.2503629,-0.21362896,0.37520105
10808079,0.26100603,-0.20284776,0.37876704
10819268,0.24858136,-0.19740975,0.37711418
10828091,0.2503732,-0.21358155,0.37181938
10839316,0.26451653,-0.21386601,0.39215273
10848086,0.26277614,-0.19384761,0.38058978
10858478,0.23969801,-0.19923823,0.3787526
10868124,0.2645156,-0.19220878,0.39245635
10878478,0.25210246,-0.21559969,0.387017
10888113,0.24856102,-0.20472364,0.38377628
10898479,0.24856056,-0.19389503,0.3839281
10908101,0.27164945,-0.19928563,0.38223186
10918508,0.25211218,-0.2011141,0.38383773
10928086,0.24322897,-0.20655212,0.38542557
10938483,0.25034195,-0.2065047,0.3820656
10948093,0.24501956,-0.19384761,0.38053557
10958454,0.26458862,-0.20992461,0.36853167
10968055,0.24857119,-0.20106669,0.3804452
10978455,0.25744522,-0.22094287,0.38188487
10988085,0.2521533,-0.19731493,0.37036166
10998455,0.24683174,-0.20270553,0.36857867
11008105,0.2663381,-0.20101929,0.37711775
11018454,0.26100603,-0.20284776,0.37876704
11028125,0.23438598,-0.1865337,0.37384093
11038454,0.25570446,-0.1937054,0.37042308
11048093,0.24680124,-0.21367638,0.37857187
11058484,0.25213283,-0.20101929,0.3770744
11068128,0.2574552,-0.21367638,0.37860438
11078485,0.2609854,-0.20294258,0.38553038
11088085,0.277003,-0.21541004,0.37356618
11098491,0.24680094,-0.2064573,0.37867308
11108086,0.25923577,-0.20823836,0.37699488
11118484,0.25567394,-0.20467623,0.3804163
11128085,0.25036246,-0.20280035,0.37535283
11138485,0.27163914,-0.19933304,0.3856135
11148085,0.25395516,-0.20622025,0.36178643
11158485,0.24146809,-0.19023806,0.38057533
11168098,0.26103806,-0.2279723,0.3682678
11178492,0.25393495,-0.2171437,0.36839795
11188082,0.26454735,-0.21011424,0.38205835
11198492,0.2716806,-0.20275293,0.37203625
11208087,0.25213298,-0.20462883,0.3770238
11218486,0.27346152,-0.20453401,0.37032548
11228079,0.25924516,-0.1865337,0.3739168
11238486,0.250331,-0.19211397,0.38564965
11249679,0.26457816,-0.20636247,0.37196395
11258486,0.26987922,-0.20467623,0.38045967
11269679,0.24858214,-0.21545745,0.37686116
11278486,0.27167058,-0.21001942,0.37531668
11288112,0.27167058,-0.21001942,0.37531668
11298487,0.27167058,-0.21001942,0.37531668
11308111,0.27167058,-0.21001942,0.37531668
11318480,0.27167058,-0.21001942,0.37531668
11328056,0.27167058,-0.21001942,0.37531668
11338509,0.27167058,-0.21001942,0.37531668
11348055,0.27167058,-0.21001942,0.37531668
11358498,0.27167058,-0.21001942,0.37531668
11367286,0.26280847,-0.22619125,0.36998934
11377705,0.25920478,-0.2083806,0.3871399
11387286,0.26459944,-0.22070582,0.3649982
11397679,0.25570524,-0.2117531,0.3701701
11407287,0.25745505,-0.21006684,0.378655
11417679,0.25036305,-0.21723852,0.37515044
11427279,0.24682204,-0.2171911,0.37175792
11437678,0.25925657,-0.2117531,0.3701809
11447279,0.25925717,-0.22619125,0.36997852
11457679,0.2574657,-0.21723852,0.3751721
11467255,0.24685238,-0.20261072,0.36181533
11477679,0.2574754,-0.20275293,0.3719929
11487269,0.25569445,-0.20097187,0.37370357
11497679,0.25924593,-0.20458141,0.3736638
11507255,0.25747663,-0.23162927,0.37158805
11517679,0.239688,-0.2065047,0.38203308
11527255,0.26104793,-0.21709628,0.36503795
11537679,0.25037307,-0.20997201,0.37186998
11547262,0.26282868,-0.21526782,0.36337784
11557679,0.24684285,-0.22070582,0.36494398
11567279,0.26281804,-0.20809613,0.36686072
11577679,0.25568476,-0.21545745,0.37688282
11587255,0.24856119,-0.20833318,0.38372567
11597678,0.260996,-0.21011424,0.3820475
11607328,0.24683206,-0.20992461,0.36847746
11617679,0.2645369,-0.20655212,0.3854906
11627329,0.2503524,-0.21006684,0.37863332
11637690,0.25211266,-0.21194273,0.38368592
11647302,0.26632792,-0.20467623,0.38044882
11657692,0.25037336,-0.2171911,0.37176877
11667303,0.26097536,-0.21020906,0.38881084
11677706,0.24857134,-0.20467623,0.3803946
11687315,0.26280788,-0.2117531,0.37019175
11697679,0.24329153,-0.22070582,0.36493313
11708115,0.25744474,-0.21011424,0.3820367
11717678,0.24858229,-0.21906699,0.37681055
11728886,0.24857211,-0.22272393,0.3801416
11737654,0.25747663,-0.23162927,0.37158805
11748096,0.2539348,-0.21353415,0.36844856
11757655,0.24862358,-0.21887736,0.36328387
11768886,0.25567472,-0.22272393,0.38016328
11777655,0.24328135,-0.22436278,0.3682642
11788892,0.25569522,-0.21901958,0.37345055
11797655,0.24151061,-0.21892476,0.36664385
11808954,0.25037277,-0.20275293,0.3719712
11817655,0.25746617,-0.22806711,0.3750203
11828888,0.2503529,-0.22089547,0.3784815
11837656,0.2503529,-0.22089547,0.3784815
11847280,0.2503529,-0.22089547,0.3784815
11857656,0.2503529,-0.22089547,0.3784815
11867279,0.2503529,-0.22089547,0.3784815
11877686,0.2503529,-0.22089547,0.3784815
11897698,0.2503529,-0.22089547,0.3784815
11907293,0.2503529,-0.22089547,0.3784815
11916855,0.27167073,-0.21362896,0.37526608
11926509,0.24325038,-0.224505,0.3784092
11936866,0.25212327,-0.2191144,0.38020304
11946508,0.2539348,-0.21353415,0.36844856
11956901,0.26101714,-0.22084805,0.37513235
11966479,0.26810926,-0.21728593,0.37858632
11976907,0.2609857,-0.21016166,0.38542917
11986481,0.25212297,-0.21189532,0.38030425
11996948,0.2557257,-0.20804873,0.36345735
12006479,0.24328105,-0.2171437,0.3683654
12016921,0.24853036,-0.21208496,0.3938201
12026479,0.25744444,-0.20289516,0.3821379
12036878,0.25392464,-0.2171911,0.37177962
12046486,0.2609752,-0.20659952,0.38886145
12056878,0.2574241,-0.21020906,0.3888
12066486,0.27171186,-0.20982979,0.36179003
12076878,0.26282898,-0.2224869,0.36327663
12086486,0.25212312,-0.21550485,0.38025364
12096878,0.2521228,-0.20828576,0.38035485
12106488,0.25922498,-0.19745715,0.38052833
12116878,0.26104763,-0.2098772,0.36513916
12126487,0.25211248,-0.20833318,0.38373652
12136879,0.25038368,-0.2171437,0.3683871
12146487,0.24138612,-0.2050555,0.4074263
12156879,0.24859247,-0.21541004,0.37347946
12167254,0.25390416,-0.22089547,0.37849236
12176878,0.26100725,-0.2317241,0.3783622
12188078,0.2556436,-0.21925662,0.39035892
12196879,0.25569522,-0.21901958,0.37345055
12206528,0.24502079,-0.22272393,0.38013074
12216879,0.26100603,-0.20284776,0.37876704
12228078,0.2592262,-0.22633347,0.3801235
12236879,0.24502002,-0.20467623,0.38038376
12248092,0.24857181,-0.21550485,0.3802428
12256879,0.24329121,-0.21348673,0.36503434
12268086,0.24680094,-0.2064573,0.37867308
12276879,0.25747618,-0.22080064,0.37173986
12288086,0.24147888,-0.20101929,0.37704188
12296879,0.24682173,-0.20997201,0.37185913
12308086,0.25037292,-0.20636247,0.3719206
12316879,0.26101682,-0.21362896,0.37523356
12328086,0.26097584,-0.22103769,0.38865903
12336879,0.26101682,-0.21362896,0.37523356
12348086,0.25926673,-0.20809613,0.36684987
12356879,0.25926673,-0.20809613,0.36684987
12376880,0.25926673,-0.20809613,0.36684987
12396892,0.25926673,-0.20809613,0.36684987
12416911,0.25926673,-0.20809613,0.36684987
12436880,0.25926673,-0.20809613,0.36684987
12445655,0.2592256,-0.21189532,0.3803259
12456086,0.24151015,-0.20809613,0.36679566
12465655,0.25564346,-0.21564709,0.39040953
12476086,0.26273593,-0.21930404,0.39376226
12485655,0.25919446,-0.208428,0.39052156
12496086,0.25920525,-0.21920922,0.38698807
12505655,0.25031066,-0.19942786,0.39231178
12516086,0.2681193,-0.21001942,0.37530583
12525655,0.25920448,-0.20116152,0.3872411
12536086,0.2556735,-0.19384761,0.3805681
12545679,0.24324977,-0.21006684,0.37861162
12556099,0.24679092,-0.21372378,0.38195354
12565679,0.25571588,-0.21892476,0.3666872
12576120,0.24859215,-0.20819095,0.37358066
12586479,0.26279724,-0.20458141,0.37367463
12596127,0.2591948,-0.21564709,0.39042035
12607285,0.2628074,-0.20092447,0.37034357
12616115,0.25923532,-0.19740975,0.3771467
12627285,0.26098648,-0.22820935,0.38517615
12636112,0.24860263,-0.2117531,0.3701484
12647285,0.2663386,-0.21184792,0.37696597
12656086,0.26810881,-0.2064573,0.37873814
12667286,0.23968814,-0.21011424,0.38198248
12676055,0.24144883,-0.22281876,0.38688326
12687279,0.25034225,-0.21372378,0.3819644
12696055,0.26102683,-0.20636247,0.3719531
12707279,0.24502002,-0.20467623,0.38038376
12716084,0.2645583,-0.224505,0.37847427
12727278,0.25566363,-0.20472364,0.38379797
12736082,0.25041467,-0.21700147,0.35824206
12747279,0.2503629,-0.21362896,0.37520105
12756055,0.25389367,-0.21733333,0.38192463
12767279,0.25390384,-0.21367638,0.37859356
12776055,0.24859262,-0.21901958,0.37342888
12787286,0.24680187,-0.22811453,0.37836945
12796054,0.24151015,-0.20809613,0.36679566
12807279,0.25034225,-0.21372378,0.3819644
12816085,0.2592364,-0.22267653,0.37679246
12827254,0.25214377,-0.21541004,0.3734903
12836085,0.2485507,-0.20477106,0.38715798
12847254,0.26101667,-0.21001942,0.37528417
12856090,0.2610373,-0.20992461,0.36852083
12867323,0.2627769,-0.21189532,0.38033676
12876085,0.2486034,-0.22980078,0.36989537
12887268,0.25032115,-0.20298998,0.38887954
12896086,0.24859262,-0.21901958,0.37342888
12907255,0.2521744,-0.20804873,0.3634465
12916086,0.2521744,-0.20804873,0.3634465
12936086,0.2521744,-0.20804873,0.3634465
12956079,0.2521744,-0.20804873,0.3634465
12976080,0.2521744,-0.20804873,0.3634465
12995292,0.253894,-0.22455241,0.38182342
13004912,0.25569552,-0.22623865,0.37334934
13015292,0.25923654,-0.22628607,0.37674186
13024879,0.26986906,-0.20833318,0.38379073
13035353,0.26985872,-0.2083806,0.3871724
13044879,0.24322411,-0.2137949,0.3870152
13046497,0.24324992,-0.21367638,0.37856102
13055311,0.26453656,-0.19933304,0.3855918
13064879,0.25208786,0.2464452,0.39180338
13066465,0.25214377,-0.21541004,0.3734903
13075302,0.25568366,-0.19019066,0.37723705
13085720,0.2538929,-0.19928563,0.38217765
13095293,0.24323976,-0.21733333,0.3818921
13106479,0.25748616,-0.21353415,0.36845937
13115300,0.24327073,-0.2171911,0.3717471
13126479,0.26631775,-0.20833318,0.38377988
13135285,0.24682158,-0.20636247,0.37190974
13146478,0.25922576,-0.21550485,0.3802753
13155279,0.26279816,-0.22623865,0.37337103
13166478,0.26275626,-0.21199015,0.38710013
13175295,0.24503082,-0.21545745,0.3768503
13186503,0.25391355,-0.19919081,0.37541428
13195280,0.26101682,-0.21362896,0.37523356
13206510,0.26101696,-0.21723852,0.37518296
13215280,0.25392464,-0.2171911,0.37177962
13226514,0.2432393,-0.2065047,0.38204393
13235280,0.2539348,-0.21353415,0.36844856
13245678,0.2521744,-0.20804873,0.3634465
13255298,0.25390354,-0.2064573,0.37869477
13266486,0.25389352,-0.21372378,0.38197523
13275322,0.26280847,-0.22619125,0.36998934
13286486,0.2539037,-0.21006684,0.37864417
13296105,0.2663592,-0.2117531,0.3702026
13306486,0.26632825,-0.21189532,0.3803476
13315279,0.25207195,-0.22657052,0.3970102
13326486,0.26097584,-0.22103769,0.38865903
13335291,0.25215408,-0.21536264,0.37010863
13346486,0.24146947,-0.22272393,0.38011992
13355279,0.24680124,-0.21367638,0.37857187
13366486,0.2468527,-0.20982979,0.36171412
13375279,0.24858151,-0.20101929,0.37706357
13386486,0.24326009,-0.21001942,0.37522995
13395279,0.25927782,-0.22609644,0.36321518
13406486,0.2539148,-0.22806711,0.37500945
13415280,0.2539148,-0.22806711,0.37500945
13435280,0.2539148,-0.22806711,0.37500945
13455292,0.2539148,-0.22806711,0.37500945
13475295,0.2539148,-0.22806711,0.37500945
13484098,0.25743473,-0.21738075,0.38531712
13494486,0.252206,-0.22234467,0.35309908
13504121,0.24685316,-0.22065842,0.36156234
13514486,0.25571632,-0.22975336,0.3665354
13524905,0.25569507,-0.21541004,0.37350115
13534487,0.24151076,-0.2225343,0.36659324
13545690,0.25743458,-0.2137712,0.38536772
13554486,0.26281837,-0.21531522,0.3667595
13565704,0.24681155,-0.21362896,0.3751902
13574486,0.25390384,-0.21367638,0.37859356
13585692,0.26639,-0.20800132,0.3601082
13594486,0.25213313,-0.20823836,0.3769732
13604079,0.25568444,-0.20823836,0.37698403
13614455,0.2574962,-0.20626765,0.3651789
13625687,0.26281837,-0.21531522,0.3667595
13634455,0.25930786,-0.20429696,0.3533738
13645700,0.26641127,-0.22234467,0.35314244
13654455,0.26100647,-0.21367638,0.37861523
13665721,0.25571558,-0.21170568,0.36678842
13674455,0.24504067,-0.20458141,0.37362045
13685678,0.24857181,-0.21550485,0.3802428
13694455,0.26278725,-0.21184792,0.37695512
13705679,0.25929818,-0.21878253,0.35655305
13714455,0.2645783,-0.20997201,0.37191334
13725679,0.26104778,-0.21348673,0.36508855
13734455,0.2717225,-0.21700147,0.3583071
13745654,0.25036246,-0.20280035,0.37535283
13754455,0.26636955,-0.21170568,0.36682096
13765655,0.2574657,-0.21723852,0.3751721
13774508,0.2627974,-0.20819095,0.37362403
13785654,0.25576702,-0.20785908,0.3499307
13794521,0.25215423,-0.21897218,0.37005803
13805654,0.26454687,-0.19928563,0.38221017
13814514,0.2610581,-0.21343933,0.36170688
13825654,0.25567457,-0.2191144,0.3802139
13834519,0.26284948,-0.21878253,0.3565639
13845654,0.2574868,-0.2279723,0.368257
13854487,0.25396565,-0.20978238,0.35835412
13865655,0.2539345,-0.20631507,0.36854976
13874540,0.24861357,-0.22614384,0.36656433
13885678,0.2610481,-0.22070582,0.36498734
13894525,0.26635996,-0.22980078,0.36994958
13905678,0.25394484,-0.20626765,0.36516806
13914486,0.2468527,-0.20982979,0.36171412
13925708,0.26988956,-0.20462883,0.377078
13934486,0.26455796,-0.21728593,0.37857547
13944854,0.25213298,-0.20462883,0.3770238
13954486,0.25390416,-0.22089547,0.37849236
13964859,0.25925717,-0.22619125,0.36997852
13974486,0.25925717,-0.22619125,0.36997852
13984854,0.25925717,-0.22619125,0.36997852
13994486,0.25925717,-0.22619125,0.36997852
14004856,0.25925717,-0.22619125,0.36997852
14014487,0.25925717,-0.22619125,0.36997852
14024879,0.25925717,-0.22619125,0.36997852
14033729,0.26105872,-0.22787748,0.3615045
14043344,0.26107875,-0.21334451,0.35494354
14053729,0.26634935,-0.22262911,0.37343246
14064879,0.27170184,-0.21709628,0.36507046
14074486,0.252143,-0.19736233,0.37374333
14084878,0.25752717,-0.20612544,0.3550339
14093718,0.2503737,-0.22441018,0.37166756
14103300,0.25570062,-0.22441018,0.37168384
14104879,0.25569507,-0.21541004,0.37350115
14113747,0.27524304,-0.22075324,0.36841238
14123317,0.2592621,-0.22075324,0.3683636
14124882,0.2592672,-0.21892476,0.36669806
14133714,0.26991096,-0.22258171,0.37006164
14144879,0.26279756,-0.2118005,0.37357342
14154486,0.24506178,-0.21531522,0.3667053
14164879,0.26986924,-0.21194273,0.38374013
14173706,0.26635936,-0.21536264,0.370152
14184879,0.25571588,-0.21892476,0.3666872
14193720,0.24503066,-0.21184792,0.3769009
14204879,0.24864392,-0.21156345,0.35662174
14213680,0.25749665,-0.21709628,0.3650271
14224903,0.2681717,-0.22783007,0.35814446
14233701,0.2592361,-0.21545745,0.37689367
14244947,0.26102698,-0.20997201,0.3719025
14254486,0.25571588,-0.21892476,0.3666872
14264920,0.25394484,-0.20626765,0.36516806
14273708,0.25215423,-0.21897218,0.37005803
14284898,0.2539971,-0.22046877,0.3480573
14294455,0.25392434,-0.20997201,0.37188083
14304912,0.25039387,-0.21348673,0.36505604
14313722,0.255747,-0.22239207,0.3564916
14324885,0.25218505,-0.2152204,0.35996363
14333711,0.2663703,-0.22975336,0.36656794
14344885,0.25745568,-0.224505,0.37845257
14353718,0.26280832,-0.22258171,0.37003994
14364885,0.26813978,-0.20631507,0.36859313
14373684,0.25750652,-0.20622025,0.36179727
14384885,0.26276705,-0.22277135,0.38356665
14393689,0.25752762,-0.21695407,0.3548821
14404086,0.24153112,-0.2152204,0.3599311
14413718,0.24680233,-0.23894317,0.37821764
14424092,0.2468638,-0.22783007,0.3580794
14433655,0.25929832,-0.22239207,0.35650244
14444092,0.27172282,-0.22422054,0.35820588
14453685,0.2592669,-0.21170568,0.36679927
14464093,0.24860294,-0.21897218,0.37004718
14473680,0.24860294,-0.21897218,0.37004718
14484093,0.24860294,-0.21897218,0.37004718
14493680,0.24860294,-0.21897218,0.37004718
14504064,0.24860294,-0.21897218,0.37004718
14513717,0.24860294,-0.21897218,0.37004718
14524080,0.24860294,-0.21897218,0.37004718
14533721,0.24860294,-0.21897218,0.37004718
14544079,0.2645891,-0.22075324,0.36837986
14552855,0.25928846,-0.23326811,0.3597323
14564091,0.25036246,-0.20280035,0.37535283
14572855,0.25921574,-0.22277135,0.3835558
14584116,0.266329,-0.22994299,0.3800946
14592855,0.2592672,-0.21892476,0.36669806
14604079,0.2557054,-0.21536264,0.37011948
14613735,0.26991096,-0.22258171,0.37006164
14624079,0.24504144,-0.22262911,0.37336743
14632855,0.23974007,-0.21709628,0.3649729
14644079,0.26107937,-0.22778267,0.35474113
14652854,0.24329138,-0.21709628,0.36498374
14664078,0.2521849,-0.21161087,0.36001423
14672855,0.25575745,-0.2259542,0.35305932
14684055,0.25393558,-0.23158187,0.36819553
14692885,0.24509306,-0.22239207,0.35645908
14704054,0.2486131,-0.21531522,0.36671615
14712885,0.2610481,-0.22070582,0.36498734
14724054,0.25394577,-0.22792488,0.36486444
14732885,0.25751793,-0.23143964,0.35806134
14744054,0.25925732,-0.22980078,0.3699279
14752886,0.24684285,-0.22070582,0.36494398
14763300,0.2699008,-0.22623865,0.3733927
14772885,0.25569567,-0.22984818,0.37329873
14784072,0.2575073,-0.22426796,0.36154425
14792885,0.25039464,-0.23153445,0.36480302
14804055,0.26106906,-0.22783007,0.35812277
14812885,0.2486239,-0.22609644,0.36318266
14824054,0.250415,-0.22422054,0.35814086
14832904,0.26458862,-0.20992461,0.36853167
14844091,0.24867581,-0.23307848,0.3461731
14852907,0.25393528,-0.22436278,0.36829674
14863254,0.25753856,-0.23134482,0.351298
14872879,0.24864423,-0.21878253,0.35652053
14883280,0.25924686,-0.22623865,0.3733602
14892879,0.24325038,-0.224505,0.3784092
14903268,0.24509306,-0.22239207,0.35645908
14912879,0.25042498,-0.21695407,0.35486042
14923254,0.241563,-0.23673542,0.3494825
14932879,0.25217518,-0.22609644,0.36319348
14943254,0.2485826,-0.22628607,0.37670934
14952879,0.25398657,-0.21690665,0.35148957
14963278,0.23977196,-0.23861131,0.35452428
14972879,0.2539869,-0.22412573,0.35138837
14983278,0.26640144,-0.2332207,0.35637233
14992880,0.26640144,-0.2332207,0.35637233
15003280,0.26640144,-0.2332207,0.35637233
15023289,0.26640144,-0.2332207,0.35637233
15033677,0.26640144,-0.2332207,0.35637233
15043279,0.26640144,-0.2332207,0.35637233
15052880,0.26640144,-0.2332207,0.35637233
15063278,0.24332295,-0.23139223,0.3546363
15072112,0.26455796,-0.21728593,0.37857547
15083278,0.26460004,-0.23514399,0.36479577
15092086,0.25219554,-0.21878253,0.35653138
15103278,0.25751778,-0.22783007,0.35811195
15112055,0.2557362,-0.21161087,0.36002508
15123279,0.24154145,-0.21517299,0.35654944
15132079,0.24512434,-0.22946891,0.34621286
15143278,0.24863437,-0.22965854,0.35975036
15152108,0.26280862,-0.22980078,0.36993873
15163279,0.2646201,-0.220611,0.35823482
15172113,0.25396672,-0.23504917,0.3579999
15183278,0.24331279,-0.23504917,0.35796738
15192079,0.25218597,-0.23687765,0.35966
15203279,0.26286072,-0.24039237,0.3528786
15212079,0.2504253,-0.22417314,0.35475922
15223278,0.23973036,-0.23158187,0.36815217
15232079,0.25397688,-0.23139223,0.35466883
15242487,0.24509338,-0.22961113,0.35635787
15252079,0.2504256,-0.23139223,0.354658
15263279,0.24331263,-0.23143964,0.35801798
15272079,0.26283976,-0.23326811,0.35974312
15282486,0.25396657,-0.23143964,0.3580505
15292091,0.24865547,-0.24039237,0.35283524
15302486,0.25394607,-0.23514399,0.36476323
15312079,0.2788367,-0.24583037,0.35454232
15322486,0.26109973,-0.22046877,0.34807897
15332079,0.25395638,-0.23509659,0.3613816
15342495,0.2503843,-0.23158187,0.3681847
15352079,0.24333313,-0.22773525,0.35130525
15362473,0.2540288,-0.23837426,0.33765927
15372055,0.23975085,-0.22787748,0.36143944
15383286,0.26105887,-0.23148705,0.3614539
15392055,0.25215468,-0.22980078,0.36990622
15402494,0.2628402,-0.24409671,0.3595913
15412055,0.2610695,-0.23865871,0.35797095
15422513,0.25396687,-0.23865871,0.3579493
15432055,0.2628396,-0.22965854,0.35979372
15442482,0.2486658,-0.24034496,0.34945357
15452055,0.2539567,-0.24231566,0.36128038
15462503,0.25575823,-0.2440019,0.3528063
15472055,0.26818216,-0.23139223,0.3547122
15482524,0.2646105,-0.23870613,0.3613635
15492086,0.25751793,-0.23143964,0.35806134
15502487,0.24152155,-0.23331553,0.36305976
15512087,0.25218627,-0.24409671,0.3595588
15522480,0.25218627,-0.24409671,0.3595588
15532087,0.25218627,-0.24409671,0.3595588
15532880,0.25218627,-0.24409671,0.3595588
15542479,0.25218627,-0.24409671,0.3595588
15552087,0.25218627,-0.24409671,0.3595588
15552880,0.25218627,-0.24409671,0.3595588
15562479,0.25218627,-0.24409671,0.3595588
15572112,0.25218627,-0.24409671,0.3595588
15572881,0.25218627,-0.24409671,0.3595588
15582479,0.25218627,-0.24409671,0.3595588
15592114,0.25218627,-0.24409671,0.3595588
15592880,0.25218627,-0.24409671,0.3595588
15602479,0.2681934,-0.25300205,0.3510269
15611255,0.26104948,-0.2531917,0.3645319
15622504,0.24693698,-0.24915546,0.33410412
15631279,0.25399846,-0.25295466,0.34760186
15642510,0.26463163,-0.24943992,0.35444835
15651280,0.25926876,-0.25502017,0.366192
15662455,0.2415633,-0.24395448,0.3493813
15671283,0.24863483,-0.24048719,0.35959855
15682454,0.25043684,-0.25300205,0.3509727
15691302,0.24866657,-0.25839266,0.34920058
15702454,0.25394654,-0.24597259,0.36461145
15711279,0.24687444,-0.23500177,0.35459656
15722454,0.26640266,-0.26209706,0.3559675
15731278,0.24686426,-0.23865871,0.3579276
15741678,0.25399816,-0.24573554,0.34770307
15751279,0.25577873,-0.24029756,0.3460936
15761654,0.25577888,-0.24390708,0.346043
15771279,0.2380123,-0.2511736,0.34926924
15781654,0.25753963,-0.25661156,0.35094377
15791279,0.24332358,-0.24583037,0.3544339
15801655,0.24863498,-0.24409671,0.35954794
15811279,0.26461098,-0.24953474,0.36121172
15821654,0.24864562,-0.25126842,0.3560651
15831289,0.24333374,-0.24217343,0.35110283
15841654,0.26641175,-0.2331733,0.35299063
15851279,0.25223774,-0.24025014,0.34270108
15861654,0.24331309,-0.24226825,0.35786617
15871279,0.2593094,-0.24039237,0.35286775
15881661,0.2468544,-0.24953474,0.3611575
15891304,0.24686503,-0.2567064,0.3576746
15901664,0.24511462,-0.24395448,0.34939215
15911292,0.24507333,-0.24414413,0.3629188
15921679,0.24688506,-0.24217343,0.35111368
15931279,0.24329199,-0.23153445,0.36478132
15941704,0.2557274,-0.24775366,0.3629007
15951279,0.25576857,-0.24395448,0.34942466
15961684,0.23803249,-0.24025014,0.34265772
15971279,0.23622079,-0.24222085,0.35446283
15981693,0.24335438,-0.24207862,0.3443395
15991279,0.24866594,-0.24395448,0.34940296
16001691,0.2521658,-0.24780107,0.36627156
16011279,0.25039512,-0.24236307,0.3646512
16021696,0.25927874,-0.24775366,0.36291155
16031279,0.2379912,-0.24043977,0.3561844
16041717,0.24329261,-0.24597259,0.3645789
16051279,0.23794976,-0.23701988,0.36976165
16061685,0.24682312,-0.24245788,0.37140372
16071295,0.24689554,-0.24573554,0.34768137
16081706,0.24689554,-0.24573554,0.34768137
16092068,0.24689554,-0.24573554,0.34768137
16101722,0.24689554,-0.24573554,0.34768137
16112055,0.24689554,-0.24573554,0.34768137
16121679,0.24689554,-0.24573554,0.34768137
16131280,0.24689554,-0.24573554,0.34768137
16141680,0.24689554,-0.24573554,0.34768137
16150479,0.25926813,-0.240582,0.36639443
16161685,0.24686487,-0.25309688,0.3577252
16170479,0.22912848,-0.24217343,0.35105947
16181685,0.23445022,-0.24039237,0.35279188
16190479,0.2628296,-0.23692507,0.3630742
16200886,0.2628612,-0.251221,0.3527268
16210480,0.23976132,-0.23143964,0.35800713
16220879,0.24324068,-0.23899058,0.3815885
16230506,0.24150123,-0.24062942,0.3697219
16240878,0.23797023,-0.23331553,0.3630489
16250496,0.24331325,-0.24587777,0.35781556
16260904,0.24865562,-0.2440019,0.35278463
16270517,0.25571728,-0.25141063,0.3662318
16280912,0.24862435,-0.23692507,0.36303085
16290493,0.25573805,-0.25492534,0.35941783
16300885,0.25041592,-0.24587777,0.35783723
16310505,0.25575837,-0.24761143,0.3527557
16320885,0.25044596,-0.22407831,0.34799585
16330493,0.25040525,-0.23870613,0.36132014
16340885,0.23976195,-0.24587777,0.35780472
16350479,0.25573742,-0.24048719,0.35962024
16360885,0.24682297,-0.23884834,0.37145433
16370455,0.24331279,-0.23504917,0.35796738
16380897,0.2486447,-0.22961113,0.35636872
16390493,0.26105917,-0.23870613,0.36135268
16400887,0.25218675,-0.25492534,0.35940698
16410455,0.25218642,-0.24770625,0.3595082
16420886,0.2610689,-0.22422054,0.35817337
16430484,0.2575284,-0.23500177,0.35462907
16440886,0.25038478,-0.24241048,0.36803287
16450485,0.2592783,-0.23692507,0.36306337
16460886,0.24329153,-0.22070582,0.36493313
16470485,0.25217596,-0.24414413,0.3629405
16480886,0.2557379,-0.2513158,0.35946843
16490486,0.25571617,-0.22614384,0.366586
16500886,0.25215486,-0.23341034,0.3698556
16510485,0.2379496,-0.23341034,0.36981225
16520886,0.24505223,-0.23341034,0.36983395
16530485,0.25751823,-0.23865871,0.35796013
16540879,0.25034317,-0.23538104,0.38166076
16550492,0.24328212,-0.24241048,0.3680112
16560879,0.24861433,-0.24419153,0.3663113
16570486,0.25926766,-0.22975336,0.36654624
16580878,0.26819277,-0.2385639,0.3512293
16590486,0.24507272,-0.22970596,0.3631212
16600856,0.24507272,-0.22970596,0.3631212
16610455,0.24507272,-0.22970596,0.3631212
16611287,0.24507272,-0.22970596,0.3631212
16620855,0.24507272,-0.22970596,0.3631212
16631287,0.24507272,-0.22970596,0.3631212
16640855,0.24507272,-0.22970596,0.3631212
16650507,0.24507272,-0.22970596,0.3631212
16660871,0.24507272,-0.22970596,0.3631212
16670480,0.24507272,-0.22970596,0.3631212
16680079,0.23978244,-0.24217343,0.35109198
16689685,0.26280925,-0.24423894,0.3697363
16700054,0.23800151,-0.24039237,0.35280272
16709686,0.2539254,-0.2352388,0.3715266
16720054,0.23800136,-0.23678283,0.3528533
16729679,0.25220692,-0.2440019,0.35279548
16740054,0.239751,-0.23148705,0.36138883
16749679,0.25924733,-0.23706728,0.37320837
16760054,0.24331294,-0.23865871,0.35791677
16769679,0.25040558,-0.24592519,0.36121896
16780054,0.25751856,-0.24587777,0.35785893
16789679,0.25218582,-0.23326811,0.3597106
16800054,0.24331279,-0.23504917,0.35796738
16809679,0.25216597,-0.25141063,0.36622095
16820054,0.24149105,-0.24428634,0.37305295
16829680,0.25752854,-0.23861131,0.35457847
16840086,0.25928846,-0.23326811,0.3597323
16849679,0.25040588,-0.2531443,0.36111775
16860086,0.24687459,-0.23861131,0.35454595
16869679,0.23621,-0.23143964,0.35799628
16880086,0.26462102,-0.24226825,0.3579312
16889695,0.26104856,-0.23153445,0.36483553
16900086,0.24326117,-0.23528622,0.37487572
16909718,0.26109076,-0.25300205,0.35100523
16920086,0.24153188,-0.23326811,0.3596781
16929683,0.25045705,-0.24207862,0.3443612
16940086,0.25044656,-0.23851648,0.34779343
16949744,0.25218612,-0.24048719,0.3596094
16960086,0.25039494,-0.23875353,0.3647018
16969710,0.2664019,-0.2440493,0.3562205
16980086,0.25575808,-0.24039237,0.3528569
16989679,0.2557268,-0.23331553,0.36310312
17000111,0.25930926,-0.23678283,0.35291836
17009678,0.25933054,-0.25112617,0.3459526
17020113,0.2451043,-0.2440019,0.3527738
17030473,0.24151093,-0.22614384,0.36654264
17040086,0.24154206,-0.22961113,0.35634705
17049679,0.2610393,-0.2568486,0.367863
17060079,0.25570598,-0.22980078,0.36991706
17071296,0.24155314,-0.24761143,0.35271233
17080079,0.2522077,-0.26204965,0.35254246
17091297,0.24151185,-0.24780107,0.36623904
17100079,0.2610598,-0.2531443,0.36115026
17111343,0.25571665,-0.23697247,0.36643422
17120079,0.24678153,-0.23542845,0.38503158
17131317,0.2362006,-0.2531443,0.3610744
17140078,0.26997384,-0.24395448,0.34946802
17149656,0.26997384,-0.24395448,0.34946802
17160080,0.26997384,-0.24395448,0.34946802
17169658,0.26997384,-0.24395448,0.34946802
17189656,0.26997384,-0.24395448,0.34946802
17200080,0.26997384,-0.24395448,0.34946802
